kaptCode,kaptName,bjdCode,as1,as2,as3,as4,kaptAddr,codeSaleNm,codeHeatNm,kaptTarea,kaptDongCnt,kaptdaCnt,kaptBcompany,kaptAcompany,kaptTel,kaptUrl,codeAptNm,doroJuso,codeMgrNm,codeHallNm,kaptUsedate,kaptFax,hoCnt,kaptMarea,kaptMparea60,kaptMparea85,kaptMparea135,kaptMparea136,privArea,kaptTopFloor,ktownFlrNo,kaptBaseFloor,kaptdEcntp,zipcode,위도,경도
A10021797,영도 봄여름가을겨울,2620010100,부산광역시,영도구,대교동1가,,부산광역시 영도구 대교동1가 95- 영도 봄여름가을겨울,분양,개별난방,13397.7295,1,115.0,수영주택건설,수영주택건설,024152280,,아파트,부산광역시 영도구 남항서로 131,위탁관리,계단식,20200804,,115,11994.951,0.0,115.0,0.0,0.0,8482.4069,1,25,0,0,,35.0921750107508,129.037705311481
A60675701,대동대교아파트,2620010300,부산광역시,영도구,대평동1가,,부산광역시 영도구 대평동1가 1 대동대교아파트,분양,개별난방,56483.0,4,462.0,대동조선(주),대동조선(주),0514169021,,아파트,부산광역시 영도구 대평로 16,자치관리,계단식,19800830,0514169028,555,51608.7,11.0,132.0,299.0,20.0,38654.22,12,12,0,17,49041,35.0913692068559,129.03606815475
A10027065,남항부백자연애아파트,2620010500,부산광역시,영도구,남항동1가,,부산광역시 영도구 남항동1가 217-1 남항부백자연애아파트,분양,개별난방,15688.95,1,184.0,(주)대보종합건설,(주)부백건설,0514188856,,주상복합,부산광역시 영도구 절영로35번길 46,위탁관리,계단식,20160715,0514188856,184,13428.313,157.0,27.0,0.0,0.0,8949.73,15,15,1,7,49053,35.0902725958887,129.041338476199
A60674101,동부산아이존빌아파트,2620010900,부산광역시,영도구,영선동2가,,부산광역시 영도구 영선동2가 175 동부산아이존빌아파트,분양,개별난방,58238.47,5,416.0,동부산건설,동부산건설,0514128893,,아파트,부산광역시 영도구 영선대로 98,위탁관리,계단식,20041130,0519948894,416,47873.96,3.0,321.0,92.0,0.0,36960.7367,20,20,1,11,49069,35.0885169573786,129.043481324555
A60675901,영도대원아파트,2620011100,부산광역시,영도구,영선동4가,,부산광역시 영도구 영선동4가 245-1 영도대원아파트,분양,개별난방,91970.38,5,448.0,(주)대원,(주)대원,0514153878,www.hebibi.com/180,아파트,부산광역시 영도구 남항새싹길 79,자치관리,혼합식,19910105,0514153879,448,59861.156,0.0,219.0,148.0,81.0,47748.541,15,15,1,12,49078,35.0820832884882,129.043310392366
A60681702,영선동반도보라아파트,2620011100,부산광역시,영도구,영선동4가,,부산광역시 영도구 영선동4가 186-46 영선동반도보라아파트,분양,개별난방,117923.0,10,868.0,(주)반도,반도,0514188900,,아파트,부산광역시 영도구 해안산책길 30,위탁관리,계단식,20000616,07070051314,877,96393.22,336.0,292.0,192.0,48.0,75410.28,25,25,2,19,49080,35.0820206590569,129.040062498074
A60605201,영광그린파크아파트,2620011300,부산광역시,영도구,신선동2가,,부산광역시 영도구 신선동2가 181-30 영광그린파크아파트,분양,개별난방,21048.61,1,209.0,영광산업,영광산업,0514147197,,아파트,부산광역시 영도구 중복길 270,자치관리,혼합식,19931230,0519857197,215,20469.42,36.0,173.0,0.0,0.0,15472.79,15,15,0,5,49075,35.0841881017051,129.047661123059
A10020690,부산항 퀸즈W 오션프런트,2620011600,부산광역시,영도구,봉래동2가,,부산광역시 영도구 봉래동2가 140- 부산항 퀸즈W 오션프런트,임대,개별난방,36586.71,1,299.0,대성문산업개발,대성문산업개발,0514185447,,아파트,부산광역시 영도구 봉래나루로166번길 10,위탁관리,계단식,20250401,0514135448,299,24989.969,299.0,0.0,0.0,0.0,15799.1568,34,34,2,8,,35.0958057105957,129.042686608494
A60675801,미광마린타워아파트,2620011600,부산광역시,영도구,봉래동2가,,부산광역시 영도구 봉래동2가 112 미광마린타워아파트,분양,개별난방,98803.36,4,676.0,대우건설,대우건설,0514163908,,아파트,부산광역시 영도구 대교로14번길 17,자치관리,계단식,19920605,0514163909,676,72868.2,0.0,406.0,138.0,132.0,72868.2,23,23,0,15,49004,35.0945408693402,129.043304043731
A10024303,영도 센트럴 에일린의뜰,2620011800,부산광역시,영도구,봉래동4가,,부산광역시 영도구 봉래동4가 69-1 영도 센트럴 에일린의뜰,혼합,개별난방,126989.0,12,1216.0,아이에스동서,봉래1구역 주택재개발 정비사업조합,0514188847,,아파트,부산광역시 영도구 태종로 172,위탁관리,계단식,20210429,0514188849,1216,124687.17,397.0,764.0,55.0,0.0,91078.1778,34,34,3,27,49057,35.0935638945661,129.047480684119
A60681101,영도유림아파트,2620011800,부산광역시,영도구,봉래동4가,,부산광역시 영도구 봉래동4가 300 영도유림아파트,분양,개별난방,29165.61,3,310.0,유림건설,유림건설,0514161346,,아파트,부산광역시 영도구 봉래길 94,위탁관리,혼합식,19961230,0514123020,310,26228.27,276.0,34.0,0.0,0.0,19428.54,13,13,1,8,49065,35.0902887757509,129.050379896855
A10023733,청학 우성 스마트시티 뷰 아파트,2620012000,부산광역시,영도구,청학동,,부산광역시 영도구 청학동 537 청학 우성 스마트시티 뷰 아파트,분양,개별난방,38384.824,2,262.0,(주)우성종합건설,(주)우성종합건설,0514149099,,아파트,부산광역시 영도구 태종로 405,위탁관리,계단식,20220524,0514189098,267,24004.736,0.0,262.0,0.0,0.0,17432.9942,35,35,4,4,49010,35.0912250811987,129.066622736303
A60607001,청학동한일유앤아이아파트,2620012000,부산광역시,영도구,청학동,,부산광역시 영도구 청학동 69-93 청학동한일유앤아이아파트,분양,개별난방,26218.0,2,210.0,(주) 한일건설,(주)선진엔터프라이즈,0514136712,,아파트,부산광역시 영도구 일산봉로 58,위탁관리,계단식,20050817,0519036712,210,22336.8,0.0,210.0,0.0,0.0,17732.8772,20,20,1,0,49090,35.0869471812055,129.065695037436
A60607002,원우엔리치빌,2620012000,부산광역시,영도구,청학동,,부산광역시 영도구 청학동 489-30 원우엔리치빌,분양,개별난방,67058.0,5,490.0,원우종합건설,케이비국민은행,0514121600,,아파트,부산광역시 영도구 조내기로 38,위탁관리,계단식,20040709,0514121717,490,50133.0,0.0,474.0,16.0,0.0,37890.3453,18,18,2,15,49086,35.0854631456781,129.062423760831
A60607003,신영도롯데낙천대,2620012000,부산광역시,영도구,청학동,,부산광역시 영도구 청학동 99-294 신영도롯데낙천대,분양,개별난방,67929.69,8,528.0,롯데건설주식회사,태산종합건설주식회사,0514120560,,아파트,부산광역시 영도구 청학남로 48,위탁관리,계단식,20051026,0514120561,528,51761.3,218.0,270.0,40.0,0.0,39708.7774,20,20,4,14,49085,35.0882000904075,129.062492687821
A60607004,청학영도신도브래뉴,2620012000,부산광역시,영도구,청학동,,부산광역시 영도구 청학동 536 청학영도신도브래뉴,분양,개별난방,55829.207,11,508.0,신도건설,신도건설,0514127300,,아파트,부산광역시 영도구 태종로 260,위탁관리,계단식,20090730,0514127302,509,55710.918,142.0,300.0,66.0,0.0,41841.0788,20,20,3,13,49021,35.0970191046008,129.055805230574
A60673703,일신마리나,2620012000,부산광역시,영도구,청학동,,부산광역시 영도구 청학동 85 일신마리나,분양,개별난방,44817.04,3,355.0,대우건설,대우건설,0514154458,,아파트,부산광역시 영도구 조내기로 33,위탁관리,계단식,19940111,0519644458,355,43705.2,2.0,261.0,92.0,0.0,32951.78,23,23,1,11,49086,35.0867560897163,129.063877735946
A60681801,청학삼창아파트,2620012000,부산광역시,영도구,청학동,,부산광역시 영도구 청학동 48 청학삼창아파트,분양,개별난방,17206.49,1,175.0,삼창주택,삼창주택,0514127243,,아파트,부산광역시 영도구 광암길 6,자치관리,계단식,19951229,0514127244,175,15553.722,86.0,89.0,0.0,0.0,12637.69,14,14,0,7,49010,35.092266751175,129.066627537778
A60681802,한라비치아파트,2620012000,부산광역시,영도구,청학동,,부산광역시 영도구 청학동 62-60 한라비치아파트,분양,개별난방,32645.06,1,299.0,주식회사 한라종합건설,백두건설주식회사,0514132621,,아파트,부산광역시 영도구 태종로 428,자치관리,계단식,19940514,07073662622,299,30628.314,112.0,139.0,48.0,0.0,24594.09,24,24,1,7,49088,35.0892712823521,129.067783611714
A60681904,영도미주비치아파트,2620012000,부산광역시,영도구,청학동,,부산광역시 영도구 청학동 69-83 영도미주비치아파트,분양,개별난방,48357.83,2,418.0,.,.,0514179600,,아파트,부산광역시 영도구 일산봉로 62,위탁관리,혼합식,19990802,0514120789,418,40638.324,173.0,245.0,0.0,0.0,30543.1,25,25,0,9,49090,35.0874565790037,129.065723454698
A10020370,태림아파트,2620012100,부산광역시,영도구,동삼동,,부산광역시 영도구 동삼동 314- 태림아파트,분양,개별난방,1800000.0,5,120.0,**,**,0514038097,,아파트,부산광역시 영도구 웃서발로 92,관리방식미정,계단식,19800528,,120,1800000.0,40.0,80.0,0.0,0.0,8014.749,5,5,0,0,,35.0783588184761,129.071706049564
A10021630,영동경동리인,2620012100,부산광역시,영도구,동삼동,,부산광역시 영도구 동삼동 1190- 영동경동리인,분양,개별난방,15507.0,2,123.0,주식회사 경동,주식회사 경동,0514059590,,아파트,부산광역시 영도구 절영로490번길 18,위탁관리,혼합식,20171215,,123,10885.819,0.0,123.0,0.0,0.0,8477.3199,20,20,2,0,,35.0703041414481,129.070229684363
A10022267,오션라이프에일린의 뜰,2620012100,부산광역시,영도구,동삼동,,부산광역시 영도구 동삼동 383-1 오션라이프에일린의 뜰,혼합,개별난방,176968.0,10,1228.0,아이에스동서건설(주),동삼2구역재개발정비사업조합,0514040790,동삼2구역재개발정비사업조합,아파트,,위탁관리,계단식,20230628,0514040793,1228,124361.836,324.0,840.0,64.0,0.0,184316.4076,35,35,2,23,,35.0756151300285,129.074282229033
A10023837,부산오션시티푸르지오,2620012100,부산광역시,영도구,동삼동,,부산광역시 영도구 동삼동 1180 부산오션시티푸르지오,분양,개별난방,161798.97,4,846.0,대우건설,하버시티개발(주),0514051180,,아파트,부산광역시 영도구 동삼오션로 30,위탁관리,계단식,20220428,0514051183,846,100511.87,0.0,839.0,7.0,0.0,72025.4783,49,49,3,16,49128,35.0691013982873,129.083174149751
A10026828,롯데캐슬블루오션 아파트,2620012100,부산광역시,영도구,동삼동,,부산광역시 영도구 동삼동 423-4 롯데캐슬블루오션 아파트,분양,개별난방,49935.97,5,381.0,롯데건설(주),주식회사케이티에스테이트,0514034907,,아파트,부산광역시 영도구 절영로 524,위탁관리,계단식,20170829,0514034906,382,36405.24,161.0,213.0,7.0,0.0,26989.2,25,25,2,8,49109,35.0728453246056,129.073711492582
A10028116,일동미라주브라이튼,2620012100,부산광역시,영도구,동삼동,,부산광역시 영도구 동삼동 1170 일동미라주브라이튼,분양,개별난방,42397.793,6,312.0,미라주건설,미라주건설,0514044589,,아파트,부산광역시 영도구 동삼북로 20,위탁관리,계단식,20141231,0514054590,312,32298.45,0.0,312.0,0.0,0.0,23306.1915,15,15,1,12,49098,35.0822101930358,129.070089304874
A60608001,영도벽산비치타운,2620012100,부산광역시,영도구,동삼동,,부산광역시 영도구 동삼동 510-27 영도벽산비치타운,분양,개별난방,56347.76,5,414.0,벽산건설(주),"부원주택,삼창주택",0514037817,,아파트,부산광역시 영도구 와치로 266,자치관리,계단식,19950610,0514037812,414,50359.92,0.0,0.0,354.0,60.0,42697.98,15,15,1,14,49115,35.0748721301076,129.069630824704
A60608002,조양비취맨션,2620012100,부산광역시,영도구,동삼동,,부산광역시 영도구 동삼동 656 조양비취맨션,분양,개별난방,39100.6,9,630.0,(주)조양개발,(주)조양개발,0514050668,,아파트,부산광역시 영도구 절영로 504,자치관리,계단식,19851221,0519858585,630,39100.6,555.0,75.0,0.0,0.0,34447.5,5,5,0,0,49121,35.0715874628621,129.071682597674
A60608106,반도보라비치타운,2620012100,부산광역시,영도구,동삼동,,부산광역시 영도구 동삼동 1124-2 반도보라비치타운,분양,개별난방,44378.0,3,320.0,(주)반도종합건설,(주)반도종합건설,0514031648,,아파트,부산광역시 영도구 함지로 19,자치관리,계단식,19941114,0514031649,320,41194.56,0.0,0.0,320.0,0.0,33648.48,24,24,0,7,49120,35.0715683323942,129.060022872753
A60608303,동삼그린힐,2620012100,부산광역시,영도구,동삼동,,부산광역시 영도구 동삼동 1123 동삼그린힐,분양,개별난방,145714.14,17,2088.0,"(주)성신,(주)국제종합토건,남도개발주식회사",대한주택공사,0514038754,,아파트,부산광역시 영도구 상리로 1,위탁관리,복도식,19930922,0514038773,2088,145714.14,2088.0,0.0,0.0,0.0,103848.48,15,15,0,28,49089,35.0859658738733,129.068549922732
A60670101,도시공사동삼2지구영구임대아파트,2620012100,부산광역시,영도구,동삼동,,부산광역시 영도구 동삼동 510 도시공사동삼2지구영구임대아파트,임대,중앙난방,49035.3,7,1120.0,두진건설,부산도시공사,0514034223,,아파트,부산광역시 영도구 함지로79번길 53,자치관리,복도식,19951020,0514034228,1120,30856.0,1120.0,0.0,0.0,0.0,30856,20,20,1,14,49114,35.0767270264161,129.064445131277
A60670102,도시공사동삼1지구영구임대아파트,2620012100,부산광역시,영도구,동삼동,,부산광역시 영도구 동삼동 1124-6 도시공사동삼1지구영구임대아파트,임대,중앙난방,17255.88,3,400.0,삼협개발(주),부산도시공사,0514040399,,아파트,부산광역시 영도구 함지로 35,자치관리,복도식,19940506,0519850399,400,10964.0,400.0,0.0,0.0,0.0,10964,14,14,1,6,49113,35.0721760476197,129.062547902404
A60675110,함지그린,2620012100,부산광역시,영도구,동삼동,,부산광역시 영도구 동삼동 1124 함지그린,분양,개별난방,76973.23,9,1000.0,"삼협개발,남도개발",부산도시개발공사,0514046343,joyapt.com/58,아파트,부산광역시 영도구 함지로 8,위탁관리,복도식,19940506,0514046344,1000,74049.56,1000.0,0.0,0.0,0.0,52454,21,21,1,10,49119,35.0708931680362,129.061995166605
A60676104,부산동삼1,2620012100,부산광역시,영도구,동삼동,,부산광역시 영도구 동삼동 1121 부산동삼1,임대,중앙난방,43047.0,4,976.0,한국토지주택공사,한국토지주택공사,0514036546,www.kohom.or.kr/index.jsp,아파트,부산광역시 영도구 동삼북로 2,자치관리,복도식,19911115,0514030557,976,39872.29,976.0,0.0,0.0,0.0,26920.17,15,15,0,18,49093,35.0832912242092,129.067724609421
A60676205,부산동삼2주공,2620012100,부산광역시,영도구,동삼동,,부산광역시 영도구 동삼동 1123 부산동삼2주공,임대,중앙난방,84213.43,9,1968.0,국제종합토건 외4개업체,대한주택공사,0514035583,www.kohom.or.kr,아파트,부산광역시 영도구 상리로 1,위탁관리,복도식,19931020,0514040045,1968,79048.4,1968.0,0.0,0.0,0.0,53371.26,15,15,1,24,49089,35.0859658738733,129.068549922732
A60677104,한진로즈힐,2620012100,부산광역시,영도구,동삼동,,부산광역시 영도구 동삼동 510-34 한진로즈힐,분양,개별난방,25161.0,3,270.0,(주)한진중공업,(주)한진중공업,0514049351,,아파트,부산광역시 영도구 와치로 294,위탁관리,혼합식,20041227,0519919351,270,18387.84,270.0,0.0,0.0,0.0,13467.1224,18,18,2,4,49117,35.0732892168716,129.071509569562
A60680701,삼창그린타운,2620012100,부산광역시,영도구,동삼동,,부산광역시 영도구 동삼동 679-1 삼창그린타운,분양,개별난방,17884.564,2,174.0,삼창종합건설(주),삼창종합건설(주),0514050711,,아파트,부산광역시 영도구 태종로700번길 19,위탁관리,혼합식,19961231,0514040611,174,15849.222,98.0,76.0,0.0,0.0,11928.18,15,15,0,5,49122,35.071154555022,129.075185756214
A60680702,삼창파크5동6동,2620012100,부산광역시,영도구,동삼동,,부산광역시 영도구 동삼동 402-4 삼창파크5동6동,분양,개별난방,19423.74,2,183.0,삼창,삼창,0514050428,,아파트,부산광역시 영도구 절영로 551,자치관리,계단식,19901207,0514050428,183,19061.41,24.0,125.0,24.0,10.0,14986.91,14,14,10,8,49108,35.0746056149353,129.072729359836
A60680703,경전아파트,2620012100,부산광역시,영도구,동삼동,,부산광역시 영도구 동삼동 265 경전아파트,분양,개별난방,25318.81,2,224.0,형진건설,(주)경전건설,0514053393,,아파트,부산광역시 영도구 동삼동로 10,위탁관리,계단식,19931014,0514053393,224,24624.72,25.0,138.0,61.0,0.0,18957.37,16,16,1,7,49097,35.0807327567116,129.071168951933
A60680705,에덴금호타운,2620012100,부산광역시,영도구,동삼동,,부산광역시 영도구 동삼동 680-12 에덴금호타운,분양,개별난방,35841.69,2,285.0,"금호건설,금호개발",에덴주택,0514057016,,아파트,부산광역시 영도구 태종로 702,위탁관리,복도식,19950609,0514057015,285,30759.785,100.0,135.0,50.0,0.0,23269.2,25,25,2,1,49122,35.0711837841954,129.076110319985
A60680907,동삼절영3차,2620012100,부산광역시,영도구,동삼동,,부산광역시 영도구 동삼동 510-37 동삼절영3차,분양,개별난방,22745.0,2,360.0,성수종합건설(주),도시개발공사,0514054252,,아파트,부산광역시 영도구 와치로 287,자치관리,복도식,19971227,0514054254,360,21421.44,360.0,0.0,0.0,0.0,15056.64,20,20,0,0,49108,35.074121573628,129.07205063956
A60680909,국제마마뉴비치,2620012100,부산광역시,영도구,동삼동,,부산광역시 영도구 동삼동 510-33 국제마마뉴비치,분양,개별난방,74274.03,6,522.0,마마주택,국제종합건설,0514057282,,아파트,부산광역시 영도구 중리로 32,자치관리,계단식,19950703,0519857280,522,64320.004,0.0,0.0,442.0,80.0,53350.97,15,15,1,19,49116,35.0733934483124,129.069200278892
A60680912,절영아파트,2620012100,부산광역시,영도구,동삼동,,부산광역시 영도구 동삼동 510-11 절영아파트,분양,개별난방,92006.89,10,1340.0,부산도시개발공사,부산도시개발공사,0514054202,,아파트,부산광역시 영도구 와치로 231,위탁관리,복도식,19951020,0514054203,1340,88440.0,1340.0,0.0,0.0,0.0,62001.8,20,20,1,22,49105,35.0749881097845,129.067565903872
