kaptCode,kaptName,bjdCode,as1,as2,as3,as4,kaptAddr,codeSaleNm,codeHeatNm,kaptTarea,kaptDongCnt,kaptdaCnt,kaptBcompany,kaptAcompany,kaptTel,kaptUrl,codeAptNm,doroJuso,codeMgrNm,codeHallNm,kaptUsedate,kaptFax,hoCnt,kaptMarea,kaptMparea60,kaptMparea85,kaptMparea135,kaptMparea136,privArea,kaptTopFloor,ktownFlrNo,kaptBaseFloor,kaptdEcntp,zipcode,위도,경도
A10022480,마포트라팰리스2,1144010100,서울특별시,마포구,아현동,,서울특별시 마포구 아현동 738- 마포트라팰리스2,분양,개별난방,25895.0,2,120.0,삼성물산,삼성물산,023930132,,,서울특별시 마포구 마포대로 201,위탁관리,기타,20080718,023930134,120,25800.0,0.0,4.0,116.0,0.0,12101.88,22,22,4,0,,37.5521875499305,126.955532277456
A10022941,마포푸르지오더센트럴,1144010100,서울특별시,마포구,아현동,,서울특별시 마포구 아현동 275-2 마포푸르지오더센트럴,혼합,개별난방,27327.0,2,239.0,대우건설,(주)테라윈미래아현PFV,023629664,,주상복합,서울특별시 마포구 마포대로 231,위탁관리,혼합식,20231031,023629665,239,13102.72,239.0,0.0,0.0,0.0,9394.69,18,18,6,6,04117,37.5544295438073,126.955881212088
A10023508,마포더클래시,1144010100,서울특별시,마포구,아현동,,서울특별시 마포구 아현동 804 마포더클래시,혼합,개별난방,209770.23,17,1419.0,"HDC현대산업개발(주), SK에코플랜트",아현2구역주택재건축정비사업조합,023136661,theclassy1419@naver.com,아파트,서울특별시 마포구 신촌로28길 50,위탁관리,혼합식,20221129,023136662,1419,123193.18,1027.0,392.0,0.0,0.0,90160.42,25,25,4,42,04113,37.555162019119,126.950560295066
A10027090,마포센트럴아이파크,1144010100,서울특별시,마포구,아현동,,서울특별시 마포구 아현동 802 마포센트럴아이파크,혼합,개별난방,78227.03,6,497.0,현대산업개발,아현1-3구역 재개발정비사업조합,023920226,ahyeonipark.com/,아파트,서울특별시 마포구 마포대로 246,위탁관리,계단식,20171116,023920228,497,51206.0,206.0,205.0,86.0,0.0,38231.36,29,29,4,0,04201,37.5555439140394,126.959183184111
A10027906,공덕자이 아파트,1144010100,서울특별시,마포구,아현동,,서울특별시 마포구 아현동 800 공덕자이 아파트,분양,중앙난방,167621.81,16,963.0,GS건설,아현제4구역 주택 재개발 정비사업조합,023137870,gongdeokxi.apti.co.kr,아파트,서울특별시 마포구 마포대로24길 16,위탁관리,계단식,20150424,023133870,963,107990.52,285.0,477.0,201.0,0.0,80750.37,21,21,4,36,04202,37.5530357624543,126.958539371542
A10027951,공덕자이(임대),1144010100,서울특별시,마포구,아현동,,서울특별시 마포구 아현동 799 공덕자이(임대),임대,개별난방,19769.24,2,201.0,GS자이 건설,아현재4구역주택재개발정비사업조합,023628400,,아파트,서울특별시 마포구 마포대로26길 22,위탁관리,복도식,20150424,023629400,201,19766.34,201.0,0.0,0.0,0.0,7316.4,10,10,3,4,04202,37.5544769882774,126.958767180316
A12101001,서서울삼성아파트,1144010100,서울특별시,마포구,아현동,,서울특별시 마포구 아현동 692 서서울삼성아파트,분양,개별난방,23813.19,2,208.0,삼성중공업(주),재건축조합,023631644,,아파트,서울특별시 마포구 마포대로 262,위탁관리,혼합식,19981008,023649829,208,19778.684,84.0,124.0,0.0,0.0,14635.64,22,22,2,4,04201,37.5564806162715,126.959256236895
A12175202,마포트라팰리스2차,1144010100,서울특별시,마포구,아현동,,서울특별시 마포구 아현동 738 마포트라팰리스2차,분양,개별난방,25895.0,1,120.0,삼성물산(주),마포3-2지구 도시환경정비조합,023930312,,주상복합,서울특별시 마포구 마포대로 201,위탁관리,계단식,20080718,023930314,122,16730.67,0.0,4.0,116.0,0.0,12101.88,22,22,4,4,04130,37.5521875499305,126.955532277456
A12175203,마포래미안푸르지오,1144010100,서울특별시,마포구,아현동,,서울특별시 마포구 아현동 767 마포래미안푸르지오,혼합,개별난방,588070.06,51,3885.0,"삼성물산,대우건설",아현제3구역주택재개발정비사업조합,023629804,,아파트,서울특별시 마포구 마포대로 195,위탁관리,혼합식,20140926,023629852,3885,380436.56,1902.0,1458.0,499.0,26.0,286155.61,30,30,4,118,04129,37.5538773291783,126.951313504389
A10023118,공덕동 크로시티 행복주택,1144010200,서울특별시,마포구,공덕동,,서울특별시 마포구 공덕동 370-4 공덕동 크로시티 행복주택,임대,개별난방,23018.06,2,350.0,대우조선해양,서울시,0232752305,,아파트,서울특별시 마포구 백범로31길 19,위탁관리,복도식,20230710,0232752307,350,12473.7,350.0,0.0,0.0,0.0,7150.24,20,20,2,4,04147,37.5469887954139,126.950135343911
A10024408,공덕SK리더스뷰 1단지,1144010200,서울특별시,마포구,공덕동,,서울특별시 마포구 공덕동 479 공덕SK리더스뷰 1단지,혼합,개별난방,53469.09,3,306.0,sk건설,마포로6 도시환경정비조합,027113850,,주상복합,서울특별시 마포구 백범로31길 7,위탁관리,계단식,20211118,027113851,307,36122.54,0.0,228.0,78.0,0.0,27454.7,28,28,4,9,04147,37.5455836799342,126.948853628999
A10024626,공덕SK리더스뷰 2단지,1144010200,서울특별시,마포구,공덕동,,서울특별시 마포구 공덕동 480 공덕SK리더스뷰 2단지,혼합,,34709.77,2,166.0,SK건설,마포로6 도시환경정비사업조합,027183850,,아파트,서울특별시 마포구 백범로31길 8,위탁관리,복도식,20211118,027183851,166,12886.57,130.0,27.0,9.0,0.0,8731.47,29,29,5,0,04147,37.5450628279459,126.949517993916
A10027748,공덕파크자이 아파트,1144010200,서울특별시,마포구,공덕동,,서울특별시 마포구 공덕동 476 공덕파크자이 아파트,분양,개별난방,58168.0,4,288.0,GS건설(주),마포로1구역 제55지구 도시환경정비사업조합,027010855,없음,주상복합,서울특별시 마포구 백범로 152,위탁관리,계단식,20150828,027010857,288,34386.758,8.0,238.0,40.0,2.0,25694.2956,23,23,3,8,04148,37.5448715926588,126.947965377607
A12102002,공덕한화꿈에그린,1144010200,서울특별시,마포구,공덕동,,서울특별시 마포구 공덕동 460 공덕한화꿈에그린,분양,개별난방,31837.56,4,192.0,한화건설,한화건설,027147633,,아파트,서울특별시 마포구 마포대로10길 22,위탁관리,계단식,20040830,027147634,192,21708.0,0.0,166.0,26.0,0.0,17055.253,15,15,2,8,04210,37.5471055264549,126.955448049561
A12102005,마포현대아파트,1144010200,서울특별시,마포구,공덕동,,서울특별시 마포구 공덕동 188-108 마포현대아파트,분양,개별난방,45084.2,5,480.0,현대건설,한국통신공사노조주택조합,027187788,,아파트,서울특별시 마포구 마포대로11길 84,위탁관리,혼합식,19880509,027043917,480,44866.8,183.0,297.0,0.0,0.0,35008.64,16,16,0,12,04133,37.5502197140808,126.949775701926
A12102008,삼성래미안공덕2차,1144010200,서울특별시,마포구,공덕동,,서울특별시 마포구 공덕동 43 삼성래미안공덕2차,분양,개별난방,106787.69,9,683.0,공덕2지구재개발주택조합,삼성물산,027194924,,아파트,서울특별시 마포구 마포대로20길 26,위탁관리,계단식,20040629,0263544924,683,75762.27,160.0,372.0,151.0,0.0,58538.25,20,20,2,18,04204,37.5510235757328,126.959614890478
A12170601,삼성래미안공덕4차,1144010200,서울특별시,마포구,공덕동,,서울특별시 마포구 공덕동 464 삼성래미안공덕4차,분양,개별난방,85211.58,12,597.0,삼성물산(주) 건설부분,공덕제3구역 주택재개발조합,027175041,www.uasis.com/main/main.co,아파트,서울특별시 마포구 마포대로11길 50,위탁관리,계단식,20051117,027175042,597,60293.01,315.0,174.0,108.0,0.0,45556.26,20,20,2,20,04132,37.5505592114337,126.95084907955
A12170602,공덕2삼성임대,1144010200,서울특별시,마포구,공덕동,,서울특별시 마포구 공덕동 43 공덕2삼성임대,임대,개별난방,14245.52,1,199.0,삼성물산,에스에이치공사,027196430,www.i-sh.co.kr,아파트,서울특별시 마포구 마포대로20길 26,위탁관리,복도식,20040629,027196431,199,9867.773,199.0,0.0,0.0,0.0,6712.27,16,16,2,2,04204,37.5510235757328,126.959614890478
A12170603,공덕래미안5차,1144010200,서울특별시,마포구,공덕동,,서울특별시 마포구 공덕동 469 공덕래미안5차,혼합,개별난방,115939.0,9,794.0,삼성물산(주),공덕제5구역주택재개발정비사업소조합,027019116,,아파트,서울특별시 마포구 마포대로 167,위탁관리,혼합식,20110825,027060035,794,73996.27,449.0,283.0,62.0,0.0,55281.072,17,17,0,23,04131,37.5506244659664,126.952220382962
A12180401,공덕현대,1144010200,서울특별시,마포구,공덕동,,서울특별시 마포구 공덕동 370-9 공덕현대,분양,개별난방,18353.39,2,183.0,(주)현대산업개발,대신증권주택조합,027178181,,아파트,서울특별시 마포구 마포대로11길 73,위탁관리,혼합식,19890807,027178182,183,14229.91,26.0,157.0,0.0,0.0,14232.83,15,15,0,6,04141,37.5482849729045,126.950136970049
A12180404,공덕삼성임대,1144010200,서울특별시,마포구,공덕동,,서울특별시 마포구 공덕동 371-1 공덕삼성임대,임대,개별난방,13392.45,1,226.0,삼성건설,삼성건설,0232752597,happy.i-sh.co.kr/main.do?deptid=70142,아파트,서울특별시 마포구 마포대로 115-8,자치관리,복도식,19991016,0232752598,226,13388.24,226.0,0.0,0.0,0.0,7406.02,20,20,2,3,04145,37.5480648199944,126.950904129992
A12180407,공덕삼성,1144010200,서울특별시,마포구,공덕동,,서울특별시 마포구 공덕동 371 공덕삼성,분양,개별난방,89511.64,5,651.0,삼성물산,공덕제1구역주택재개발조합,0232720290,,아파트,서울특별시 마포구 마포대로 115-8,자치관리,혼합식,19991016,0263868679,651,71155.48,230.0,287.0,134.0,0.0,53511.9,25,25,2,0,04145,37.5466958858357,126.951444914726
A12180506,공덕삼성래미안3차,1144010200,서울특별시,마포구,공덕동,,서울특별시 마포구 공덕동 457 공덕삼성래미안3차,분양,개별난방,91330.0,10,616.0,삼성물산,삼성물산,027048270,,아파트,서울특별시 마포구 마포대로7길 22,위탁관리,계단식,20040830,027048076,616,48679.87,281.0,223.0,112.0,0.0,48679.87,20,20,2,15,04142,37.5481694146031,126.95219399895
A10024334,마포KCC웰츠타워,1144010300,서울특별시,마포구,신공덕동,,서울특별시 마포구 신공덕동 171 마포KCC웰츠타워,분양,개별난방,37138.42,2,122.0,KCC건설,KCC건설,027011588,,주상복합,서울특별시 마포구 백범로 202,위탁관리,기타,20110526,027011587,122,26407.48,0.0,0.0,122.0,0.0,13900,31,31,5,0,04196,37.5428410149659,126.952463879815
A10027504,월드마크마포아파트,1144010300,서울특별시,마포구,신공덕동,,서울특별시 마포구 신공덕동 173 월드마크마포아파트,분양,개별난방,31178.73,2,132.0,대우건설(주),국제신탁(주),027072790,,아파트,서울특별시 마포구 백범로 212,위탁관리,기타,20111230,027072792,132,20065.16,0.0,0.0,78.0,54.0,16257.94,20,20,7,2,04196,37.5424449362081,126.953369360825
A12103002,신공덕3차삼성래미안,1144010300,서울특별시,마포구,신공덕동,,서울특별시 마포구 신공덕동 161 신공덕3차삼성래미안,분양,개별난방,47646.49,6,366.0,삼성물산(주),삼성물산(주),027015478,,아파트,서울특별시 마포구 만리재로 60,위탁관리,계단식,20030520,0264595478,366,36786.12,168.0,126.0,72.0,0.0,29006.94,22,22,3,10,04188,37.5455442470644,126.956827021445
A12103006,대우메트로디오빌,1144010300,서울특별시,마포구,신공덕동,,서울특별시 마포구 신공덕동 167 대우메트로디오빌,분양,개별난방+기타,18206.84,1,242.0,대우건설,마포 1-47 지구 재개발조합,0232768200,,주상복합,서울특별시 마포구 백범로 199,위탁관리,복도식,20051201,0232768205,242,18206.84,228.0,14.0,0.0,0.0,8696.92,30,30,8,2,04195,37.5434945824726,126.952869805451
A12179001,브라운스톤공덕,1144010300,서울특별시,마포구,신공덕동,,서울특별시 마포구 신공덕동 170 브라운스톤공덕,분양,개별난방,40490.09,3,290.0,이수건설(주),신공덕제5구역주택재개발조합,027011218,brownkd.apti.co.kr,아파트,서울특별시 마포구 백범로 230,위탁관리,계단식,20090219,027120384,290,28561.977,146.0,96.0,48.0,0.0,22409.54,25,25,2,6,04197,37.5415364830791,126.955297363222
A12179002,신공덕삼성임대,1144010300,서울특별시,마포구,신공덕동,,서울특별시 마포구 신공덕동 157 신공덕삼성임대,임대,개별난방,27228.16,2,376.0,삼성,에스에이치공사,027038120,www.i-sh.co.kr,주상복합,서울특별시 마포구 백범로37길 6,위탁관리,복도식,20000814,027038121,376,18644.637,376.0,0.0,0.0,0.0,12321.52,19,19,4,4,04193,37.5423373366489,126.956138407873
A12179003,신공덕2삼성래미안제2,1144010300,서울특별시,마포구,신공덕동,,서울특별시 마포구 신공덕동 159 신공덕2삼성래미안제2,임대,,9301.93,1,103.0,삼성물산주식회사,삼성물산주식회사,027189748,http://happy.i-sh.co.kr/aptCommunity/siteMap.do?mCode=Z010000&deptid=70165,아파트,서울특별시 마포구 만리재로 74,자치관리(직영),복도식,20001028,027011505,103,4426.446,103.0,0.0,0.0,0.0,3418.57,11,11,4,1,04187,37.5464519366705,126.958912258488
A12179004,마포펜트라우스,1144010300,서울특별시,마포구,신공덕동,,서울특별시 마포구 신공덕동 172 마포펜트라우스,분양,개별난방,117848.0,4,476.0,태영,LH,027118366,www.펜트라우스.com,아파트,서울특별시 마포구 백범로 205,위탁관리,계단식,20110518,027118368,628,101922.35,0.0,112.0,284.0,80.0,53130.42,21,21,0,17,04194,37.5433912735909,126.954104279714
A12179005,공덕아이파크,1144010300,서울특별시,마포구,신공덕동,,서울특별시 마포구 신공덕동 174 공덕아이파크,분양,개별난방,37640.0,4,195.0,현대산업개발,신공덕제6구역정비조합,027017833,,아파트,서울특별시 마포구 만리재로 36,위탁관리,계단식,20130326,027017832,195,20854.0,51.0,118.0,26.0,0.0,16073.48,18,18,4,9,04189,37.5446740470437,126.95605352897
A12179006,신공덕e-편한세상,1144010300,서울특별시,마포구,신공덕동,,서울특별시 마포구 신공덕동 168 신공덕e-편한세상,분양,개별난방,17043.0,3,128.0,(주)삼호,마포신공덕4구역주택재개발조합,027012933,,아파트,,위탁관리,혼합식,20071018,027012934,128,12976.414,56.0,47.0,25.0,0.0,10193.26,13,13,2,0,,37.5419152924015,126.957075561069
A12185303,신공덕1차삼성래미안아파트,1144010300,서울특별시,마포구,신공덕동,,서울특별시 마포구 신공덕동 155 신공덕1차삼성래미안아파트,분양,중앙난방,94416.52,11,834.0,삼성물산(주)주택개발부문,삼성물산(주)주택개발부문,027131449,,아파트,서울특별시 마포구 백범로37길 12,위탁관리,복도식,20000814,027147244,834,92634.71,240.0,352.0,242.0,0.0,71996.7,23,23,0,24,04193,37.5433755525349,126.955640369823
A12185304,신공덕2차삼성래미안,1144010300,서울특별시,마포구,신공덕동,,서울특별시 마포구 신공덕동 159 신공덕2차삼성래미안,분양,개별난방,68266.87,7,458.0,삼성건설,삼성물산(주)주택부분,0232740513,,아파트,서울특별시 마포구 만리재로 74,위탁관리,혼합식,20001028,0232740514,458,47779.4,186.0,162.0,110.0,0.0,37384.54,22,22,2,9,04187,37.5464420286085,126.957897447418
A12104001,도화현대,1144010400,서울특별시,마포구,도화동,,서울특별시 마포구 도화동 547 도화현대,분양,개별난방,24728.78,2,196.0,현대건설,소양재건축조합,02-719-2449,,아파트,서울특별시 마포구 새창로6다길 22,위탁관리,혼합식,19980924,027192446,196,19730.242,98.0,52.0,46.0,0.0,15449.06,17,17,2,4,04182,37.5402564246835,126.953870961641
A12104005,마포삼성,1144010400,서울특별시,마포구,도화동,,서울특별시 마포구 도화동 550 마포삼성,분양,중앙난방,134786.92,14,982.0,삼성건설,삼성건설,027170791,,아파트,서울특별시 마포구 도화길 28,위탁관리,계단식,19970516,027170792,982,118232.92,0.0,680.0,64.0,238.0,94118.16,17,17,0,29,04170,37.5401140793415,126.95034743992
A12104007,마포도화우성아파트,1144010400,서울특별시,마포구,도화동,,서울특별시 마포구 도화동 82 마포도화우성아파트,분양,중앙난방,168743.0,15,1222.0,우성건설,도화3지구재개발지구,027014623,마포도화우성.apti.co.kr,아파트,서울특별시 마포구 삼개로 38,자치관리,혼합식,19910320,027014725,1222,159879.06,68.0,604.0,270.0,280.0,121932.54,15,15,0,33,04179,37.5363678259177,126.947063641704
A12170401,마포동원베네스트,1144010400,서울특별시,마포구,도화동,,서울특별시 마포구 도화동 564 마포동원베네스트,분양,개별난방,18939.0,3,167.0,동원산업건설,동원,027131123,,아파트,서울특별시 마포구 도화4길 41,위탁관리,계단식,20100429,027131006,167,10379.42,143.0,24.0,0.0,0.0,10379.42,12,12,0,7,04181,37.540241494631,126.95234943792
A12170402,마포한화오벨리스크,1144010400,서울특별시,마포구,도화동,,서울특별시 마포구 도화동 555 마포한화오벨리스크,분양,개별난방,69005.28,1,662.0,한화,군인공제회,027179352,,주상복합,서울특별시 마포구 마포대로 33,위탁관리,복도식,20041008,027179353,662,68993.1,404.0,252.0,6.0,0.0,37932.76,37,37,6,4,04167,37.5400400282506,126.945470495343
A12181403,도화현대2차아파트(임대),1144010400,서울특별시,마포구,도화동,,서울특별시 마포구 도화동 353-1 도화현대2차아파트(임대),임대,개별난방,36593.2,2,793.0,현대건설(주),현대건설(주),0232751972,happy.i-sh.co.kr/main.do?deptid=70129,아파트,서울특별시 마포구 새창로8길 72,위탁관리,복도식,20000311,027011973,793,36581.09,793.0,0.0,0.0,0.0,21981.96,20,20,0,6,04180,37.5377698909452,126.950858606714
A12181404,도화현대홈타운,1144010400,서울특별시,마포구,도화동,,서울특별시 마포구 도화동 353 도화현대홈타운,분양,중앙난방,106362.98,10,914.0,현대건설(주),도화제2지구 재개발조합,0232720501,마포도화현대홈타운201-210동.apti.co.kr,아파트,서울특별시 마포구 새창로8길 72,위탁관리,계단식,20000311,0232720502,914,84637.9,80.0,514.0,320.0,0.0,84637.9,20,20,1,23,04180,37.5377845095099,126.951787191666
A12181406,도화현대1차아파트,1144010400,서울특별시,마포구,도화동,,서울특별시 마포구 도화동 357 도화현대1차아파트,분양,중앙난방,133779.94,11,1021.0,현대건설(주),도화1지구 재개발조합,027027559,www.dh1.kr,아파트,서울특별시 마포구 새창로 52,위탁관리,혼합식,19960925,027063488,1021,133779.94,129.0,402.0,430.0,60.0,98909.47,16,16,0,23,04182,37.5394262391027,126.953860158167
A10021282,마포대림2차e-편한세상아파트,1144010500,서울특별시,마포구,용강동,,서울특별시 마포구 용강동 501- 마포대림2차e-편한세상아파트,분양,지역난방,20321.0,1,141.0,대림건설,대요아파트재건축조함,027023153,,아파트,서울특별시 마포구 토정로32길 6,위탁관리,계단식,20040608,027023152,141,12400.08,31.0,74.0,36.0,0.0,12400.08,20,20,1,3,,37.5409548676192,126.940721655411
A10022303,마포대림1차,1144010500,서울특별시,마포구,용강동,,서울특별시 마포구 용강동 500- 마포대림1차,분양,지역난방,20295.0,3,123.0,대림산업,대림산업,027025691,,,서울특별시 마포구 마포대로1길 21,위탁관리,계단식,20021025,,123,20295.0,0.0,0.0,123.0,0.0,16192.14,22,22,1,0,,37.5401630023466,126.941856160851
A10028006,e편한세상마포리버파크,1144010500,서울특별시,마포구,용강동,,서울특별시 마포구 용강동 508 e편한세상마포리버파크,혼합,지역난방,80034.38,9,547.0,대림산업(주),용강제3구역주택재개발조합,027061120,마포리버파크.apti.co.kr,아파트,서울특별시 마포구 토정로31길 24,위탁관리,혼합식,20161013,027061121,547,53506.84,267.0,245.0,35.0,0.0,39754.91,21,21,2,0,04166,37.5415627963579,126.943717448432
A12187501,래미안마포리버웰,1144010500,서울특별시,마포구,용강동,,서울특별시 마포구 용강동 502 래미안마포리버웰,혼합,지역난방,90428.68,9,563.0,삼성물산,용강2구역 재개발조합,027046112,raemianmaporiverwell.com,아파트,서울특별시 마포구 토정로31길 23,위탁관리,계단식,20150227,027046113,563,90428.68,138.0,344.0,81.0,0.0,44905.51,23,23,3,16,04161,37.5423430675085,126.941868951536
A12187602,래미안용강아파트,1144010500,서울특별시,마포구,용강동,,서울특별시 마포구 용강동 380 래미안용강아파트,분양,개별난방,64231.78,9,430.0,삼성물산 건설부문,용강1지구 재건축조합,0263943366,www.uasis.com,아파트,서울특별시 마포구 큰우물로 28,위탁관리,계단식,20030321,0263943365,430,34722.96,174.0,174.0,82.0,0.0,34722.96,18,18,2,13,04160,37.543375950534,126.941276687895
A12106001,토정한강삼성,1144010600,서울특별시,마포구,토정동,,서울특별시 마포구 토정동 138 토정한강삼성,분양,지역난방,52327.195,3,456.0,삼성물산(주)건설부분,국민연금관리공단제3직장조합외 9개조합,027119034,,아파트,서울특별시 마포구 토정로32길 11,위탁관리,계단식,19971031,027199974,456,49938.59,237.0,219.0,0.0,0.0,32767.32,28,28,2,10,04164,37.539551560872,126.941263620089
A10025672,마포 보성 아파트,1144010700,서울특별시,마포구,마포동,,서울특별시 마포구 마포동 442 마포 보성 아파트,분양,개별난방,30549.0,2,133.0,(주) 보성,(주) 보성,0232740223,,아파트,서울특별시 마포구 마포대로4길 90,위탁관리,혼합식,19961128,0232740223,133,12579.564,81.0,37.0,15.0,0.0,9670.7,15,15,2,3,04178,37.5360622706024,126.94640660394
A12105001,마포쌍용황금,1144010700,서울특별시,마포구,마포동,,서울특별시 마포구 마포동 253 마포쌍용황금,분양,개별난방,49578.33,6,339.0,쌍용,쌍용,027172563,cafe.daum.net/maposy,아파트,서울특별시 마포구 마포대로4라길 30,위탁관리,혼합식,20000807,0263522563,339,35547.105,158.0,98.0,83.0,0.0,27316.12,21,21,4,8,04178,37.5371402048809,126.94576497541
A10021649,대흥동 세양아파트,1144010800,서울특별시,마포구,대흥동,,서울특별시 마포구 대흥동 802- 대흥동 세양아파트,분양,개별난방,14524.0,1,126.0,세양건설,세양건설,027156928,,아파트,서울특별시 마포구 독막로 288,자치관리,혼합식,20000318,,126,13878.04,34.0,75.0,17.0,0.0,10326.03,1,18,3,0,,37.5444481595589,126.944868912049
A10025003,마포그랑자이아파트,1144010800,서울특별시,마포구,대흥동,,서울특별시 마포구 대흥동 806 마포그랑자이아파트,혼합,개별난방,177072.9,18,1248.0,GS건설,대흥2구역 주택재개발정비사업조합,0232751905,,아파트,서울특별시 마포구 대흥로 175,위탁관리,혼합식,20200221,0232751906,1248,118785.78,635.0,583.0,30.0,0.0,87304.82,23,23,3,43,04105,37.555259297312,126.944416178426
A12172401,마포자이2차,1144010800,서울특별시,마포구,대흥동,,서울특별시 마포구 대흥동 804 마포자이2차,혼합,개별난방,85747.0,6,558.0,GS건설(주),대흥3구역재개발조합,027039991,www.mapoxi2.com/,아파트,서울특별시 마포구 서강대길 40,위탁관리,계단식,20140306,027039992,558,46060.85,96.0,368.0,94.0,0.0,46060.85,25,25,2,12,04111,37.5491008877606,126.941802482192
A12172402,서희스타힐스,1144010800,서울특별시,마포구,대흥동,,서울특별시 마포구 대흥동 12-41 서희스타힐스,분양,개별난방,8353.44,1,203.0,서희건설,대선건설,027179697,,주상복합,서울특별시 마포구 신촌로 160,위탁관리,복도식,20140729,027179698,239,5315.7026,203.0,0.0,0.0,0.0,2964.68,20,20,2,2,04104,37.5563009364317,126.943270982821
A12181101,동양엔파트,1144010800,서울특별시,마포구,대흥동,,서울특별시 마포구 대흥동 803 동양엔파트,분양,개별난방,23653.338,3,165.0,동양메이저(주),동양,027013261,,아파트,서울특별시 마포구 백범로 82,위탁관리,계단식,20070406,027013262,165,17490.0,0.0,165.0,0.0,0.0,14009.655,15,15,2,5,04110,37.5477172600406,126.940607778703
A12181102,마포태영제2,1144010800,서울특별시,마포구,대흥동,,서울특별시 마포구 대흥동 660 마포태영제2,임대,지역난방,34580.0,2,566.0,태영건설(주),sh공사,027186942,happy.i-sh.co.kr/main.do?deptid=70143,아파트,서울특별시 마포구 독막로 266,위탁관리,복도식,19991120,027186943,566,34458.08,566.0,0.0,0.0,0.0,18338.4,25,25,3,4,04153,37.5447306086574,126.942570708808
A12181103,마포태영아파트,1144010800,서울특별시,마포구,대흥동,,서울특별시 마포구 대흥동 660 마포태영아파트,분양,지역난방,211232.66,14,1424.0,(주) 태영건설,(주)태영건설,0232757100,,아파트,서울특별시 마포구 독막로 266,위탁관리,혼합식,19991120,0263577100,1424,154934.44,464.0,586.0,374.0,0.0,120220.64,25,25,3,27,04153,37.5447306086574,126.942570708808
A10024347,마포프레스티지자이아파트,1144010900,서울특별시,마포구,염리동,,서울특별시 마포구 염리동 507 마포프레스티지자이아파트,혼합,개별난방,256341.31,18,1694.0,GS건설,염리3구역주택재개발정비사업조합,0269535996,mapop.aptner.com,아파트,서울특별시 마포구 대흥로24길 24,위탁관리,계단식,20211230,0269535997,1694,156603.17,973.0,620.0,101.0,0.0,117649.87,27,27,5,52,04124,37.5539607082089,126.947610265434
A10024597,염리동세양청마루아파트,1144010900,서울특별시,마포구,염리동,,서울특별시 마포구 염리동 522 염리동세양청마루아파트,분양,개별난방,10364.0,1,88.0,세양건설,세양건설,027110593,bluemun7@naver.com,아파트,서울특별시 마포구 독막로42길 5,위탁관리,혼합식,20050530,027110594,88,8359.92,30.0,58.0,0.0,0.0,6374.36,15,15,1,3,04155,37.5430631577306,126.946466656818
A10026036,마포자이 더 센트리지 아파트,1144010900,서울특별시,마포구,염리동,,서울특별시 마포구 염리동 45 마포자이 더 센트리지 아파트,혼합,개별난방,148606.0,12,795.0,GS건설,염리2구역 주택재개발정비사업 조합,0232752126,,아파트,서울특별시 마포구 숭문길 98,위탁관리,혼합식,20180928,0232752128,927,88378.77,334.0,449.0,12.0,0.0,58892.069,25,25,4,33,04127,37.5501838418884,126.948491864665
A12109001,마포자이,1144010900,서울특별시,마포구,염리동,,서울특별시 마포구 염리동 521 마포자이,분양,지역난방,105206.336,10,534.0,GS건설(주),진주아파트 재건축조합,0232753925,,아파트,서울특별시 마포구 독막로42길 2,위탁관리,계단식,20031205,0232753926,534,71297.26,0.0,228.0,166.0,140.0,58250.114,25,25,2,13,04154,37.5433260217062,126.945184422483
A12109002,염리삼성래미안,1144010900,서울특별시,마포구,염리동,,서울특별시 마포구 염리동 520 염리삼성래미안,분양,개별난방,82437.85,9,574.0,(주)삼성물산,염리동재개발조합,027116316,,아파트,서울특별시 마포구 숭문길 58,위탁관리,혼합식,20010328,027116317,574,60012.906,236.0,221.0,117.0,0.0,46238.46,17,17,5,20,04139,37.5489089575613,126.946728410444
A12187403,염리상록,1144010900,서울특별시,마포구,염리동,,서울특별시 마포구 염리동 515-1 염리상록,혼합,개별난방,49874.96,6,678.0,신원건설,SH공사,0232728476,,아파트,서울특별시 마포구 숭문길 106,자치관리,복도식,19970830,0232728477,678,49105.19,678.0,0.0,0.0,0.0,33259.81,21,21,0,9,04127,37.5515563766668,126.94797600816
A10020279,빌리브 디에이블,1144011000,서울특별시,마포구,노고산동,,서울특별시 마포구 노고산동 129 빌리브 디에이블,혼합,개별난방,36392.23,1,333.0,신세계건설,(주)월송홀딩스,027027012,,도시형 생활주택(주상복합),서울특별시 마포구 백범로 24,위탁관리,복도식,20250522,027047012,333,21721.734,0.0,329.0,4.0,0.0,21721.7352,23,0,6,5,,37.5525849110371,126.936803813864
A10022963,맹그로브신촌,1144011000,서울특별시,마포구,노고산동,,서울특별시 마포구 노고산동 56-74 맹그로브신촌,임대,개별난방+기타,13520.0,1,151.0,(주)한신공영,이지스개발투자회사,023389047,,아파트,서울특별시 마포구 서강로 121,위탁관리,복도식,20230106,023389045,151,3242.04,151.0,0.0,0.0,0.0,3242.04,13,13,6,3,04057,37.5539663748112,126.933939305325
A12172201,신촌포스빌,1144011000,서울특별시,마포구,노고산동,,서울특별시 마포구 노고산동 1-3 신촌포스빌,분양,개별난방,20588.95,1,350.0,(주)포스코건설,주식회사한국토지신탁,027067243,,주상복합,서울특별시 마포구 신촌로 150,위탁관리,복도식,20040731,027067241,350,17181.475,349.0,1.0,0.0,0.0,11179.61,15,15,3,2,04104,37.5562257581317,126.942269105772
A10024974,신촌숲 아이파크 아파트,1144011100,서울특별시,마포구,신수동,,서울특별시 마포구 신수동 93-102 신촌숲 아이파크 아파트,혼합,지역난방,167122.12,7,1015.0,현대산업개발,신수1주택재건축정비사업조합,0232752337,https://신촌숲아이파크.apti.co.kr/aptHome/,아파트,서울특별시 마포구 광성로 17,위탁관리,혼합식,20190829,0232752339,1015,108818.86,376.0,545.0,88.0,6.0,79270.86,35,35,3,24,04094,37.5503208717883,126.935286024774
A12111001,마포경남아너스빌,1144011100,서울특별시,마포구,신수동,,서울특별시 마포구 신수동 456 마포경남아너스빌,분양,개별난방,22217.95,2,160.0,경남기업(주),청옥산업개발(주),027125412,,아파트,서울특별시 마포구 신수로 81,위탁관리,계단식,20070517,027115419,160,16926.4,0.0,160.0,0.0,0.0,13592,12,12,1,8,04098,37.5491224507214,126.934301404394
A12171201,밤섬경남아너스빌,1144011100,서울특별시,마포구,신수동,,서울특별시 마포구 신수동 459 밤섬경남아너스빌,분양,개별난방,43991.0,5,313.0,경남기업(주),신수지역주택조합,027143342,,아파트,서울특별시 마포구 독막로28길 10,위탁관리,계단식,20091229,027143347,313,33102.47,0.0,313.0,0.0,0.0,26557.81,25,25,2,6,04089,37.5467372521599,126.93630235903
A12185504,신수성원,1144011100,서울특별시,마포구,신수동,,서울특별시 마포구 신수동 190 신수성원,분양,개별난방,32111.0,2,260.0,성원산업개발(주),신수동 APT 재건축조합,027128490,,아파트,서울특별시 마포구 독막로28길 7,위탁관리,혼합식,19981215,027019522,260,27066.0,104.0,112.0,44.0,0.0,20780.88,22,22,3,6,04090,37.5468465276338,126.93762318666
A12185602,신수세양청마루,1144011100,서울특별시,마포구,신수동,,서울특별시 마포구 신수동 451 신수세양청마루,분양,개별난방,26304.0,4,192.0,아천세양건설,신수구역주택재개발조합,027116502,,아파트,서울특별시 마포구 독막로 209,위탁관리,혼합식,20031215,027116503,192,15022.92,78.0,84.0,30.0,0.0,14796.96,15,15,2,5,04097,37.5477899311392,126.936715861657
A12185603,신수현대,1144011100,서울특별시,마포구,신수동,,서울특별시 마포구 신수동 445-5 신수현대,분양,개별난방,23813.74,2,210.0,현대,현대,027187261,cafe.naver.com/sinsusuda,아파트,서울특별시 마포구 토정로 242,위탁관리,계단식,19960914,027187267,210,23603.307,0.0,210.0,0.0,0.0,17750.1,15,15,1,7,04091,37.5430851449313,126.936978849658
A12185605,대원칸타빌,1144011100,서울특별시,마포구,신수동,,서울특별시 마포구 신수동 453 대원칸타빌,분양,개별난방,36185.715,3,279.0,(주)우리창우,대원칸타빌,0232737615,,아파트,서울특별시 마포구 창전로2길 10,위탁관리,계단식,20040730,0232737794,279,36185.715,0.0,135.0,106.0,38.0,29344.677,19,19,2,7,04098,37.5480841409706,126.93365853591
A12185606,마포신촌삼익아파트,1144011100,서울특별시,마포구,신수동,,서울특별시 마포구 신수동 450 마포신촌삼익아파트,분양,개별난방,47624.76,4,391.0,(주)삼익주택,(주)삼익주택,027142976,,아파트,서울특별시 마포구 신수로 105,위탁관리,계단식,19970408,027132977,391,40276.68,183.0,160.0,48.0,0.0,30027.19,24,24,3,9,04095,37.5512705046387,126.935580343312
A10027714,래미안 웰스트림,1144011200,서울특별시,마포구,현석동,,서울특별시 마포구 현석동 225 래미안 웰스트림,혼합,지역난방,125430.33,8,773.0,삼성물산,현석제2구역주택재개발정비사업조합,027025311,,아파트,서울특별시 마포구 토정로 11,위탁관리,계단식,20160128,027025312,773,80967.52,300.0,377.0,96.0,0.0,59293.12,35,35,3,25,04083,37.5432114151591,126.935550955573
A12112001,밤섬현대,1144011200,서울특별시,마포구,현석동,,서울특별시 마포구 현석동 220 밤섬현대,분양,개별난방,29368.13,2,219.0,현대건설,경남빌라 제건축조합,027127285,,아파트,서울특별시 마포구 신수로3길 19,자치관리,복도식,19990726,0232727340,219,22907.889,127.0,48.0,44.0,0.0,16667.76,25,25,3,4,04092,37.542653348074,126.93266589588
A12112002,마포강변힐스테이트,1144011200,서울특별시,마포구,현석동,,서울특별시 마포구 현석동 222 마포강변힐스테이트,분양,개별난방,76408.7,10,510.0,현대건설(주),현석구역재개발조합,0232734775,,아파트,서울특별시 마포구 신수로 15,위탁관리,혼합식,20040216,0232734776,510,41150.9,204.0,206.0,100.0,0.0,41150.9,20,20,2,14,04092,37.543330888333,126.933280962995
A10020640,마포창전쌍용스윗닷홈,1144011400,서울특별시,마포구,창전동,,서울특별시 마포구 창전동 441- 마포창전쌍용스윗닷홈,분양,개별난방,14051.0,1,100.0,쌍용건설,쌍용건설,023378469,,아파트,서울특별시 마포구 창전로 63,위탁관리,계단식,20050915,023378468,100,8495.0,0.0,100.0,0.0,0.0,8495.375,1,15,2,0,,37.5480152580231,126.932149354013
A10024425,이랜드PEER 신촌 청년주택,1144011400,서울특별시,마포구,창전동,,서울특별시 마포구 창전동 19-8 이랜드PEER 신촌 청년주택,임대,개별난방,35390.17,2,589.0,이랜드건설(주),(주)이베데스다 제일호 위탁관리부동산 투자회사,023257778,www.elandpeer.com,아파트,서울특별시 마포구 서강로 75-16,위탁관리,복도식,20210111,023257779,589,31596.457,589.0,0.0,0.0,0.0,11581.71,16,16,5,8,04065,37.5496213115505,126.931255709052
A10025633,마포 웨스트리버 태영데시앙아파트,1144011400,서울특별시,마포구,창전동,,서울특별시 마포구 창전동 449 마포 웨스트리버 태영데시앙아파트,혼합,개별난방,43400.0,4,276.0,태영건설,창전1구역 주택재건축정비사업조합,023263300,,아파트,서울특별시 마포구 서강로3길 32,위탁관리,기타,20190524,023263301,276,29437.434,38.0,220.0,17.0,1.0,22306.779,21,21,3,4,04065,37.5499610769576,126.930484403575
A12119004,서강해모로,1144011400,서울특별시,마포구,창전동,,서울특별시 마포구 창전동 443 서강해모로,분양,개별난방,59052.0,8,447.0,한진중공업,한진중공업,023388016,서강해모로.apti.co.kr/,아파트,서울특별시 마포구 토정로 167,위탁관리,계단식,20071212,023388017,447,43464.652,103.0,344.0,0.0,0.0,35001.839,25,25,1,8,04079,37.5462729070764,126.929685980593
A12119006,서강쌍용예가,1144011400,서울특별시,마포구,창전동,,서울특별시 마포구 창전동 444 서강쌍용예가,분양,개별난방,96890.45,15,635.0,쌍용건설,쌍용건설,023335007,www.ssya.co.kr,아파트,서울특별시 마포구 독막로 145,위탁관리,계단식,20071101,023335386,635,67662.625,155.0,408.0,72.0,0.0,52559.165,15,15,2,26,04069,37.5483625364439,126.929439473336
A12119007,창전삼성,1144011400,서울특별시,마포구,창전동,,서울특별시 마포구 창전동 437 창전삼성,분양,개별난방,91068.75,9,640.0,삼성물산(주)건설부분,창전구역주택개량재개발조합,0231425570,cafe.daum.net/wawoojung(창전래미안아파트),아파트,서울특별시 마포구 서강로 95,위탁관리,계단식,19980624,0263835570,640,72460.88,176.0,276.0,188.0,0.0,55576.28,20,20,0,6,04064,37.5512308823934,126.930994059899
A12177801,서강한화오벨리스크스위트,1144011400,서울특별시,마포구,창전동,,서울특별시 마포구 창전동 442 서강한화오벨리스크스위트,분양,개별난방,32610.28,3,192.0,한화건설,서미트캠프,023225414,,주상복합,서울특별시 마포구 창전로 45,위탁관리,계단식,20070411,023225415,192,22280.39,0.0,164.0,28.0,0.0,16860.64,15,15,0,5,04086,37.5465344912557,126.9317231782
A12177802,창전삼성임대,1144011400,서울특별시,마포구,창전동,,서울특별시 마포구 창전동 437 창전삼성임대,임대,개별난방,17120.89,2,311.0,삼성물산,에스에이치공사,0231428913,www.i-sh.co.kr,아파트,서울특별시 마포구 서강로 95,위탁관리,복도식,19980624,0231432289,311,15421.495,311.0,0.0,0.0,0.0,10188.36,15,20,2,5,04064,37.5512308823934,126.930994059899
A12188201,신촌금호,1144011400,서울특별시,마포구,창전동,,서울특별시 마포구 창전동 438 신촌금호,분양,개별난방,24123.521,3,239.0,금호건설,금호건설,023221437,,아파트,서울특별시 마포구 서강로9길 19,위탁관리,계단식,20010330,023221438,239,24123.521,76.0,163.0,0.0,0.0,18335.08,19,19,3,7,04062,37.5527640763277,126.932178773528
A12188202,창전현대홈타운,1144011400,서울특별시,마포구,창전동,,서울특별시 마포구 창전동 440 창전현대홈타운,분양,개별난방,31535.0,5,243.0,현대건설(주),창전동지역주택조합,023230954,https://창전홈타운.apti.co.kr/aptHome/intro.asp,아파트,서울특별시 마포구 서강로 83,위탁관리,계단식,20050818,023230955,243,23578.66,76.0,167.0,0.0,0.0,18724.802,22,22,2,6,04063,37.5510214470245,126.931850132328
A12188205,신촌태영데시앙,1144011400,서울특별시,마포구,창전동,,서울특별시 마포구 창전동 439 신촌태영데시앙,분양,개별난방,78095.16,10,553.0,태영건설,태영건설,023328977,,아파트,서울특별시 마포구 서강로9길 45,위탁관리,계단식,20031128,0263748977,553,58579.29,0.0,553.0,0.0,0.0,46988.41,24,24,3,14,04060,37.5533866511831,126.931064388029
A10028177,래미안밤섬리베뉴 Ⅰ,1144011500,서울특별시,마포구,상수동,,서울특별시 마포구 상수동 402 래미안밤섬리베뉴 Ⅰ,혼합,지역난방,76200.54,6,429.0,삼성물산주식회사,상수제1구역주택재개발정비조합,023345601,raemianbsr6016,아파트,서울특별시 마포구 독막로20나길 22,위탁관리,계단식,20141017,023345559,429,46095.75,115.0,254.0,60.0,0.0,34443.54,25,25,4,14,04076,37.5466237941711,126.925487415214
A12170702,래미안밤섬리베뉴 2,1144011500,서울특별시,마포구,상수동,,서울특별시 마포구 상수동 398 래미안밤섬리베뉴 2,혼합,지역난방,83260.97,8,530.0,삼성물산,상수제2구역주택재개발정비사업조합,023345668,,아파트,서울특별시 마포구 독막로20나길 21,위탁관리,혼합식,20141017,023345669,530,55712.1,132.0,328.0,34.0,36.0,43366.64,24,24,3,16,04077,37.5466753554924,126.927260242735
A12182901,상수두산위브,1144011500,서울특별시,마포구,상수동,,서울특별시 마포구 상수동 396 상수두산위브,분양,개별난방,40367.43,4,258.0,두산건설,두산건설,023220675,,아파트,서울특별시 마포구 독막로18길 5,위탁관리,계단식,20041229,023220685,258,24314.746,0.0,176.0,82.0,0.0,24314.746,25,25,2,6,04075,37.5469254537329,126.924361847447
A12115001,한강밤섬자이아파트,1144011600,서울특별시,마포구,하중동,,서울특별시 마포구 하중동 101 한강밤섬자이아파트,분양,지역난방,120366.16,7,488.0,지에스건설주식회사,서강주택재건축정비사업조합,0263269660,https://한강밤섬자이.apti.co.kr,아파트,서울특별시 마포구 토정로 158,위탁관리,계단식,20100226,0263269977,488,79642.55,0.0,75.0,184.0,229.0,64926.31,25,25,2,14,04080,37.5448044431455,126.928014895739
A12114001,서강GS,1144011700,서울특별시,마포구,신정동,,서울특별시 마포구 신정동 30 서강GS,분양,개별난방,70173.0,6,538.0,GS건설,GS건설,027126853,,아파트,서울특별시 마포구 창전로 26,위탁관리,혼합식,19990701,027126887,538,70172.62,226.0,178.0,134.0,0.0,44020.28,23,23,1,12,04093,37.5439771831851,126.931098399949
A10024784,서교푸르지오아파트,1144012000,서울특별시,마포구,서교동,,서울특별시 마포구 서교동 486 서교푸르지오아파트,분양,,28825.0,1,136.0,대우건설,서교아파트 재건축조합,0231415588,,아파트,서울특별시 마포구 홍익로 10,위탁관리,계단식,20041126,0231415575,136,15640.0,0.0,0.0,136.0,0.0,12574.9,19,19,3,7,04055,37.5537936941359,126.923694441522
A10024891,서교동 효성해링턴타워,1144012000,서울특별시,마포구,서교동,,서울특별시 마포구 서교동 494 서교동 효성해링턴타워,임대,개별난방,60483.0,1,913.0,효성중공업,SH/멀티에셋,023352203,,아파트,서울특별시 마포구 양화로 72,위탁관리,복도식,20200423,023352204,1121,60482.6,913.0,0.0,0.0,0.0,27202.21,24,24,5,8,04044,37.5507946608837,126.91679990021
A12174601,메세나폴리스,1144012000,서울특별시,마포구,서교동,,서울특별시 마포구 서교동 490 메세나폴리스,혼합,개별난방,161663.67,3,617.0,GS건설,메이저디벨로프먼트,023348181,,주상복합,서울특별시 마포구 양화로 45,위탁관리,계단식,20120629,023348182,617,105839.7,77.0,0.0,178.0,362.0,79353.254,39,39,7,14,04036,37.5507467154903,126.913768796333
A12184201,서교동대우미래사랑,1144012000,서울특별시,마포구,서교동,,서울특별시 마포구 서교동 487 서교동대우미래사랑,분양,개별난방,43752.65,1,366.0,(주)대우건설,유아이에치,023224531,서교대우미래사랑.apti.co.kr,주상복합,서울특별시 마포구 월드컵북로5나길 18,위탁관리,복도식,20050830,023224532,366,22764.496,285.0,81.0,0.0,0.0,16779.93,12,12,4,3,04002,37.5573711251344,126.916789419776
A10027301,마포한강2차푸르지오,1144012200,서울특별시,마포구,합정동,,서울특별시 마포구 합정동 473 마포한강2차푸르지오,분양,개별난방,40497.56,2,198.0,(주)대우건설,주식회사 파나씨티,023232107,,주상복합,서울특별시 마포구 월드컵로3길 14,위탁관리,계단식,20160714,023232151,198,24569.781,0.0,132.0,66.0,0.0,18333.48,36,36,6,4,04024,37.5510531812588,126.911865545526
A10027902,마포한강푸르지오,1144012200,서울특별시,마포구,합정동,,서울특별시 마포구 합정동 472 마포한강푸르지오,분양,개별난방,49099.22,2,198.0,대우건설,주)코리아신탁,023232131,,주상복합,서울특별시 마포구 월드컵로1길 14,위탁관리,계단식,20150331,023232132,198,29555.14,0.0,66.0,66.0,66.0,22550.22,37,37,6,0,04024,37.5499951139537,126.912194517463
A10022359,망원미원2차아파트,1144012300,서울특별시,마포구,망원동,,서울특별시 마포구 망원동 433-9 망원미원2차아파트,분양,개별난방,11979.0,1,105.0,(주)미원건설,모름,023241720,없슴,아파트,서울특별시 마포구 월드컵로29길 68,위탁관리,복도식,19970430,,105,9297.67,58.0,21.0,26.0,0.0,7440.18,10,10,1,0,,37.5589179132829,126.902160953871
A10023665,우림 루미아트,1144012300,서울특별시,마포구,망원동,,서울특별시 마포구 망원동 498 우림 루미아트,분양,개별난방,14264.0,1,119.0,우림건설,은행장미재건축조합,023379872,,아파트,,위탁관리,계단식,20030321,023379872,119,11136.43,52.0,67.0,0.0,0.0,8785.9226,15,15,1,5,,37.5597255093045,126.901011123046
A10023755,마포한강 J-SKY아파트,1144012300,서울특별시,마포구,망원동,,서울특별시 마포구 망원동 522 마포한강 J-SKY아파트,분양,개별난방,9435.885,2,149.0,제이앤이건설(주),망원동 438재건축주택조합,0231447201,,아파트,,위탁관리,혼합식,20190910,0231447202,149,9326.913,149.0,0.0,0.0,0.0,6679.909,12,12,1,5,,37.5589071188193,126.899500027153
A10024150,망원성원2차아파트,1144012300,서울특별시,마포구,망원동,,서울특별시 마포구 망원동 489 망원성원2차아파트,분양,개별난방,18354.28,1,134.0,성원건설,청와연립재건축조합,023326479,,아파트,,위탁관리,혼합식,19991229,023326479,134,13210.06,74.0,30.0,30.0,0.0,10388.82,15,15,0,3,,37.5562377346012,126.901423165067
A10026053,마포한강 아이파크,1144012300,서울특별시,마포구,망원동,,서울특별시 마포구 망원동 458-16 마포한강 아이파크,분양,개별난방,64221.51,6,385.0,HDC현대산업개발,망원1주택재건축정비사업조합,023227510,https://마포한강아이파크.apti.co.kr,아파트,서울특별시 마포구 희우정로 77,위탁관리,계단식,20190805,023227514,385,40981.695,114.0,190.0,81.0,0.0,31845.35,18,18,2,0,04016,37.5531729682225,126.902698099648
A10027572,마포영화블렌하임,1144012300,서울특별시,마포구,망원동,,서울특별시 마포구 망원동 517 마포영화블렌하임,분양,개별난방,31841.11,3,130.0,영화건설,"성산시장,교아건설",023334801,,주상복합,경기도 고양시 덕양구 호국로 1000,위탁관리,계단식,20090918,023254802,130,18588.92,0.0,0.0,96.0,34.0,14845.03,13,13,2,6,10292,37.558489695079,126.90630246749
A12123001,망원휴먼빌아파트,1144012300,서울특별시,마포구,망원동,,서울특별시 마포구 망원동 509 망원휴먼빌아파트,분양,개별난방,23719.68,2,210.0,일신건영(주),망원연립재건축주택조함일신건영(주),0231436815,,아파트,서울특별시 마포구 방울내로 31,위탁관리,계단식,20040730,023220458,210,18292.799,150.0,60.0,0.0,0.0,14090.31,15,15,1,7,03956,37.5586810422792,126.898742602721
A12182101,망원1차대림,1144012300,서울특별시,마포구,망원동,,서울특별시 마포구 망원동 496 망원1차대림,분양,개별난방,27269.04,4,181.0,(주)삼호,대림산업(주),0231430631,,아파트,서울특별시 마포구 망원로2길 103,위탁관리,혼합식,20021002,0231430632,181,19513.58,38.0,122.0,21.0,0.0,15045.87,18,18,2,6,04017,37.553433582502,126.90485489938
A12182401,망원2차대림,1144012300,서울특별시,마포구,망원동,,서울특별시 마포구 망원동 497 망원2차대림,분양,개별난방,34632.75,3,240.0,(주)삼호,대림산업(주),023341904,,아파트,서울특별시 마포구 망원로1길 27,위탁관리,계단식,20021218,023343420,240,25575.477,52.0,157.0,31.0,0.0,19735.62,16,16,2,8,03957,37.557231682287,126.899355714427
A10024587,대명비발디아파트,1144012400,서울특별시,마포구,연남동,,서울특별시 마포구 연남동 259-1 대명비발디아파트,분양,개별난방,15242.0,1,128.0,대명건설,대명건설,023227010,,아파트,서울특별시 마포구 동교로39길 11,자치관리,혼합식,19951115,023227022,128,12404.0,76.0,39.0,13.0,0.0,9271.15,17,17,2,0,03984,37.561684270976,126.923701787705
A12186901,코오롱하늘채,1144012400,서울특별시,마포구,연남동,,서울특별시 마포구 연남동 573 코오롱하늘채,분양,개별난방,71856.0,6,466.0,코오롱건설,연세맨션재건축조합,023379425,,아파트,서울특별시 마포구 연남로 52,위탁관리,계단식,20030628,023379428,470,47429.78,112.0,204.0,135.0,15.0,41207.094,15,15,0,16,03976,37.5644996108505,126.920421359818
A10022213,성산동성아파트,1144012500,서울특별시,마포구,성산동,,서울특별시 마포구 성산동 597- 성산동성아파트,분양,개별난방,17627.0,1,127.0,(주)동성 건설,(주)동성건설,023724660,,아파트,서울특별시 마포구 모래내로3길 4,위탁관리,계단식,19990831,,127,12640.02,41.0,86.0,0.0,0.0,9764.54,0,18,0,4,,37.5648589625166,126.905779034597
A10027157,서울가좌행복주택,1144012500,서울특별시,마포구,성산동,,서울특별시 마포구 성산동 134-2 서울가좌행복주택,임대,개별난방,24762.0,1,362.0,진흥개발(주),한국토지주택공사,023029472,,아파트,서울특별시 마포구 성암로 28,위탁관리,혼합식,20161221,023029473,381,20226.318,362.0,0.0,0.0,0.0,7020.05,20,20,0,10,03951,37.5692648658246,126.913107338759
A12125001,성산2차e-편한세상,1144012500,서울특별시,마포구,성산동,,서울특별시 마포구 성산동 604 성산2차e-편한세상,분양,지역난방,26727.1,3,189.0,대림산업,대림산업,023721437,없음,아파트,서울특별시 마포구 월드컵북로 216,위탁관리,계단식,20050726,023030156,189,19705.094,38.0,151.0,0.0,0.0,15098.81,15,15,1,8,03941,37.5697057926851,126.905347090245
A12125202,성산월드타운대림,1144012500,서울특별시,마포구,성산동,,서울특별시 마포구 성산동 601 성산월드타운대림,분양,지역난방,96162.02,10,795.0,대림산업,대림산업,023022053,,아파트,서울특별시 마포구 월드컵북로30길 9-22,위탁관리,혼합식,20040824,023022054,795,96162.01,73.0,566.0,152.0,4.0,70691.534,24,24,2,18,03945,37.569343987133,126.908243398976
A12171101,월드컵아이파크1단지,1144012500,서울특별시,마포구,성산동,,서울특별시 마포구 성산동 667 월드컵아이파크1단지,혼합,개별난방,32354.727,5,320.0,현대산업개발,현대산업개발,023736100,,아파트,서울특별시 마포구 모래내로9길 6,위탁관리,계단식,20090305,023736101,320,31632.922,136.0,150.0,34.0,0.0,24838.58,25,25,2,7,03952,37.5675394820764,126.914495487603
A12185001,성사1차 풍림아파트,1144012500,서울특별시,마포구,성산동,,서울특별시 마포구 성산동 600 성사1차 풍림아파트,분양,개별난방,23674.72,1,172.0,풍림산업,성사1차 재건축조합,023071062,,아파트,서울특별시 마포구 성암로1길 8,위탁관리,혼합식,20000401,023071066,172,17435.08,93.0,41.0,38.0,0.0,13180.9,19,19,2,4,03951,37.5684896594973,126.912389463397
A12185003,SH성산아파트,1144012500,서울특별시,마포구,성산동,,서울특별시 마포구 성산동 595 SH성산아파트,임대,지역난방,84189.0,7,1807.0,삼성건설(주),서울도시개발공사,023750332,www.i-sh.co.kr/,아파트,서울특별시 마포구 월드컵로 207,위탁관리,복도식,19910720,023722695,1807,84188.65,1807.0,0.0,0.0,0.0,59074.88,15,15,0,14,03953,37.5643514717261,126.901199004532
A12185004,성산시영아파트,1144012500,서울특별시,마포구,성산동,,서울특별시 마포구 성산동 446 성산시영아파트,분양,중앙난방,280399.0,33,3710.0,"유원, 선경, 대우건설",서울시청,023743863,성산시영.apt.co.kr,아파트,서울특별시 마포구 월드컵북로 260,위탁관리,복도식,19860607,023727761,3710,232099.23,3710.0,0.0,0.0,0.0,198026.5,14,14,1,33,03935,37.5721152959697,126.901892164797
A10022429,중동 동원월드타운아파트,1144012600,서울특별시,마포구,중동,,서울특별시 마포구 중동 395- 중동 동원월드타운아파트,분양,개별난방,16518.0,2,102.0,(주)동원주택건설,중동한우연립재건축사업조합,023050509,,,서울특별시 마포구 성암로5길 12,위탁관리,혼합식,20040922,023050579,102,11329.0,16.0,60.0,26.0,0.0,8753.715,16,16,2,0,,37.5699316134172,126.909759381052
A12187703,성산2차현대,1144012600,서울특별시,마포구,중동,,서울특별시 마포구 중동 40-12 성산2차현대,분양,개별난방,43117.0,3,282.0,현대,현대,023067635,,아파트,서울특별시 마포구 성암로7길 3,위탁관리,혼합식,20001216,0263947635,282,31728.22,57.0,149.0,76.0,0.0,24788.7,19,19,3,7,03944,37.5704396912599,126.908596924276
A12187901,중동계룡,1144012600,서울특별시,마포구,중동,,서울특별시 마포구 중동 391 중동계룡,분양,개별난방,25671.87,2,180.0,계룡건설,계룡건설,023741329,,아파트,서울특별시 마포구 월드컵북로38가길 20,위탁관리,계단식,20000930,023751329,180,19770.0,36.0,120.0,24.0,0.0,15002.91,19,19,2,7,03941,37.5704847242836,126.905937440776
A12187902,건영월드컵,1144012600,서울특별시,마포구,중동,,서울특별시 마포구 중동 393 건영월드컵,분양,개별난방,31108.0,2,206.0,(주) 건영,성사2차 재건축조합,023026383,,아파트,서울특별시 마포구 성암로 41,위탁관리,혼합식,20021101,0263526383,206,22589.0,57.0,98.0,51.0,0.0,16960.24,19,19,2,5,03951,37.5688136371421,126.911757350757
A12187904,DMC마포청구아파트,1144012600,서울특별시,마포구,중동,,서울특별시 마포구 중동 390 DMC마포청구아파트,분양,지역난방,48524.0,4,420.0,청구건설,청구건설,023739403,jdcg.apti.co.kr,아파트,서울특별시 마포구 성암로11길 60,위탁관리,계단식,19940929,023053111,420,47206.613,0.0,420.0,0.0,0.0,35637.6,21,21,1,11,03933,37.5740531394105,126.901873208452
A12187905,마포중동현대,1144012600,서울특별시,마포구,중동,,서울특별시 마포구 중동 392 마포중동현대,분양,개별난방,62202.977,6,477.0,현대건설,현대건설,023750417,apt392.apti.co.kr/,아파트,서울특별시 마포구 성암로 91,위탁관리,혼합식,20010727,023050739,477,50809.062,206.0,152.0,119.0,0.0,38916.75,25,25,2,9,03943,37.5711389667522,126.906884530156
A12187906,월드컵참누리,1144012600,서울특별시,마포구,중동,,서울특별시 마포구 중동 398 월드컵참누리,분양,개별난방,73565.43,9,499.0,울트라건설,중동 월드컵참누리,023755145,cafe.daum.net/ultraapt,아파트,서울특별시 마포구 월드컵북로38길 54,위탁관리,계단식,20060504,023755143,499,51955.51,42.0,457.0,0.0,0.0,41341.824,25,25,2,9,03942,37.5716676137759,126.905565343328
A12127001,상암월드컵파크5단지,1144012700,서울특별시,마포구,상암동,,서울특별시 마포구 상암동 1658 상암월드컵파크5단지,분양,지역난방,68193.3,8,436.0,대동건설,SH공사,023020912,상암월드컵파크5단지.apti.co.kr,아파트,서울특별시 마포구 상암산로1길 52,자치관리,계단식,20050920,023021913,436,50150.83,0.0,329.0,107.0,0.0,39070.24,21,21,2,10,03904,37.5802112884678,126.885970559624
A12127002,상암월드컵파크6단지,1144012700,서울특별시,마포구,상암동,,서울특별시 마포구 상암동 1689 상암월드컵파크6단지,분양,지역난방,87961.55,14,484.0,일성건설,서울특별시 SH공사,023020718,,아파트,서울특별시 마포구 상암산로1길 57,위탁관리,계단식,20050715,023020714,484,87961.53,0.0,158.0,326.0,0.0,47364.06,15,15,2,22,03905,37.5798183170436,126.884254666215
A12127003,상암월드컵파크3단지,1144012700,서울특별시,마포구,상암동,,서울특별시 마포구 상암동 1643 상암월드컵파크3단지,분양,지역난방,74716.56,9,540.0,두산건설,SH공사,023059757,월드컵파크3단지.apti.co.kr,아파트,서울특별시 마포구 월드컵로 338,위탁관리,계단식,20030930,023059758,540,58609.68,0.0,540.0,0.0,0.0,45841.2,20,20,2,18,03911,37.5726880929371,126.889779870573
A12127004,상암월드컵파크2단지,1144012700,서울특별시,마포구,상암동,,서울특별시 마포구 상암동 1637 상암월드컵파크2단지,분양,지역난방,71714.06,7,657.0,서광산업,SH공사,023024240,home.drapt.com/상암월드컵2단지,아파트,서울특별시 마포구 월드컵북로47길 46,위탁관리,계단식,20031112,023024241,657,54360.81,657.0,0.0,0.0,0.0,38606.78,20,20,1,16,03912,37.5748398903005,126.891577074081
A12127005,상암월드컵파크7단지,1144012700,서울특별시,마포구,상암동,,서울특별시 마포구 상암동 1660 상암월드컵파크7단지,분양,지역난방,114990.17,17,733.0,진흥기업,SH공사,023749583,상암월드컵파크7.apti.co.kr,아파트,서울특별시 마포구 상암산로1길 92,위탁관리,계단식,20050602,0263718700,733,114425.33,0.0,571.0,162.0,0.0,65367.24,15,15,2,25,03903,37.5817590063066,126.881479978349
A12127006,상암월드컵파크4단지,1144012700,서울특별시,마포구,상암동,,서울특별시 마포구 상암동 1655 상암월드컵파크4단지,분양,지역난방,123554.89,12,761.0,태영건설,SH공사,023020104,,아파트,서울특별시 마포구 상암산로1길 24,위탁관리,계단식,20061011,023060104,761,87569.7,0.0,605.0,156.0,0.0,67620.31,26,26,2,21,03907,37.5776864156328,126.888688773185
A12127007,상암월드컵1단지,1144012700,서울특별시,마포구,상암동,,서울특별시 마포구 상암동 1634 상암월드컵1단지,임대,지역난방,70518.58,6,820.0,(주)삼호,SH공사,023076941,happy.i-sh.co.kr,아파트,서울특별시 마포구 월드컵북로47길 8,위탁관리,복도식,20030929,023076971,820,69994.16,820.0,0.0,0.0,0.0,37268.35,19,19,2,12,03913,37.5752980913125,126.893308081284
A12127008,상암월드컵8단지,1144012700,서울특별시,마포구,상암동,,서울특별시 마포구 상암동 1674 상암월드컵8단지,임대,지역난방,86161.0,13,840.0,동아건설,SH 공사(서울시),023090288,,아파트,서울특별시 마포구 월드컵로42길 12,위탁관리,복도식,20080201,023090289,840,40185.137,840.0,0.0,0.0,0.0,39635.19,18,18,2,15,03906,37.5776044117632,126.882900743392
A12179501,DMC상암센트럴파크2단지,1144012700,서울특별시,마포구,상암동,,서울특별시 마포구 상암동 1618 DMC상암센트럴파크2단지,분양,지역난방,18957.0,3,184.0,양우건설사,LH공사,023024530,,아파트,서울특별시 마포구 월드컵북로42가길 11,위탁관리,혼합식,20090622,023074530,184,18859.924,164.0,20.0,0.0,0.0,9472.44,12,12,0,6,03930,37.5749303723564,126.897036147318
A12179502,DMC상암센트럴파크1단지,1144012700,서울특별시,마포구,상암동,,서울특별시 마포구 상암동 1630 DMC상암센트럴파크1단지,분양,지역난방,30321.0,5,213.0,양우건설,LH공사,023072365,sahapt.kr,아파트,서울특별시 마포구 월드컵북로43길 11,자치관리,계단식,20090622,023072360,213,23879.105,0.0,193.0,20.0,0.0,18665.83,13,13,1,10,03914,37.5742846533291,126.896137421556
A12179503,상암월드컵파크11단지,1144012700,서울특별시,마포구,상암동,,서울특별시 마포구 상암동 1741 상암월드컵파크11단지,혼합,지역난방,77248.16,9,588.0,sh공사,한신,023025930,,아파트,서울특별시 마포구 월드컵북로 502-37,위탁관리,혼합식,20100623,023025932,588,54962.26,384.0,126.0,78.0,0.0,40523.5,15,15,2,17,03916,37.5875039427788,126.881417089513
A12179504,상암월드컵파크9단지,1144012700,서울특별시,마포구,상암동,,서울특별시 마포구 상암동 1752 상암월드컵파크9단지,혼합,지역난방,143811.42,16,1036.0,신창건설(주)->우방건설,SH공사,023023396,,아파트,서울특별시 마포구 월드컵북로 501,위탁관리,혼합식,20101014,023023404,1036,97982.24,523.0,380.0,133.0,0.0,72421.53,15,15,2,31,03902,37.5835469334073,126.879166069383
A12179505,상암월드컵파크12단지,1144012700,서울특별시,마포구,상암동,,서울특별시 마포구 상암동 1743 상암월드컵파크12단지,혼합,지역난방,53910.89,9,380.0,한신공영,SH공사,023023397,상암12단지. apti.co.kr,아파트,서울특별시 마포구 월드컵북로 502-7,위탁관리,혼합식,20101014,023023444,380,37347.04,232.0,86.0,62.0,0.0,27728.09,15,15,2,15,03915,37.58635705939,126.880246741457
A12179508,상암월드컵파크10단지,1144012700,서울특별시,마포구,상암동,,서울특별시 마포구 상암동 1736 상암월드컵파크10단지,혼합,지역난방,115173.43,16,861.0,중앙건설,SH공사,023025921,sangaam10@naver.com,아파트,서울특별시 마포구 월드컵북로 502-36,위탁관리,혼합식,20100720,023025923,861,79864.17,583.0,170.0,108.0,0.0,59606.31,15,15,2,26,03918,37.5854508203348,126.882105659288
