kaptCode,kaptName,bjdCode,as1,as2,as3,as4,kaptAddr,codeSaleNm,codeHeatNm,kaptTarea,kaptDongCnt,kaptdaCnt,kaptBcompany,kaptAcompany,kaptTel,kaptUrl,codeAptNm,doroJuso,codeMgrNm,codeHallNm,kaptUsedate,kaptFax,hoCnt,kaptMarea,kaptMparea60,kaptMparea85,kaptMparea135,kaptMparea136,privArea,kaptTopFloor,ktownFlrNo,kaptBaseFloor,kaptdEcntp,zipcode,위도,경도
A10021007,청구하이츠 아파트,3114010100,울산광역시,남구,무거동,,울산광역시 남구 무거동 828-3 청구하이츠 아파트,분양,개별난방,13720.7,1,119.0,모름,모름,0522775176,https://cafe.naver.com/sinbokro54,아파트,울산광역시 남구 신복로 54,자치관리,계단식,19900817,,119,10099.53,0.0,119.0,0.0,0.0,10099.53,1,15,0,0,,35.5499687577578,129.25673778977
A10022605,문수비스타동원,3114010100,울산광역시,남구,무거동,,울산광역시 남구 무거동 1184-1 문수비스타동원,분양,개별난방,103393.78,10,663.0,(주)동원개발,삼호주공아파트주택재건축조합,0522779776,,아파트,울산광역시 남구 삼호로 68,위탁관리,계단식,20240503,0522779777,663,69567.734,193.0,435.0,35.0,0.0,51643.5543,18,18,2,20,44640,35.5490302570779,129.272659902339
A10023556,울산대이즈플레이스,3114010100,울산광역시,남구,무거동,,울산광역시 남구 무거동 1527-4 울산대이즈플레이스,분양,개별난방,19404.35,1,111.0,창비건설,(주)이채,0522397334,,주상복합,,위탁관리,복도식,20181130,0522397334,111,13571.05,18.0,93.0,0.0,0.0,6680.74,20,20,4,5,44602,35.5489720541242,129.261786402451
A10024243,무거한라3차아파트,3114010100,울산광역시,남구,무거동,,울산광역시 남구 무거동 1543 무거한라3차아파트,분양,개별난방,10583.0,1,120.0,한라주택,한라주택,0522491126,,아파트,울산광역시 남구 신복로72번길 28-42,위탁관리,계단식,19960827,022491126,120,10560.0,48.0,72.0,0.0,0.0,8995.44,12,12,1,0,44600,35.5531277329012,129.256531189689
A68019009,삼호시영,3114010100,울산광역시,남구,무거동,,울산광역시 남구 무거동 1448-1 삼호시영,분양,개별난방,12056.0,1,200.0,종합건설본부,종합건설본부,0522776435,,아파트,울산광역시 남구 삼호로48번길 1,자치관리,복도식,19920730,0522776435,200,11239.8,200.0,0.0,0.0,0.0,7980,12,12,0,2,44641,35.549067263667,129.269797250475
A68019017,굴화주공2-2,3114010100,울산광역시,남구,무거동,,울산광역시 남구 무거동 276-1 굴화주공2-2,분양,개별난방,41747.266,7,480.0,(주)해강,대한주택공사,0522210638,www.hebibi.com/2131,아파트,울산광역시 남구 굴화4길 22,위탁관리,계단식,19961217,0529420638,480,41744.4,480.0,0.0,0.0,0.0,28795.2,18,18,1,14,44631,35.55294997268,129.262710376798
A68075501,무거롯데캐슬,3114010100,울산광역시,남구,무거동,,울산광역시 남구 무거동 1584 무거롯데캐슬,분양,개별난방,54813.062,5,272.0,(주)롯데건설,(주)승보건설,0529036013,,아파트,울산광역시 남구 신복로79번길 14,위탁관리,계단식,20091029,0522237710,272,37771.31,0.0,140.0,81.0,51.0,30427.2541,15,15,3,10,44609,35.5480607340296,129.253135387826
A68075502,무거위브자이,3114010100,울산광역시,남구,무거동,,울산광역시 남구 무거동 1594 무거위브자이,분양,개별난방,188839.0,13,922.0,"GS자이,두산건설",무거산호아파트주택재건축정비사업조합,0522478822,www.joyapt.com/4746,아파트,울산광역시 남구 북부순환도로 35,위탁관리,계단식,20130830,0522476622,923,132630.83,0.0,272.0,552.0,98.0,104588.188,25,25,2,0,44629,35.5533294446432,129.266329281583
A68075503,무거태화강서희스타힐스,3114010100,울산광역시,남구,무거동,,울산광역시 남구 무거동 130-6 무거태화강서희스타힐스,분양,개별난방,26218.479,2,164.0,(주)서희건설,(주)오리온밸리,0522499952,joyapt.com/4727,아파트,울산광역시 남구 남산로12번길 7-7,자치관리,혼합식,20140318,0522499953,164,16979.662,0.0,164.0,0.0,0.0,12921.791,20,20,2,6,44628,35.5520202248306,129.272629213207
A68075504,무거동한신휴플러스,3114010100,울산광역시,남구,무거동,,울산광역시 남구 무거동 1603 무거동한신휴플러스,분양,개별난방,36581.773,5,260.0,한신공영,아시아신탁,0522217739,,아파트,울산광역시 남구 남부순환도로 86,위탁관리,계단식,20140220,0522217740,260,29424.87,0.0,260.0,0.0,0.0,22094.6245,18,18,1,8,44614,35.5409719636104,129.264378329291
A68080714,굴화주공2-1,3114010100,울산광역시,남구,무거동,,울산광역시 남구 무거동 276-1 굴화주공2-1,분양,개별난방,26793.53,4,356.0,(주)해강,주택공사,0522212370,www.hebibi.com/400,아파트,울산광역시 남구 굴화4길 22,위탁관리,복도식,19961217,0522212736,366,25098.0,356.0,0.0,0.0,0.0,16793.41,15,18,1,4,44631,35.55294997268,129.262710376798
A68080723,굴화주공1단지,3114010100,울산광역시,남구,무거동,,울산광역시 남구 무거동 275-1 굴화주공1단지,분양,개별난방,90419.48,12,1046.0,"반도,성지건설",LH공사,0522210224,www.ghdure.com,아파트,울산광역시 남구 굴화4길 20,자치관리,계단식,19970410,0522212945,1046,81824.0,1046.0,0.0,0.0,0.0,62749.54,20,20,0,29,44630,35.5542143606801,129.263223587928
A68080804,협성벽산,3114010100,울산광역시,남구,무거동,,울산광역시 남구 무거동 569-4 협성벽산,분양,개별난방,15162.0,1,163.0,(주)협성르네상스,(주)협성르네상스,0522775234,,아파트,울산광역시 남구 대학로21번길 25,위탁관리,복도식,19900829,0522775233,163,15161.191,0.0,163.0,0.0,0.0,11550.18,15,15,0,2,44617,35.5390620402948,129.253117290633
A68080808,협성현대,3114010100,울산광역시,남구,무거동,,울산광역시 남구 무거동 931-1 협성현대,분양,개별난방,19195.2,1,180.0,현대건설,협성르네상스,0522772815,,아파트,울산광역시 남구 대학로1번길 61,자치관리,혼합식,19891223,0522772825,180,19195.2,0.0,180.0,0.0,0.0,14564.4,15,15,1,5,44618,35.5414034145339,129.252629257769
A68080813,남운그린힐,3114010100,울산광역시,남구,무거동,,울산광역시 남구 무거동 927-6 남운그린힐,분양,개별난방,25488.75,1,315.0,남운개발,남운개발,0522772313,,아파트,울산광역시 남구 신복로79번길 8,위탁관리,복도식,19880510,0522472312,316,25488.75,315.0,0.0,0.0,0.0,18269.55,15,15,0,3,44609,35.5490087668715,129.253520258827
A68080815,웰츠타워,3114010100,울산광역시,남구,무거동,,울산광역시 남구 무거동 461 웰츠타워,분양,개별난방,59389.37,2,253.0,KCC건설,(주)왕건종합건설,0522234777,cafe.daum.net/ulsanwelltztower,주상복합,울산광역시 남구 대학로 164,위탁관리,계단식,20071128,0522232777,253,38667.6,0.0,0.0,92.0,161.0,32286.2017,25,25,5,8,44611,35.5486151903914,129.263290855532
A68080821,옥현주공1단지,3114010100,울산광역시,남구,무거동,,울산광역시 남구 무거동 477-1 옥현주공1단지,분양,개별난방,69065.09,11,733.0,"(주)경동, 성지건설",대한주택공사,0522222926,cafe.daum.net/ohj1apt,아파트,울산광역시 남구 옥현로 92-13,위탁관리,계단식,20000403,0522224775,733,68090.945,733.0,0.0,0.0,0.0,43306.3,20,20,1,21,44612,35.5456725052717,129.263015402958
A68080822,옥현주공2차,3114010100,울산광역시,남구,무거동,,울산광역시 남구 무거동 478-1 옥현주공2차,분양,개별난방,97677.625,11,834.0,(주)한양,대한주택공사,0522222927,,아파트,울산광역시 남구 옥현로 92-12,위탁관리,계단식,20000403,0522222928,834,96680.68,252.0,582.0,0.0,0.0,64469.16,18,18,0,25,44613,35.5435185027557,129.262827629699
A68080824,옥현으뜸마을주공3단지,3114010100,울산광역시,남구,무거동,,울산광역시 남구 무거동 488-13 옥현으뜸마을주공3단지,분양,개별난방,161377.17,18,1412.0,(주)SK건설,(주)LH공사,0522473450,www.joyapt.com/home/user/1797/,아파트,울산광역시 남구 옥현로 34,위탁관리,계단식,20011105,0522473411,1412,137791.14,554.0,858.0,0.0,0.0,103916.42,20,20,2,0,44615,35.5391822101623,129.260328702447
A68080902,무거선경,3114010100,울산광역시,남구,무거동,,울산광역시 남구 무거동 833-1 무거선경,분양,개별난방,15543.0,1,165.0,선경건설,선경건설,0522777637,,아파트,울산광역시 남구 신복로 67,위탁관리,복도식,19910420,0522777631,165,15542.94,0.0,165.0,0.0,0.0,12512.025,15,15,0,2,44609,35.5492767878923,129.255420771172
A68080903,쌍용스윗닷홈,3114010100,울산광역시,남구,무거동,,울산광역시 남구 무거동 835 쌍용스윗닷홈,분양,개별난방,24240.88,2,161.0,도원건설,쌍용건설,0522230136,,아파트,울산광역시 남구 신복로35번길 6,위탁관리,계단식,20020814,0522230146,161,19381.094,0.0,107.0,54.0,0.0,15620.382,15,15,0,6,44608,35.5489346530241,129.258000015882
A68080920,무거현대,3114010100,울산광역시,남구,무거동,,울산광역시 남구 무거동 832-2 무거현대,분양,개별난방,69341.0,3,677.0,현대건설(주),신동성개발(주),0522242904,,아파트,울산광역시 남구 신복로71번길 12,위탁관리,혼합식,19950211,0522242905,677,64717.42,275.0,400.0,2.0,0.0,47973.7116,20,20,0,16,44609,35.5484298869579,129.254615546186
A68081016,삼호,3114010100,울산광역시,남구,무거동,,울산광역시 남구 무거동 1183-1 삼호,분양,개별난방,33247.0,3,400.0,대능건설(주),울산광역시,0522476755,,아파트,울산광역시 남구 삼호로 64,위탁관리,복도식,19920714,0522476756,400,33058.0,400.0,0.0,0.0,0.0,23860,13,13,0,5,44640,35.5490236848067,129.270646982418
A68081201,무거한라4차,3114010100,울산광역시,남구,무거동,,울산광역시 남구 무거동 1539 무거한라4차,분양,개별난방,19423.97,1,152.0,(주)한라종합건설,(주) 한라종합건설,0522231166,,아파트,울산광역시 남구 대학로147번길 89,위탁관리,계단식,19970628,0522496270,152,14166.703,73.0,79.0,0.0,0.0,11058.96,20,20,2,4,44601,35.5539861882353,129.255982328036
A68081205,무거한라2차,3114010100,울산광역시,남구,무거동,,울산광역시 남구 무거동 1538 무거한라2차,분양,개별난방,18017.6,1,170.0,한라종합건설,한라종합건설,0522497150,,아파트,울산광역시 남구 대학로147번길 73,위탁관리,계단식,19960617,0529497151,170,11985.74,98.0,72.0,0.0,0.0,11985.74,18,18,1,5,44601,35.5532988051052,129.256956859333
A68081207,무거동서그린맨션,3114010100,울산광역시,남구,무거동,,울산광역시 남구 무거동 1549-2 무거동서그린맨션,분양,개별난방,17545.0,1,172.0,(주)동서건설,(주)동서건설,0522493432,,아파트,울산광역시 남구 신복로46번길 35-37,위탁관리,계단식,19960213,0529003431,172,15898.0,95.0,77.0,0.0,0.0,12215.065,20,20,0,2,44603,35.5519046014557,129.256026634851
A68081211,무거한라1차,3114010100,울산광역시,남구,무거동,,울산광역시 남구 무거동 1535-1 무거한라1차,분양,개별난방,18324.0,1,194.0,한라건설,한라,0522470710,,아파트,울산광역시 남구 신복로46번길 26,위탁관리,계단식,19960104,0529420711,194,16449.605,154.0,40.0,0.0,0.0,12540,20,20,1,5,44603,35.5515991448675,129.258638524078
A68081212,무거청구맨션,3114010100,울산광역시,남구,무거동,,울산광역시 남구 무거동 1551 무거청구맨션,분양,개별난방,31184.0,2,285.0,청구산업개발,청구산업개발,0522240243,,아파트,울산광역시 남구 신복로72번길 28-23,위탁관리,계단식,19971030,0529480243,285,26221.488,127.0,158.0,0.0,0.0,21016.125,20,20,2,0,44600,35.5524760990604,129.25463791918
A68081219,신복현대아파트,3114010100,울산광역시,남구,무거동,,울산광역시 남구 무거동 1553 신복현대아파트,분양,개별난방,58245.41,3,651.0,현대산업개발,(주)현대자동차,0522499040,,아파트,울산광역시 남구 신복로72번길 29,위탁관리,복도식,19960422,0522244950,651,53801.895,651.0,0.0,0.0,0.0,38903.76,22,22,2,8,44604,35.5513642830324,129.253914340592
A10023062,금오그린아파트,3114010200,울산광역시,남구,옥동,,울산광역시 남구 옥동 281-1 금오그린아파트,분양,개별난방,11911.0,1,144.0,(주)금오개발,(주)금오개발,0522746465,,아파트,울산광역시 남구 문수로295번길 4,위탁관리,계단식,19980225,0522696465,144,10315.44,72.0,72.0,0.0,0.0,10315.44,9,9,1,8,44645,35.5368276676101,129.286217152278
A68008015,도성타운아파트,3114010200,울산광역시,남구,옥동,,울산광역시 남구 옥동 1385-4 도성타운아파트,분양,개별난방,48467.28,5,516.0,도성건설,도성건설,0522677639,,아파트,울산광역시 남구 문수로369번길 59,자치관리,복도식,19910406,0529427639,516,48467.28,12.0,504.0,0.0,0.0,35320.14,15,15,1,9,44649,35.5391580596236,129.296528708198
A68072801,대공원한신휴플러스,3114010200,울산광역시,남구,옥동,,울산광역시 남구 옥동 1418 대공원한신휴플러스,분양,개별난방,42804.336,6,263.0,한신공영(주),(주)인베이스디엔시,0522570022,,아파트,울산광역시 남구 대공원로99번길 19,위탁관리,계단식,20111125,0529034970,263,30365.76,0.0,240.0,23.0,0.0,23123.189,13,13,1,12,44664,35.5321099845335,129.296387920876
A68078005,현대대륙아파트,3114010200,울산광역시,남구,옥동,,울산광역시 남구 옥동 157-5 현대대륙아파트,분양,개별난방,24135.05,2,225.0,현대산업개발,대륙주택개발(주),0522675311,,아파트,울산광역시 남구 거마로 22,위탁관리,계단식,19891213,0522675311,225,23237.28,0.0,225.0,0.0,0.0,19068.075,15,15,1,8,44653,35.5357302656617,129.296181157842
A68084308,대공원롯데인벤스,3114010200,울산광역시,남구,옥동,,울산광역시 남구 옥동 130 대공원롯데인벤스,분양,개별난방,59675.12,7,298.0,(주)롯데기공,유한주택(주),0522271777,,아파트,울산광역시 남구 대공원로141번길 8,위탁관리,계단식,20060131,0529032777,298,49968.6,0.0,26.0,120.0,152.0,40360.6636,14,14,1,7,44665,35.5304877314231,129.297894819825
A68084314,대공원현대아파트,3114010200,울산광역시,남구,옥동,,울산광역시 남구 옥동 129-6 대공원현대아파트,분양,개별난방,54979.93,3,499.0,현대건설,현대건설,0522650645,,아파트,울산광역시 남구 대공원로115번길 10,위탁관리,계단식,19920227,0522650650,499,49183.12,0.0,499.0,0.0,0.0,38401.875,14,14,0,21,44664,35.5300864897541,129.29633420104
A68084316,옥동현대,3114010200,울산광역시,남구,옥동,,울산광역시 남구 옥동 182 옥동현대,분양,개별난방,60049.58,3,544.0,(주)현대건설,"(주)현대건설,(주)세한주택",0522663731,,아파트,울산광역시 남구 은월로2번길 7,위탁관리,계단식,19970224,0529493731,544,60049.58,0.0,464.0,80.0,0.0,48195.654,20,20,2,16,44644,35.5403662920345,129.290993962551
A68084403,상아타워맨션,3114010200,울산광역시,남구,옥동,,울산광역시 남구 옥동 177-2 상아타워맨션,분양,개별난방,21917.7,1,170.0,(주)상아개발,(주)상아개발,0522679776,,아파트,울산광역시 남구 은월로 22,자치관리,혼합식,19901228,0522679776,170,21917.36,0.0,140.0,30.0,0.0,15230.9,15,15,1,3,44646,35.5408260029611,129.292435374918
A68084407,대륙2차현대아파트,3114010200,울산광역시,남구,옥동,,울산광역시 남구 옥동 162 대륙2차현대아파트,분양,개별난방,31086.0,2,265.0,현대산업개발(주),대륙건설(주),0522663594,,아파트,울산광역시 남구 은월로40번길 8,위탁관리,계단식,19910517,0529663594,265,30505.0,0.0,235.0,0.0,30.0,24455.8625,15,15,0,9,44646,35.5405314392054,129.294088482193
A68084417,도성,3114010200,울산광역시,남구,옥동,,울산광역시 남구 옥동 1386 도성,분양,개별난방,49191.84,11,678.0,(주)대우건설,도성건설(주),0522742981,,아파트,울산광역시 남구 문수로369번길 58,위탁관리,계단식,19870401,0529547654,678,49191.84,678.0,0.0,0.0,0.0,33978.78,6,6,0,0,44648,35.537757139861,129.29601009126
A68084501,옥서홈타운,3114010200,울산광역시,남구,옥동,,울산광역시 남구 옥동 191-1 옥서홈타운,분양,개별난방,12879.27,1,150.0,한주석유화학지원,한주석유화학지원,0522727991,,아파트,울산광역시 남구 법대로87번길 23,위탁관리,계단식,19950112,0522727992,150,8941.5,150.0,0.0,0.0,0.0,8941.5,15,15,1,5,44644,35.5371577330278,129.289966963175
A68084504,한라한솔타운,3114010200,울산광역시,남구,옥동,,울산광역시 남구 옥동 268 한라한솔타운,분양,개별난방,26410.0,1,186.0,(주)한라종합건설,(주)한라종합건설,0522756872,,아파트,울산광역시 남구 대공원입구로9번길 15,위탁관리,계단식,19980602,0522756872,186,20178.51,66.0,80.0,0.0,40.0,16170.4,20,20,2,5,44662,35.5326778250269,129.292568311305
A68084506,한양코아,3114010200,울산광역시,남구,옥동,,울산광역시 남구 옥동 196 한양코아,분양,개별난방,25138.0,3,225.0,한양,코아건설,0522675223,,아파트,울산광역시 남구 문수로335번길 20,위탁관리,계단식,19891101,0522675224,225,21954.01,0.0,219.0,4.0,2.0,18229.5,15,15,1,8,44646,35.5368095702804,129.290801055624
A68084509,서강파크2차,3114010200,울산광역시,남구,옥동,,울산광역시 남구 옥동 185 서강파크2차,분양,개별난방,36630.0,3,299.0,서강건설,서강건설,0522688345,,아파트,울산광역시 남구 은월로2번길 39,자치관리,복도식,19890519,0522688345,299,36572.184,0.0,298.0,0.0,1.0,25272,16,16,0,3,44644,35.5385311341721,129.289203568828
A68084510,옥동삼익,3114010200,울산광역시,남구,옥동,,울산광역시 남구 옥동 255-2 옥동삼익,분양,개별난방,36515.0,3,299.0,삼익주택(주),삼익주택(주),0529335893,joyapt.com/home/user/1155/,아파트,울산광역시 남구 문수로302번길 8,위탁관리,계단식,19990513,0529665893,299,31578.26,99.0,160.0,0.0,40.0,25131.96,20,20,1,8,44661,35.5349186042909,129.285944689133
A68084511,옥동롯데인벤스로얄,3114010200,울산광역시,남구,옥동,,울산광역시 남구 옥동 191-69 옥동롯데인벤스로얄,분양,개별난방,48807.28,3,299.0,(주)롯데건설,대명산업개발(주),0522270208,cafe.daum.net/invensroyal,아파트,울산광역시 남구 문수로335번길 27,위탁관리,계단식,20061127,0522270201,299,38267.86,0.0,187.0,56.0,56.0,30569.59,21,21,2,0,44644,35.538005545243,129.290322787407
A68084512,성도,3114010200,울산광역시,남구,옥동,,울산광역시 남구 옥동 191-58 성도,분양,개별난방,33485.0,1,332.0,성도개발(주),성도개발(주),0522727976,,아파트,울산광역시 남구 문수로335번길 51,위탁관리,계단식,19971229,0529331335,332,33485.0,139.0,193.0,0.0,0.0,24641.39,25,25,1,2,44644,35.5389342274028,129.289960155936
A68084513,옥동서광,3114010200,울산광역시,남구,옥동,,울산광역시 남구 옥동 257 옥동서광,분양,개별난방,57972.02,3,413.0,(주)서광건설산업,(주)서광건설산업,0522674181,,아파트,울산광역시 남구 문수로314번길 11,위탁관리,계단식,19981229,0529314181,413,47360.605,92.0,216.0,36.0,69.0,38130.02,20,20,1,11,44661,35.5343493492379,129.288359788866
A10025046,대공원호반베르디움2차,3114010300,울산광역시,남구,두왕동,,울산광역시 남구 두왕동 747-2 대공원호반베르디움2차,분양,개별난방,96515.0,12,561.0,(주)호반건설,(주)호반건설,0522762700,,아파트,울산광역시 남구 테크노산업로82번길 52,위탁관리,계단식,20200204,0522762702,561,61197.48,0.0,561.0,0.0,0.0,47660.8231,15,15,2,0,44776,35.516010073231,129.294778044607
A10025068,대공원 호반베르디움3차,3114010300,울산광역시,남구,두왕동,,울산광역시 남구 두왕동 747-1 대공원 호반베르디움3차,분양,개별난방,23714.863,2,173.0,호반건설(주),호반건설(주),0522769957,,아파트,울산광역시 남구 테크노산업로82번길 62,위탁관리,계단식,20191230,0522769958,173,14738.296,173.0,0.0,0.0,0.0,10370.7933,15,15,2,6,44776,35.5174829669199,129.29548776395
A10025173,대공원호반베르디움1차,3114010300,울산광역시,남구,두왕동,,울산광역시 남구 두왕동 748 대공원호반베르디움1차,분양,개별난방,64504.453,7,401.0,(주)호반건설,(주)호반건설,0522560333,,아파트,울산광역시 남구 테크노산업로44번길 50,위탁관리,계단식,20191202,0522560233,401,43615.777,0.0,401.0,0.0,0.0,34059.2401,15,15,2,13,44776,35.5151208237896,129.292972730139
A10020306,빌리브리버런트,3114010400,울산광역시,남구,신정동,,울산광역시 남구 신정동 22-4 빌리브리버런트,분양,개별난방,49292.55,4,311.0,신세계건설(주),히엘건설(주),0522277738,,아파트,울산광역시 남구 팔등로141번길 6,위탁관리,계단식,20251127,0522277739,311,32910.82,0.0,311.0,0.0,0.0,25707.4565,1,29,0,0,,35.5482079175991,129.322152355611
A10020318,문수로 아테라,3114010400,울산광역시,남구,신정동,,울산광역시 남구 신정동 1154-7 문수로 아테라,분양,개별난방,73503.3,4,402.0,금호건설,코리아신탁,0522560278,,아파트,울산광역시 남구 봉월로60번길 10,위탁관리,계단식,20251215,0522560279,402,46834.254,0.0,402.0,0.0,0.0,34114.2392,37,37,3,13,,35.5376988526886,129.307132119103
A10020462,울산대공원한신더휴,3114010400,울산광역시,남구,신정동,,울산광역시 남구 신정동 1921 울산대공원한신더휴,분양,개별난방,53669.566,3,302.0,한신공영(주),마메종,0522589994,,주상복합,울산광역시 남구 수암로 55,위탁관리,혼합식,20250725,0522589995,302,30770.379,0.0,302.0,0.0,0.0,22868.397,31,31,3,0,,35.5313256074823,129.314700251249
A10020865,신정수필아파트,3114010400,울산광역시,남구,신정동,,울산광역시 남구 신정동 1626- 신정수필아파트,분양,개별난방,10278.18,4,120.0,휴스콘건설,동해주택,0522560855,,아파트,울산광역시 남구 동산로29번길 15,위탁관리,계단식,19800206,0522560859,120,9338.4,0.0,120.0,0.0,0.0,9338.4,5,5,1,0,,35.5370228585472,129.299219944893
A10021615,울산신정행복주택,3114010400,울산광역시,남구,신정동,,울산광역시 남구 신정동 599-1 울산신정행복주택,임대,개별난방,11547.0,1,100.0,(주)대영건설,LH한국토지주택공사,0522587739,,아파트,울산광역시 남구 월평로21번길 19,위탁관리,복도식,20220627,0522677739,100,8176.0034,100.0,0.0,0.0,0.0,3018.44,15,15,1,1,,35.5425668064156,129.307101492063
A10021908,디아채1단지,3114010400,울산광역시,남구,신정동,,울산광역시 남구 신정동 1241-5 디아채1단지,분양,개별난방,20857.0,1,108.0,(주)신한종합건설,대한토지신탁(주),0522695611,,아파트,울산광역시 남구 거마로 124,자치관리,계단식,20040529,0522695615,108,17456.0,0.0,0.0,56.0,52.0,14337.4392,15,15,1,0,,35.5395927210649,129.304013041484
A10022392,문수로 아르티스,3114010400,울산광역시,남구,신정동,,울산광역시 남구 신정동 1182-7 문수로 아르티스,분양,개별난방,48634.0,3,273.0,주식회사 일동,주식회사 하나자산신탁,0522566770,,아파트,울산광역시 남구 문수로463번길 16,위탁관리,계단식,20240826,0522566771,273,30429.482,0.0,273.0,0.0,0.0,23146.5003,29,29,4,2,,35.5344897963731,129.304046732989
A10023304,문수로대공원 에일린의뜰,3114010400,울산광역시,남구,신정동,,울산광역시 남구 신정동 1178 문수로대공원 에일린의뜰,분양,개별난방,54791.453,5,384.0,아이에스동서(주),문수로대공원지구지역주택조합,0522611178,,아파트,울산광역시 남구 봉월로 27,위탁관리,계단식,20230330,0522611179,384,38245.094,122.0,262.0,0.0,0.0,28654.2742,25,25,2,0,44658,35.5348096624237,129.306276042411
A10023689,문수로동문디이스트,3114010400,울산광역시,남구,신정동,,울산광역시 남구 신정동 1165-3 문수로동문디이스트,분양,개별난방,25377.639,2,166.0,동문산업개발(주),(주)석,0522607739,,주상복합,울산광역시 남구 돋질로 3,위탁관리,계단식,20220823,0522767739,166,17575.88,0.0,166.0,0.0,0.0,13490.3792,33,33,4,6,44673,35.5368085635751,129.306404280349
A10023811,문수로두산위브더제니스,3114010400,울산광역시,남구,신정동,,울산광역시 남구 신정동 1128-1 문수로두산위브더제니스,분양,개별난방,45024.0,2,256.0,두산건설,시티건설,0522574900,,주상복합,울산광역시 남구 문수로 487,위탁관리,기타,20220419,0522574901,256,29887.516,0.0,256.0,0.0,0.0,21665.9318,37,37,5,11,44658,35.5328441143619,129.306594442873
A10023870,문수로드림파크,3114010400,울산광역시,남구,신정동,,울산광역시 남구 신정동 569-2 문수로드림파크,분양,개별난방,50522200.0,2,246.0,드림종합건설(주),에스타운건설,0522560056,,주상복합,울산광역시 남구 월평로21번길 28,위탁관리,복도식,20220325,0522560057,246,12326.604,246.0,0.0,0.0,0.0,12326.604,23,23,5,4,44670,35.5433917832051,129.307414092084
A10026160,신정지웰아파트,3114010400,울산광역시,남구,신정동,,울산광역시 남구 신정동 1911 신정지웰아파트,분양,개별난방,41787.004,2,200.0,신영건설,코람코자산신탁,0522749920,,주상복합,울산광역시 남구 월평로171번길 26,위탁관리,계단식,20180620,0522749921,200,23310.77,0.0,200.0,0.0,0.0,33992.435,29,29,5,2,44686,35.5474149526242,129.323191989894
A10026346,대공원코아루파크베르,3114010400,울산광역시,남구,신정동,,울산광역시 남구 신정동 1127-53 대공원코아루파크베르,분양,개별난방,42518.934,1,231.0,세영종합건설주식회사,(주)정도,0522566570,,주상복합,울산광역시 남구 문수로 482,위탁관리,복도식,20180416,0522566571,246,23916.783,22.0,209.0,0.0,0.0,16877.6279,29,29,5,1,44667,35.5319849816221,129.306022866345
A10027318,울산 신정동 양우 내안애팰리스,3114010400,울산광역시,남구,신정동,,울산광역시 남구 신정동 1903 울산 신정동 양우 내안애팰리스,분양,개별난방,42779.41,1,217.0,양우건설(주),코람코자산신탁(주),0522678691,joyapt.com/home/user/4988/,주상복합,울산광역시 남구 봉월로 55,위탁관리,계단식,20161026,0522678693,217,23765.156,2.0,215.0,0.0,0.0,17795.612,20,20,4,4,44656,35.5372269765747,129.305299537006
A10027402,대공원대명루첸아파트,3114010400,울산광역시,남구,신정동,,울산광역시 남구 신정동 815-5 대공원대명루첸아파트,분양,개별난방,85511.33,8,547.0,대명수안,대명수안,0522577072,211.106.218.71,아파트,울산광역시 남구 중앙로120번길 12-8,위탁관리,계단식,20161121,0522577074,547,60204.3,0.0,547.0,0.0,0.0,45517.5194,29,29,2,0,44731,35.5316798263203,129.316327419738
A10027785,유 씨 티,3114010400,울산광역시,남구,신정동,,울산광역시 남구 신정동 770-15 유 씨 티,분양,개별난방,11958.86,1,183.0,지평건설,유씨티,0522568164,,주상복합,울산광역시 남구 중앙로 139,자치관리,복도식,20151104,0522568165,183,6639.46,183.0,0.0,0.0,0.0,3694.57,20,20,3,3,44730,35.5334317967289,129.314317859893
A68001001,이안신정,3114010400,울산광역시,남구,신정동,,울산광역시 남구 신정동 650-17 이안신정,분양,개별난방+기타,34650.04,3,151.0,대우,대우,0522753718,cafe.daum.net/iaansj,주상복합,울산광역시 남구 삼산로45번길 30,위탁관리,계단식,20070427,0522753719,195,18743.727,0.0,72.0,79.0,0.0,15091.115,20,20,0,4,44676,35.5363570802238,129.312229459543
A68001002,남산 포스코더샵,3114010400,울산광역시,남구,신정동,,울산광역시 남구 신정동 1334-38 남산 포스코더샵,분양,개별난방,43461.55,3,263.0,포스코건설,진보공영,0522758666,,아파트,울산광역시 남구 봉월로 133,위탁관리,계단식,20040130,0522758669,263,35930.54,0.0,135.0,128.0,0.0,27163.1842,15,15,3,15,44624,35.5440837423485,129.305481855646
A68001004,대공원코오롱파크폴리스,3114010400,울산광역시,남구,신정동,,울산광역시 남구 신정동 1873 대공원코오롱파크폴리스,분양,개별난방,57600.03,2,202.0,코오롱글로벌주식회사,대한주택보증주식회사,0522568301,,주상복합,울산광역시 남구 대공원로 241,위탁관리,계단식,20090819,0522568302,202,31838.82,0.0,0.0,82.0,120.0,31838.82,38,38,6,2,44667,35.5310191286979,129.307284917602
A68001005,동문아뮤티,3114010400,울산광역시,남구,신정동,,울산광역시 남구 신정동 1874 동문아뮤티,분양,개별난방,65796.26,2,212.0,동문건설(주),현중산업(주),0522695532,,주상복합,울산광역시 남구 번영로 195,위탁관리,계단식,20090727,0529035530,212,38218.52,0.0,0.0,100.0,112.0,27424.04,33,33,6,9,44687,35.54248709943,129.325259676482
A68001006,울산신정푸르지오,3114010400,울산광역시,남구,신정동,,울산광역시 남구 신정동 318 울산신정푸르지오,분양,개별난방,213572.64,13,1280.0,(주)대우건설,대한토지신탁(주),0522567739,www.sjprugio.pe.kr,아파트,울산광역시 남구 팔등로 85,위탁관리,계단식,20120724,0522560093,1284,151348.33,0.0,860.0,420.0,0.0,113529.4904,33,33,2,24,44682,35.5470447976508,129.315227016294
A68001007,문수로2차아이파크1단지,3114010400,울산광역시,남구,신정동,,울산광역시 남구 신정동 1889 문수로2차아이파크1단지,분양,개별난방,110483.836,7,597.0,현대산업개발,현대산업개발,0522279750,,아파트,울산광역시 남구 동산로69번길 13,위탁관리,계단식,20131231,0522279751,597,73957.5,0.0,274.0,323.0,0.0,57269.8698,24,24,2,16,44656,35.5368243777224,129.301881404132
A68001008,문수로2차아이파크2단지,3114010400,울산광역시,남구,신정동,,울산광역시 남구 신정동 1890 문수로2차아이파크2단지,분양,개별난방,91405.0,6,488.0,현대산업개발(주),현대산업개발(주),0522279760,,아파트,울산광역시 남구 동산로69번길 14,위탁관리,계단식,20131231,0522279765,488,60580.188,0.0,230.0,258.0,0.0,46688.4046,26,26,2,0,44656,35.5367983910172,129.304175287225
A68001009,공업탑하트랜드,3114010400,울산광역시,남구,신정동,,울산광역시 남구 신정동 726-3 공업탑하트랜드,분양,개별난방,15773.35,1,239.0,광흥건설(주),한국하트랜드(주),0522657738,없음,주상복합,울산광역시 남구 삼산로 26,위탁관리,복도식,20140725,0522658834,239,15773.28,239.0,0.0,0.0,0.0,7128.86,18,18,4,1,44730,35.5327163219046,129.310848544842
A68001101,대공원올림푸스골든103동,3114010400,울산광역시,남구,신정동,,울산광역시 남구 신정동 1680 대공원올림푸스골든103동,분양,개별난방,17019.752,1,152.0,올림푸스건설(주),올림푸스건설(주),0522722985,oga3da@naver.com,아파트,울산광역시 남구 대공원로 156,자치관리,복도식,19890203,0522659595,152,16963.2,0.0,152.0,0.0,0.0,12905.35,15,15,1,2,44666,35.5292172925714,129.299460202444
A68001102,롯데캐슬킹덤,3114010400,울산광역시,남구,신정동,,울산광역시 남구 신정동 1860 롯데캐슬킹덤,분양,개별난방,72590.93,3,196.0,유한주택(주),롯데건설(주),0522657427,,아파트,울산광역시 남구 문수로 471,위탁관리,계단식,20080620,0522695885,196,48075.48,0.0,0.0,0.0,196.0,39628.0382,30,30,2,0,44658,35.533505832934,129.305055339647
A68001207,대공원월드메르디앙,3114010400,울산광역시,남구,신정동,,울산광역시 남구 신정동 1868 대공원월드메르디앙,분양,개별난방,70138.79,5,359.0,월드건설,리더스개발,0522750133,cafe.daum.net/ulsanparkmeridian,아파트,울산광역시 남구 대공원로 207,위탁관리,계단식,20080627,0522569944,359,54964.69,0.0,107.0,155.0,97.0,43961.914,27,27,1,3,44667,35.5311959759607,129.303965296939
A68070101,태화강엑슬루타워,3114010400,울산광역시,남구,신정동,,울산광역시 남구 신정동 1880 태화강엑슬루타워,분양,개별난방,118191.0,3,355.0,풍림산업(주),KB부동산신탁,0522715110,211.53.35.156,주상복합,울산광역시 남구 봉월로 167,위탁관리,계단식,20110831,0522715111,355,63183.582,0.0,0.0,314.0,41.0,49989.53,42,42,7,8,44623,35.5477055762657,129.307355376835
A68071801,두산위브더제니스,3114010400,울산광역시,남구,신정동,,울산광역시 남구 신정동 1877 두산위브더제니스,분양,개별난방,82541.0,2,278.0,두산건설,베어코리아주식회사,0522697745,,주상복합,울산광역시 남구 신정로203번길 61,위탁관리,혼합식,20100226,07082300178,278,48289.89,0.0,0.0,130.0,148.0,37858.5432,47,47,6,8,44679,35.5484444539383,129.310125540944
A68071802,강변센트럴하이츠,3114010400,울산광역시,남구,신정동,,울산광역시 남구 신정동 319 강변센트럴하이츠,분양,개별난방,146139.83,10,672.0,중앙건설,홍익건설,0522560215,https://aptree.co.kr/home/user/4593/,아파트,울산광역시 남구 중앙로290번길 53,위탁관리,계단식,20110131,0522560216,672,111154.58,0.0,68.0,0.0,604.0,93380.142,25,25,1,20,44680,35.5485957788986,129.314655520631
A68074201,신정극동스타클래스,3114010400,울산광역시,남구,신정동,,울산광역시 남구 신정동 1875 신정극동스타클래스,분양,개별난방,59923.6,2,188.0,극동건설,(주)청명L&D,0522760055,,주상복합,울산광역시 남구 번영로 223,자치관리,계단식,20090730,0522740303,188,33776.12,0.0,0.0,96.0,92.0,27279.42,30,30,6,6,44687,35.5447095871988,129.324319495028
A68079501,미소지움 아파트,3114010400,울산광역시,남구,신정동,,울산광역시 남구 신정동 1852 미소지움 아파트,분양,개별난방,193652.6,16,1244.0,신성건설(주),신정대암주택조합,0522562185,https://aptree.co.kr/home/user/4371/,아파트,울산광역시 남구 대암로 25,위탁관리,계단식,20070807,0522765522,1244,150043.44,192.0,716.0,240.0,96.0,113632.37,25,25,3,42,44732,35.5313601886049,129.319243874594
A68082503,크로바아파트,3114010400,울산광역시,남구,신정동,,울산광역시 남구 신정동 1401-15 크로바아파트,분양,개별난방,29845.0,3,233.0,(주)일광실업,대아건설,0522602536,,아파트,울산광역시 남구 남산로314번길 18,위탁관리,계단식,19890413,0522612536,239,27928.3,0.0,173.0,30.0,30.0,21853.535,15,15,1,8,44624,35.5455443691193,129.305001204644
A68083004,한라무지개,3114010400,울산광역시,남구,신정동,,울산광역시 남구 신정동 899-1 한라무지개,분양,개별난방,23284.0,1,229.0,한라건설(주),한라건설(주),0522614793,,아파트,울산광역시 남구 두왕로272번길 17-14,위탁관리,복도식,19931229,0529004793,229,22631.96,94.0,135.0,0.0,0.0,17033.685,15,15,1,3,44742,35.5279521251447,129.312328677009
A68083102,우남팜파스,3114010400,울산광역시,남구,신정동,,울산광역시 남구 신정동 872-4 우남팜파스,분양,개별난방,19185.73,2,172.0,우남종합건설(주),우남종합건설(주),0522723788,,아파트,울산광역시 남구 중앙로75번길 7,위탁관리,계단식,20041224,0522723788,172,13486.52,0.0,172.0,0.0,0.0,13487.4308,18,18,0,5,44743,35.5276048430463,129.316004561455
A68083106,한라백조,3114010400,울산광역시,남구,신정동,,울산광역시 남구 신정동 872-55 한라백조,분양,개별난방,30306.0,2,285.0,(주)한라건설,(주)한라건설,0522742135,,아파트,울산광역시 남구 중앙로63번길 16,위탁관리,혼합식,19930514,0529242135,285,27649.578,104.0,181.0,0.0,0.0,21451.26,19,19,0,6,44743,35.5269669793945,129.315854504248
A68083107,신정현대홈타운4단지,3114010400,울산광역시,남구,신정동,,울산광역시 남구 신정동 851-20 신정현대홈타운4단지,분양,개별난방,76865.0,4,673.0,현대건설(주),"신정.야음재건축조합,현대건설(주)",0522695497,,아파트,울산광역시 남구 대암로 51,위탁관리,혼합식,20011115,0522693482,676,61785.254,273.0,400.0,0.0,0.0,48168.15,25,25,0,12,44732,35.5314968458103,129.322025859681
A68083108,신정현대홈타운3단지,3114010400,울산광역시,남구,신정동,,울산광역시 남구 신정동 851-21 신정현대홈타운3단지,분양,개별난방,115123.0,4,929.0,현대건설,현대건설,0522601706,,아파트,울산광역시 남구 수암로129번길 25,위탁관리,계단식,20011115,0522601707,929,95849.945,295.0,493.0,141.0,0.0,75258.28,25,25,2,19,44737,35.5301906215042,129.322149800772
A68083203,대공원올림푸스골든101동,3114010400,울산광역시,남구,신정동,,울산광역시 남구 신정동 1656-1 대공원올림푸스골든101동,분양,개별난방,24243.26,1,165.0,올림푸스건설(주),올림푸스건설(주),0522741409,,아파트,울산광역시 남구 대공원로 198,위탁관리,복도식,19880202,0522741409,165,18544.35,0.0,165.0,0.0,0.0,13970.1,15,15,1,2,44666,35.5300703291069,129.302104166733
A68083204,대공원올림푸스골든104동,3114010400,울산광역시,남구,신정동,,울산광역시 남구 신정동 1680 대공원올림푸스골든104동,분양,개별난방,19946.0,1,165.0,올림푸스건설(주),올림푸스건설(주),0522696402,,아파트,울산광역시 남구 대공원로 156,위탁관리,복도식,19890823,0522696404,165,18545.455,0.0,165.0,0.0,0.0,14008.875,15,15,1,2,44666,35.5292172925714,129.299460202444
A68083308,대공원 I'PARK,3114010400,울산광역시,남구,신정동,,울산광역시 남구 신정동 1634 대공원 I'PARK,분양,개별난방,44502.0,5,492.0,현대산업개발(주),현대산업개발(주),0522764321,daum.net/shinjeonghyundai,아파트,울산광역시 남구 문수로410번길 10,위탁관리,계단식,19941228,0522581420,492,44428.0,265.0,227.0,0.0,0.0,34616.82,14,14,1,23,44664,35.5328317334591,129.297461672149
A68083309,문수로아이파크1단지,3114010400,울산광역시,남구,신정동,,울산광역시 남구 신정동 1639-1 문수로아이파크1단지,분양,개별난방,105094.164,9,576.0,현대산업개발(주),현대산업개발(주),0522694900,cafe.daum.net/anstnfh,아파트,울산광역시 남구 문수로409번길 20,위탁관리,계단식,20030902,0522769696,580,83379.35,0.0,248.0,240.0,88.0,65148.9168,23,23,3,15,44654,35.5350228699365,129.29870404087
A68083310,문수로아이파크2단지,3114010400,울산광역시,남구,신정동,,울산광역시 남구 신정동 1639-51 문수로아이파크2단지,분양,개별난방,108276.66,9,600.0,현대산업개발(주),현대산업개발(주),0522680006,,아파트,울산광역시 남구 문수로409번길 23,위탁관리,계단식,20030902,0522758686,600,83003.76,0.0,210.0,350.0,40.0,63844.2546,23,23,0,17,44652,35.536922278702,129.297675817053
A10021095,현대하이야트,3114010500,울산광역시,남구,달동,,울산광역시 남구 달동 1403-1 현대하이야트,분양,개별난방,12369.788,1,120.0,현대건설(주),(주)귀영주택,0522732235,,아파트,울산광역시 남구 신정로33번길 36,자치관리,계단식,19941019,0522612236,124,12346.0,44.0,68.0,4.0,4.0,9389.052,1,19,1,0,,35.5338693190348,129.317349430235
A10026971,번영로코아루더클래식,3114010500,울산광역시,남구,달동,,울산광역시 남구 달동 578-1 번영로코아루더클래식,분양,개별난방,34265.703,2,298.0,보미건설,한국토지신탁,0522607749,,주상복합,울산광역시 남구 번영로 165,위탁관리,계단식,20170519,0522607759,298,34265.703,0.0,294.0,4.0,0.0,50234.1592,32,32,0,10,44695,35.5397350692311,129.326427705987
A10027591,울산센트럴자이아파트,3114010500,울산광역시,남구,달동,,울산광역시 남구 달동 1364-1 울산센트럴자이아파트,분양,개별난방,53002.61,2,288.0,GS건설,GS건설,0522715002,,주상복합,울산광역시 남구 삼산로 231,위탁관리,계단식,20151124,0522715004,289,35978.94,0.0,184.0,104.0,0.0,25685.16,29,29,5,0,44707,35.5388507762719,129.332665290416
A68072401,달동주공3단지,3114010500,울산광역시,남구,달동,,울산광역시 남구 달동 119-1 달동주공3단지,임대,중앙난방,56932.94,7,1378.0,"진흥건설,창조종합건설,경향건설",LH,0522754125,www.365020.co.kr,아파트,울산광역시 남구 번영로107번길 5,위탁관리,복도식,19931223,0522751634,1378,53882.67,1378.0,0.0,0.0,0.0,36337.86,15,15,0,16,44727,35.5337313778362,129.327534753452
A68072402,삼정그린코아,3114010500,울산광역시,남구,달동,,울산광역시 남구 달동 632-1 삼정그린코아,분양,개별난방,10563.97,1,177.0,삼정기업(주),태원디엔씨(주),0522560051,,주상복합,울산광역시 남구 신정로 75,위탁관리,복도식,20130531,07045451172,177,9499.876,177.0,0.0,0.0,0.0,5512.76,15,15,1,0,44692,35.5383805747917,129.320529720652
A68080002,달동월드메르디앙,3114010500,울산광역시,남구,달동,,울산광역시 남구 달동 1411 달동월드메르디앙,분양,개별난방,36661.0,4,228.0,(주)월드건설산업,동륭H&K주식회사,0522671295,www.hebibi.com,아파트,울산광역시 남구 삼산로125번길 33,위탁관리,계단식,20080509,0529036295,228,28312.889,0.0,182.0,46.0,0.0,21048.5152,24,24,1,0,44692,35.5386984573321,129.319369332046
A68080010,달동현대2차,3114010500,울산광역시,남구,달동,,울산광역시 남구 달동 118-1 달동현대2차,분양,개별난방,72344.31,6,499.0,현대산업개발(주),현대산업개발(주),0522661410,,아파트,울산광역시 남구 삼산로156번길 5-74,위탁관리,계단식,19940929,0529661410,499,64476.008,0.0,89.0,410.0,0.0,53989.025,15,15,0,17,44726,35.5360296272922,129.326194876923
A68080012,달동주공2단지,3114010500,울산광역시,남구,달동,,울산광역시 남구 달동 119-1 달동주공2단지,분양,중앙난방,38116.8,5,720.0,진로건설(주),LH공사,0522666697,,아파트,울산광역시 남구 번영로107번길 5,위탁관리,복도식,19931223,0522666686,720,38116.8,720.0,0.0,0.0,0.0,29332.8,15,15,1,8,44727,35.5337313778362,129.327534753452
A68080014,달동주공1단지,3114010500,울산광역시,남구,달동,,울산광역시 남구 달동 118-3 달동주공1단지,분양,중앙난방,67637.0,10,948.0,대능건설,대한주택공사,0522699396,,아파트,울산광역시 남구 번영로107번길 22,위탁관리,복도식,19931116,0522699357,948,65270.34,948.0,0.0,0.0,0.0,47604.27,15,15,0,12,44726,35.5350534902567,129.326644003821
A68080301,달동우방맨션,3114010500,울산광역시,남구,달동,,울산광역시 남구 달동 1395-13 달동우방맨션,분양,개별난방,18660.13,1,183.0,(주)우방,(주)태성주택,0522754270,,아파트,울산광역시 남구 도산로 59,위탁관리,혼합식,19980718,0522754272,183,11797.68,89.0,94.0,0.0,0.0,11797.68,25,25,1,1,44723,35.5327743741502,129.321454975304
A68080303,달동힐스테이트,3114010500,울산광역시,남구,달동,,울산광역시 남구 달동 1330-3 달동힐스테이트,분양,개별난방,49917.3,7,240.0,현대건설,기라캠,0522756799,-,아파트,울산광역시 남구 왕생로86번길 43,위탁관리,계단식,20060529,0522742799,240,36455.76,0.0,18.0,222.0,0.0,30226.6668,15,15,1,9,44704,35.5423054256366,129.334815727477
A68080308,달동SK VIEW 아파트,3114010500,울산광역시,남구,달동,,울산광역시 남구 달동 809-1 달동SK VIEW 아파트,분양,개별난방,51815.0,6,454.0,SK건설(주),SK(주),0522676292,,아파트,울산광역시 남구 중앙로128번길 54,위탁관리,계단식,19990406,0529496292,454,40730.9,202.0,252.0,0.0,0.0,31564.02,24,24,1,12,44723,35.5335570907898,129.320778320647
A68080309,어울림아파트,3114010500,울산광역시,남구,달동,,울산광역시 남구 달동 775-6 어울림아파트,분양,개별난방,51598.76,3,478.0,세운주택(주),금호산업(주),0522685363,eullimdal@daum.net,아파트,울산광역시 남구 도산로77번길 4,위탁관리,계단식,19990119,0529735363,478,44434.45,208.0,270.0,0.0,0.0,34105.05,25,25,2,10,44729,35.5315624545826,129.324549844622
A68080311,달동삼성,3114010500,울산광역시,남구,달동,,울산광역시 남구 달동 758 달동삼성,분양,개별난방,69992.0,6,692.0,(주)거성주택,삼성물산(주),0522658082,,아파트,울산광역시 남구 신정로17번길 6,위탁관리,계단식,19970206,0522658083,692,49312.86,302.0,390.0,0.0,0.0,49312.86,25,25,0,0,44724,35.5338146134567,129.322041642891
A68080505,달동현대3차,3114010500,울산광역시,남구,달동,,울산광역시 남구 달동 1371-1 달동현대3차,분양,개별난방,44352.0,4,411.0,현대건설,현대건설,0522715314,,아파트,울산광역시 남구 번영로89번길 23,위탁관리,혼합식,19951124,0522715314,411,38340.9,211.0,200.0,0.0,0.0,29634.79,13,13,1,11,44728,35.532687063642,129.327412639986
A68080507,달동현대1차,3114010500,울산광역시,남구,달동,,울산광역시 남구 달동 1352-5 달동현대1차,분양,개별난방,47031.0,4,450.0,현대건설,현대중공업,0529696363,,아파트,울산광역시 남구 삼산중로 83,위탁관리,계단식,19900827,0529696363,450,37446.3,0.0,450.0,0.0,0.0,37446.3,15,15,0,15,44706,35.5408360654043,129.33479737247
A68080513,삼산선경,3114010500,울산광역시,남구,달동,,울산광역시 남구 달동 1330-1 삼산선경,분양,개별난방,90215.0,6,828.0,선경건설,선경,0522652117,,아파트,울산광역시 남구 돋질로 262,위탁관리,계단식,19911224,0529672117,828,85904.04,0.0,768.0,60.0,0.0,69942.9,24,24,0,21,44704,35.5432383317353,129.334371695799
A10026945,태화강더뷰아파트,3114010600,울산광역시,남구,삼산동,,울산광역시 남구 삼산동 1403-3 태화강더뷰아파트,분양,개별난방,15172.003,1,195.0,청산종합건설(주),코마리아이앤지(주),0522687750,,아파트,울산광역시 남구 번영로 266,위탁관리,복도식,20170621,0522677751,195,8019.292,195.0,0.0,0.0,0.0,4969.653,20,20,3,0,44696,35.5485749094617,129.323756343602
A10027013,삼산 리버뷰웰가,3114010600,울산광역시,남구,삼산동,,울산광역시 남구 삼산동 183-1 삼산 리버뷰웰가,분양,개별난방,25145.0,2,207.0,(주)흥한주택종합건설,"대한토지신탁,태화 디벨로프",0522276191,,주상복합,울산광역시 남구 정동로 142,위탁관리,계단식,20170406,0522276192,221,15821.253,207.0,0.0,0.0,0.0,11559.3412,20,20,2,7,44710,35.5466215655617,129.345175008358
A68074301,대성스카이렉스,3114010600,울산광역시,남구,삼산동,,울산광역시 남구 삼산동 1564-1 대성스카이렉스,분양,개별난방,93602.516,2,268.0,대성산업,대성산업,0522565455,www.hebibi.com/,주상복합,울산광역시 남구 삼산로 303,위탁관리,혼합식,20100701,0522565488,268,50141.72,0.0,0.0,66.0,202.0,39600.7,40,40,7,6,44713,35.5402579088367,129.340091450199
A68074302,한화꿈에그린1단지,3114010600,울산광역시,남구,삼산동,,울산광역시 남구 삼산동 324-15 한화꿈에그린1단지,분양,개별난방,70693.04,5,380.0,한화건설,서미트캠프,0522272933,,아파트,울산광역시 남구 산업로613번길 26,위탁관리,기타,20100630,0522272934,380,39943.383,0.0,200.0,180.0,0.0,39943.382,23,23,2,11,44716,35.5367416351792,129.348490264797
A68074303,한화꿈에그린2단지,3114010600,울산광역시,남구,삼산동,,울산광역시 남구 삼산동 324-17 한화꿈에그린2단지,분양,개별난방,61794.89,4,336.0,한화건설(주),서미트캠프,0522272664,dreamapt-samsan2.co.kr,아파트,울산광역시 남구 산업로613번길 29,위탁관리,기타,20100630,0522272665,336,44144.0,0.0,172.0,164.0,0.0,35524.0224,24,24,2,0,44716,35.535258297737,129.347991733755
A68074304,팔레드상떼,3114010600,울산광역시,남구,삼산동,,울산광역시 남구 삼산동 1498-4 팔레드상떼,분양,개별난방,70967.586,2,188.0,CJ건설,(주)위드웍스,0522568920,cafe.daum.net/pldapt,주상복합,울산광역시 남구 번영로 234,위탁관리,계단식,20130222,0522271468,188,28756.258,0.0,0.0,48.0,140.0,28756.258,32,32,8,0,44696,35.545924287043,129.324988509287
A68081310,아데라움아파트,3114010600,울산광역시,남구,삼산동,,울산광역시 남구 삼산동 182-1 아데라움아파트,분양,개별난방,165102.42,8,994.0,평창토건(주),한국토지신탁,0522589405,,아파트,울산광역시 남구 강남로 348,위탁관리,계단식,20050207,0252589407,994,130614.08,0.0,517.0,317.0,160.0,102542.2173,20,20,2,25,44710,35.545849611819,129.346518521913
A68081311,세양청구마을,3114010600,울산광역시,남구,삼산동,,울산광역시 남구 삼산동 172-1 세양청구마을,분양,개별난방,189205.92,12,1562.0,청구,세양건설산업(주),0522754593,www.joyapt.com/2109,아파트,울산광역시 남구 돋질로401번길 12,위탁관리,계단식,19971210,0522754594,1562,122289.5,644.0,804.0,114.0,0.0,122302.76,23,23,1,35,44711,35.545162599849,129.350696351599
A68081404,삼산우성,3114010600,울산광역시,남구,삼산동,,울산광역시 남구 삼산동 1461-1 삼산우성,분양,개별난방,57753.87,5,494.0,우성,우성,0522697978,,아파트,울산광역시 남구 돋질로261번길 32,위탁관리,계단식,19910520,0522601474,494,57473.95,0.0,362.0,0.0,132.0,48214.1,15,15,1,18,44699,35.5458641395641,129.333308945297
A68081407,삼신현대아파트,3114010600,울산광역시,남구,삼산동,,울산광역시 남구 삼산동 1461-3 삼신현대아파트,분양,개별난방,72551.0,7,690.0,현대산업개발,현대산업개발,0522661093,,아파트,울산광역시 남구 월평로 272,위탁관리,계단식,19910524,0529761384,692,71541.6,0.0,630.0,60.0,0.0,58995.75,15,15,1,23,44699,35.5460096059003,129.334684351966
A68081409,삼산현대,3114010600,울산광역시,남구,삼산동,,울산광역시 남구 삼산동 1459-1 삼산현대,분양,중앙난방,136905.69,9,962.0,현대건설(주),대성종합건설,0522697660,hebibi.com-1439,아파트,울산광역시 남구 월평로 253,위탁관리,계단식,19901203,0522697661,966,133215.94,0.0,494.0,260.0,208.0,107469.18,13,13,1,37,44697,35.5476077611598,129.333035120341
A68081501,현대문화2차,3114010600,울산광역시,남구,삼산동,,울산광역시 남구 삼산동 1607-1 현대문화2차,분양,개별난방,32737.086,1,350.0,현대건설,현대자동차,0522589630,,아파트,울산광역시 남구 정동로6번길 18,위탁관리,복도식,19981023,0522589630,350,29750.0,350.0,0.0,0.0,0.0,20916,25,25,0,4,44717,35.5344193487292,129.346023726932
A68081502,현대문화1차,3114010600,울산광역시,남구,삼산동,,울산광역시 남구 삼산동 1605-3 현대문화1차,분양,개별난방,35307.0,1,387.0,현대건설,현대자동차,0522679369,,아파트,울산광역시 남구 화합로102번길 10,위탁관리,복도식,19960222,0522679369,387,32238.416,387.0,0.0,0.0,0.0,23127.12,25,25,2,0,44717,35.5339471671213,129.343064958613
A68081605,평창2차현대,3114010600,울산광역시,남구,삼산동,,울산광역시 남구 삼산동 1547 평창2차현대,분양,개별난방,63468.83,6,601.0,현대산업개발,평창토건(주),0522682474,apt24740@daum.net,아파트,울산광역시 남구 삼산중로 110,위탁관리,혼합식,19940611,0522692474,601,60741.96,240.0,272.0,89.0,0.0,47356.4,20,20,1,13,44705,35.5429851149544,129.336562893856
A68081606,벽산강변타운,3114010600,울산광역시,남구,삼산동,,울산광역시 남구 삼산동 1529-1 벽산강변타운,분양,개별난방,65687.67,4,608.0,벽산건설(주),세림건설(주),0522577307,,아파트,울산광역시 남구 화합로 244,위탁관리,계단식,19981120,0529597307,608,56810.27,249.0,359.0,0.0,0.0,43931.235,25,25,1,14,44708,35.5468895238282,129.3407262134
A68081703,삼산푸르지오,3114010600,울산광역시,남구,삼산동,,울산광역시 남구 삼산동 1529-2 삼산푸르지오,분양,개별난방,60275.67,5,430.0,(주)대우건설,삼토개발(주),0522694664,,아파트,울산광역시 남구 돋질로339번길 35,위탁관리,계단식,20040723,0522691664,430,48537.02,60.0,272.0,98.0,0.0,38626.0186,25,25,2,11,44708,35.5468268375076,129.34178699781
A68081708,평창3차현대,3114010600,울산광역시,남구,삼산동,,울산광역시 남구 삼산동 1538-2 평창3차현대,분양,개별난방,98235.71,6,782.0,고려산업개발(주),평창주택개발(주),0522745955,,아파트,울산광역시 남구 삼산중로128번길 21,위탁관리,계단식,19951028,0522726123,782,89765.695,322.0,280.0,108.0,72.0,69517.54,23,23,1,0,44698,35.5455474411066,129.338078120948
A10022594,번영로 센텀파크 에일린의 뜰,3114010800,울산광역시,남구,야음동,,울산광역시 남구 야음동 357-7 번영로 센텀파크 에일린의 뜰,분양,개별난방,30615.828,2,191.0,동서아이에스,야음제1지구 가로주택정비사업조합,0522727003,,아파트,울산광역시 남구 번영로16번길 50,위탁관리,계단식,20240517,0522727004,191,13956.61,52.0,139.0,0.0,0.0,13961.7645,27,27,2,6,44761,35.5246712785087,129.332910601962
A10023148,더샵번영센트로,3114010800,울산광역시,남구,야음동,,울산광역시 남구 야음동 487-8 더샵번영센트로,분양,개별난방,92811.0,7,632.0,(주)포스코건설,번영로 더샵 지역주택조합,0522710996,,아파트,울산광역시 남구 번영로16번길 19,위탁관리,계단식,20230630,0522710667,632,62717.07,0.0,203.0,429.0,0.0,62717.1158,29,29,3,15,44760,35.5286029120204,129.332494267397
A10023217,지산오차드힐주상복합,3114010800,울산광역시,남구,야음동,,울산광역시 남구 야음동 455-4 지산오차드힐주상복합,분양,개별난방,23684.0,2,132.0,(주)산양종합개발,(주)지산주택건설,0522611717,,주상복합,울산광역시 남구 수암로 255,위탁관리,계단식,20080118,0529107890,150,11214.728,0.0,132.0,0.0,0.0,11214.7278,20,20,3,5,44761,35.5233226347064,129.333680123738
A10023618,울산대현시티프라디움,3114010800,울산광역시,남구,야음동,,울산광역시 남구 야음동 836-1 울산대현시티프라디움,분양,개별난방,35922.6,2,216.0,시티종합건설,시티주택건설,0522608577,,아파트,울산광역시 남구 수암로190번길 17,위탁관리,계단식,20221006,0522608677,219,23007.246,0.0,216.0,0.0,0.0,18217.98,28,28,2,6,44751,35.5256132794168,129.328192117314
A10023774,남운진주맨션,3114010800,울산광역시,남구,야음동,,울산광역시 남구 야음동 763-2 남운진주맨션,분양,개별난방,16627.98,1,158.0,남운개발주식회사,남운개발주식회사,0522669545,,아파트,,자치관리,복도식,19880818,0522669545,159,16627.98,0.0,158.0,0.0,0.0,11125.25,11,11,1,2,44755,35.5237780220828,129.321598148427
A10023839,번영로하늘채센트럴파크,3114010800,울산광역시,남구,야음동,,울산광역시 남구 야음동 462-1 번영로하늘채센트럴파크,분양,개별난방,123988.17,11,848.0,코오롱글로벌(주),대현지역 주택조합,0522567701,,아파트,울산광역시 남구 번영로16번길 14,위탁관리,계단식,20220421,0522567734,848,83560.57,294.0,554.0,0.0,0.0,62190.03,27,27,2,27,44760,35.5268620534584,129.332853346662
A10025050,호수공원대명루첸아파트,3114010800,울산광역시,남구,야음동,,울산광역시 남구 야음동 401-1 호수공원대명루첸아파트,분양,개별난방,122780.55,9,817.0,(주)대명건설,(주)하우스팬,0522587719,,아파트,울산광역시 남구 신선로 186,위탁관리,계단식,20200131,0522587748,817,81104.89,0.0,817.0,0.0,0.0,59674.26,29,29,2,20,44764,35.5209167573696,129.331871005185
A10025282,힐스테이트수암 2단지,3114010800,울산광역시,남구,야음동,,울산광역시 남구 야음동 725 힐스테이트수암 2단지,분양,개별난방,23564.957,3,154.0,현대엔지니어링,야음주공2단지 주택재건축정비사업조합,0522657750,"joyapt,com/5137",아파트,울산광역시 남구 중앙로17번길 35,위탁관리,계단식,20190904,0522657760,154,14790.662,66.0,88.0,0.0,0.0,11043.7566,19,28,2,5,44745,35.5223215007289,129.31354304997
A10025297,힐스테이트 수암 1단지,3114010800,울산광역시,남구,야음동,,울산광역시 남구 야음동 725-27 힐스테이트 수암 1단지,분양,개별난방,117342.08,9,725.0,(주)현대엔지리어링,야음주공2단지 아파트 주택재건축정비사업조합,0522577730,joyapt.com/home/user/5136/,아파트,울산광역시 남구 중앙로47번길 27,위탁관리,계단식,20190904,0522577740,725,78765.38,77.0,592.0,56.0,0.0,61193.2717,28,28,2,0,44745,35.5241743522146,129.314505801628
A10025597,울산 남구 LH해피투게더 타운 아파트,3114010800,울산광역시,남구,야음동,,울산광역시 남구 야음동 370-6 울산 남구 LH해피투게더 타운 아파트,임대,개별난방,8982.0,1,100.0,신동아건설,한국토지주택공사(LH),0522607711,,아파트,울산광역시 남구 여천로12번길 50,위탁관리,복도식,20190320,0522667744,100,5997.712,100.0,0.0,0.0,0.0,5309.64,11,11,2,2,44766,35.5200374156914,129.339948692868
A10025957,울산대현더샵2단지,3114010800,울산광역시,남구,야음동,,울산광역시 남구 야음동 912 울산대현더샵2단지,분양,개별난방,140435.86,8,905.0,(주)포스코건설,하나다개발(주),0522587749,,아파트,울산광역시 남구 야음로26번길 34,위탁관리,계단식,20181030,0522657759,905,99625.68,0.0,880.0,25.0,0.0,73943.399,31,31,3,21,44753,35.5236144720699,129.327085169209
A10025958,대현더샵1단지,3114010800,울산광역시,남구,야음동,,울산광역시 남구 야음동 911 대현더샵1단지,분양,개별난방,42798.07,3,275.0,포스코건설,하나다개발(주),0522567729,,아파트,울산광역시 남구 수암로190번길 18,위탁관리,계단식,20181030,0522677729,275,30081.51,0.0,267.0,8.0,0.0,21995.281,27,31,2,7,44751,35.5254006541743,129.327038112418
A10026815,번영로 두산위브,3114010800,울산광역시,남구,야음동,,울산광역시 남구 야음동 910 번영로 두산위브,분양,개별난방,118851.37,8,761.0,두산건설,(주)코람코자산신탁,0522277769,,아파트,울산광역시 남구 번영로 29,위탁관리,계단식,20170908,0522277723,761,84594.94,0.0,761.0,0.0,0.0,64527.237,27,27,2,17,44735,35.5283497388805,129.329342828504
A68078701,신정현대홈타운1단지,3114010800,울산광역시,남구,야음동,,울산광역시 남구 야음동 594-37 신정현대홈타운1단지,분양,개별난방,141466.0,6,1085.0,현대건설,신정야음재건축조합,0522585270,,아파트,울산광역시 남구 대암로 81,위탁관리,계단식,19991127,0522585269,1085,106669.836,440.0,495.0,150.0,0.0,83729.07,25,25,2,21,44733,35.5302986446694,129.325604645057
A68078702,동광모닝스카이,3114010800,울산광역시,남구,야음동,,울산광역시 남구 야음동 832-3 동광모닝스카이,분양,개별난방,27837.373,1,247.0,동광건설 주식회사,(주)코람코자산신탁,0522573874,,주상복합,울산광역시 남구 수암로 208,위탁관리,복도식,20140228,0522573873,247,15538.698,247.0,0.0,0.0,0.0,11536.0704,20,20,4,5,44752,35.5256157122697,129.329404861829
A68083518,롯데캐슬골드1단지,3114010800,울산광역시,남구,야음동,,울산광역시 남구 야음동 878 롯데캐슬골드1단지,분양,개별난방,245665.27,15,1370.0,야음주공1단지 재건축 정비사업조합,롯데건설(주),0522654747,www.uslottecastle.co.kr/,아파트,울산광역시 남구 신선로 45,위탁관리,계단식,20080529,0522567200,1383,148639.69,182.0,347.0,663.0,178.0,148639.68,25,25,2,30,44747,35.5220029360497,129.316946707504
A68083609,삼한힐파크,3114010800,울산광역시,남구,야음동,,울산광역시 남구 야음동 383-1 삼한힐파크,분양,개별난방,31262.0,3,292.0,(주)삼한종합건설,(주)삼한종합건설,0522279805,shh885@in-apt.co.kr,아파트,울산광역시 남구 수암로274번길 15,위탁관리,계단식,20030616,0522279806,292,25434.826,162.0,130.0,0.0,0.0,20270.52,15,15,2,11,44768,35.5207600040875,129.334355704077
A68083703,롯데인벤스 스위트,3114010800,울산광역시,남구,야음동,,울산광역시 남구 야음동 570-1 롯데인벤스 스위트,분양,개별난방,19485.307,2,164.0,롯데기공(주),다솜종합건설(주),0522279939,cafe.daum.net/lotteinvens,아파트,울산광역시 남구 번영로 66,위탁관리,계단식,20061129,0529989939,164,17639.512,0.0,164.0,0.0,0.0,13936.0804,25,25,1,4,44756,35.5320000302891,129.331686867054
A68083707,삼환나띠르빌아파트,3114010800,울산광역시,남구,야음동,,울산광역시 남구 야음동 489-18 삼환나띠르빌아파트,분양,개별난방,27424.938,2,214.0,(주)삼환까뮤,에이치엠종합건설(주),0522712777,,아파트,울산광역시 남구 신화로15번길 4,위탁관리,계단식,20050819,0522602776,214,21884.305,82.0,132.0,0.0,0.0,16130.622,22,22,0,5,44758,35.5290469485713,129.333109188407
A68083708,태양한신,3114010800,울산광역시,남구,야음동,,울산광역시 남구 야음동 564-1 태양한신,분양,개별난방,27867.078,2,236.0,한신공영(주),태양개발,0522673455,무,아파트,울산광역시 남구 꽃대나리로46번길 38,자치관리,복도식,19891204,0522673455,241,27534.0,0.0,214.0,0.0,22.0,20692.71,14,14,1,4,44756,35.5316464689065,129.333143699437
A68083711,한라하이타운,3114010800,울산광역시,남구,야음동,,울산광역시 남구 야음동 538-1 한라하이타운,분양,개별난방,34367.0,3,359.0,(주)한라종합건설,(주)한라종합건설,0522652471,,아파트,울산광역시 남구 꽃대나리로46번길 7,위탁관리,혼합식,19930802,0522652475,359,31985.35,259.0,100.0,0.0,0.0,23775.6,25,25,1,8,44756,35.5323746864757,129.334159309027
A68083712,우방유화,3114010800,울산광역시,남구,야음동,,울산광역시 남구 야음동 564-4 우방유화,분양,개별난방,44538.0,4,407.0,우방건설주식회사,대한유화주택조합,0522681859,cafe.daum.net/wbuhapt,아파트,울산광역시 남구 꽃대나리로46번길 24,위탁관리,계단식,19891208,0522610970,407,44463.7,0.0,379.0,28.0,0.0,34822.266,15,15,1,15,44756,35.5323341236461,129.332824214165
A68083719,신정현대홈타운2단지,3114010800,울산광역시,남구,야음동,,울산광역시 남구 야음동 594-10 신정현대홈타운2단지,분양,개별난방,171060.0,9,1420.0,현대건설(주),신정.야음재건축조합 현대건설(주),0522277061,cafe.daum.net/ulapt/,아파트,울산광역시 남구 대암로 82,위탁관리,혼합식,19991127,0522277063,1420,140299.95,571.0,649.0,200.0,0.0,110135.17,25,25,2,29,44733,35.5294617696634,129.323883626816
A68084004,선경그린,3114010800,울산광역시,남구,야음동,,울산광역시 남구 야음동 725-13 선경그린,분양,개별난방,17315.994,2,168.0,한라종합건설,sk인더스트리주택조합,0522656394,,아파트,울산광역시 남구 중앙로17번길 16,위탁관리,계단식,19940208,0522666395,168,14823.36,96.0,72.0,0.0,0.0,11872.7976,12,12,1,7,44746,35.5232350101608,129.316897267812
A68084005,그랜드타운,3114010800,울산광역시,남구,야음동,,울산광역시 남구 야음동 868-3 그랜드타운,분양,개별난방,12217.0,1,182.0,그랜드종합건설(주),삼흥종합건설(주),0522682263,,아파트,울산광역시 남구 신남로 8-8,위탁관리,복도식,19991103,0522682264,182,10876.18,182.0,0.0,0.0,0.0,7991.9,15,15,1,2,44745,35.5219515810498,129.313065763529
A68084006,한라에이스빌,3114010800,울산광역시,남구,야음동,,울산광역시 남구 야음동 701-1 한라에이스빌,분양,개별난방,21208.0,2,190.0,한라종합건설(주),한라종합건설(주),0522661275,,아파트,울산광역시 남구 수암로128번길 24,위탁관리,계단식,20030904,0522661273,190,15178.329,68.0,122.0,0.0,0.0,14360.0808,15,15,1,8,44749,35.5261089441849,129.319844859115
A68084010,한라훼미리,3114010800,울산광역시,남구,야음동,,울산광역시 남구 야음동 730-6 한라훼미리,분양,개별난방,33128.0,2,314.0,한라종합건설(주),한라종합건설(주),0522664683,hanla7306@naver.com,아파트,울산광역시 남구 신남로 8-17,위탁관리,계단식,19911030,0522654683,314,31924.2,0.0,314.0,0.0,0.0,25732.915,15,15,2,12,44745,35.5216941585238,129.314276503966
A68084015,일동미라주,3114010800,울산광역시,남구,야음동,,울산광역시 남구 야음동 725-1 일동미라주,분양,개별난방,59959.0,7,526.0,(주)일동,(주)일동,0522670901,,아파트,울산광역시 남구 중앙로 39,위탁관리,계단식,20041013,0522670902,526,54224.363,0.0,526.0,0.0,0.0,42892.3312,15,15,1,18,44746,35.5244453750188,129.317335044918
A68084214,신선아파트,3114010800,울산광역시,남구,야음동,,울산광역시 남구 야음동 796-17 신선아파트,분양,개별난방,33781.49,3,500.0,대능건설,울산시,0522752081,,아파트,울산광역시 남구 야음로 4,위탁관리,복도식,19951024,0529312081,500,33058.0,500.0,0.0,0.0,0.0,23265,15,15,0,8,44753,35.5226639128633,129.325302806452
A68084216,야음동쌍용스윗닷홈,3114010800,울산광역시,남구,야음동,,울산광역시 남구 야음동 789-105 야음동쌍용스윗닷홈,분양,개별난방,71115.0,9,581.0,남광토건,남광토건,0522275451,,아파트,울산광역시 남구 야음로 33,위탁관리,계단식,20041026,0522275452,581,62512.812,0.0,527.0,54.0,0.0,50654.27,15,15,1,22,44750,35.5256041580713,129.322091884329
A68084217,롯데캐슬골드2단지,3114010800,울산광역시,남구,야음동,,울산광역시 남구 야음동 878 롯데캐슬골드2단지,혼합,개별난방,182504.48,14,1051.0,야음주공1단지재건축정비사업조합,롯데건설,0522650655,www.usltcs.co.kr,아파트,울산광역시 남구 신선로 46,위탁관리,계단식,20080529,0522571370,1051,138432.2,120.0,453.0,276.0,202.0,110317.53,24,24,3,26,44763,35.5220029360497,129.316946707504
A68084220,야음동부,3114010800,울산광역시,남구,야음동,,울산광역시 남구 야음동 789-6 야음동부,분양,개별난방,184297.0,16,1504.0,동부건설(주),동부화학(주),0522714542,dong,아파트,울산광역시 남구 야음로 24,위탁관리,계단식,19951101,0522714543,1504,163376.95,548.0,532.0,384.0,40.0,129145.8,20,20,0,39,44754,35.5239571899731,129.324897263915
A10020430,강남그린맨션,3114010900,울산광역시,남구,선암동,,울산광역시 남구 선암동 542-5 강남그린맨션,분양,개별난방,15110.0,1,136.0,강남건설,강남건설,0522678298,,아파트,울산광역시 남구 두왕로174번길 72,자치관리(직영),복도식,19920903,0522662916,136,14810.4,0.0,136.0,0.0,0.0,11546.4,0,14,0,2,,35.5147938869432,129.315970741065
A10021116,한신청실맨션,3114010900,울산광역시,남구,선암동,,울산광역시 남구 선암동 677-6 한신청실맨션,분양,개별난방,9330.0,1,120.0,한신주택,한신주택,0522497739,,아파트,울산광역시 남구 두왕로190번길 23,위탁관리,계단식,19891106,0529477739,120,9330.0,0.0,120.0,0.0,0.0,7820.1,15,15,1,0,,35.5192454632915,129.314396518001
A10021531,인블리스 아파트,3114010900,울산광역시,남구,선암동,,울산광역시 남구 선암동 665-1 인블리스 아파트,사택 및 관사 등,개별난방,0.0,2,128.0,효성중공업(주),한국카프로락탐(주),0522671917,,아파트,울산광역시 남구 두왕로190번길 47,위탁관리,계단식,19941124,0522671917,128,12091.2,80.0,48.0,0.0,0.0,8541.6,1,10,0,0,,35.5177491696738,129.317632260118
A10028014,에코하이츠,3114010900,울산광역시,남구,선암동,,울산광역시 남구 선암동 170-14 에코하이츠,분양,개별난방,58108.0,7,499.0,한국송유관공사,한국토지신탁,0522670445,,아파트,울산광역시 남구 산업로339번길 27-10,위탁관리,계단식,20150519,0522670446,499,45260.55,357.0,142.0,0.0,0.0,33463.35,20,20,1,0,44771,35.5152598635754,129.336298836636
A68081907,삼익세라믹,3114010900,울산광역시,남구,선암동,,울산광역시 남구 선암동 537-1 삼익세라믹,분양,개별난방,26147.53,2,264.0,삼익세라믹건설(주),삼도건설(주),0522740785,,아파트,울산광역시 남구 두왕로190번길 77,위탁관리,계단식,19900702,0522740785,264,25939.717,0.0,264.0,0.0,0.0,21295.02,15,15,1,9,44773,35.5144488420645,129.31778212474
A68081909,선암동서광,3114010900,울산광역시,남구,선암동,,울산광역시 남구 선암동 559-12 선암동서광,분양,개별난방,69845.0,6,700.0,서광건설산업,서광건설산업,0522573548,,아파트,울산광역시 남구 두왕로106번길 28-23,위탁관리,계단식,19970521,0522573148,700,63363.5,350.0,350.0,0.0,0.0,48725.5,25,25,2,14,44774,35.5135282206532,129.312615823023
A68082002,강남파크맨션,3114010900,울산광역시,남구,선암동,,울산광역시 남구 선암동 626 강남파크맨션,분양,개별난방,17191.0,2,176.0,(주)강남산업,(주)강남산업,0522758901,,아파트,울산광역시 남구 두왕로190번길 50,자치관리,복도식,19910520,0529008901,176,12261.6,20.0,156.0,0.0,0.0,12261.6,15,15,1,4,44773,35.5166902794281,129.315857606305
A68082004,선암SK VIEW 아파트,3114010900,울산광역시,남구,선암동,,울산광역시 남구 선암동 650 선암SK VIEW 아파트,사택 및 관사 등,개별난방,21126.154,1,205.0,태봉건설,유공,0522608050,,아파트,울산광역시 남구 두왕로190번길 75,위탁관리,계단식,19940625,0529008051,205,17569.75,145.0,30.0,30.0,0.0,13978.56,16,16,2,0,44773,35.5155250713825,129.317796323571
A68010008,신선산휴먼빌,3114011000,울산광역시,남구,상개동,,울산광역시 남구 상개동 589-1 신선산휴먼빌,분양,개별난방,53502.797,4,397.0,참좋은건설(주),일신건영,0522761030,,아파트,울산광역시 남구 두왕로34번길 42,위탁관리,계단식,20080530,0522761411,397,44324.54,0.0,397.0,0.0,0.0,32529.179,25,25,1,11,44774,35.5083208672884,129.313090271113
A68018001,상개목화아파트,3114011000,울산광역시,남구,상개동,,울산광역시 남구 상개동 152-6 상개목화아파트,분양,개별난방,25460.0,1,293.0,목화산업(주),목화산업(주),0522279780,,아파트,울산광역시 남구 두왕로48번길 18,위탁관리,복도식,20020406,0522271754,293,21144.64,293.0,0.0,0.0,0.0,15628.8245,15,15,1,3,44774,35.5077205999171,129.310786308785
A10024743,한양아이클래스,3114011900,울산광역시,남구,매암동,,울산광역시 남구 매암동 1421 한양아이클래스,분양,개별난방,21353.94,1,112.0,한양산업개발,주식회사 성광,0529120224,,주상복합,울산광역시 남구 장생포고래로 249,위탁관리,계단식,20141112,0529130224,112,11476.78,0.0,112.0,0.0,0.0,8661.58,21,21,1,4,44780,35.5037210068958,129.380888081296
