kaptCode,kaptName,bjdCode,as1,as2,as3,as4,kaptAddr,codeSaleNm,codeHeatNm,kaptTarea,kaptDongCnt,kaptdaCnt,kaptBcompany,kaptAcompany,kaptTel,kaptUrl,codeAptNm,doroJuso,codeMgrNm,codeHallNm,kaptUsedate,kaptFax,hoCnt,kaptMarea,kaptMparea60,kaptMparea85,kaptMparea135,kaptMparea136,privArea,kaptTopFloor,ktownFlrNo,kaptBaseFloor,kaptdEcntp,zipcode,위도,경도
A10027420,에드가채움아파트,4611010100,전라남도,목포시,용당동,,전라남도 목포시 용당동 1214 에드가채움아파트,분양,개별난방,25875.0,5,256.0,(주)하늘종합건설,도휘주식회사,0612779824,,아파트,전라남도 목포시 소영길 43,자치관리,계단식,20160701,0612779825,256,25874.834,0.0,256.0,0.0,0.0,19519.5912,17,17,2,11,58650,34.8079537927457,126.396386207006
A53036003,용당아파트,4611010100,전라남도,목포시,용당동,,전라남도 목포시 용당동 982-25 용당아파트,분양,개별난방,16335.0,9,350.0,주택공사,주택공사,0612760830,,아파트,전라남도 목포시 송림로 5,자치관리,계단식,19770711,0612768830,350,15041.32,350.0,0.0,0.0,0.0,14358.81,5,5,0,0,58651,34.8085637437868,126.399606714882
A10020206,삼학하이츠,4611010200,전라남도,목포시,산정동,,전라남도 목포시 산정동 1365 삼학하이츠,분양,개별난방,23897.61,10,355.0,중앙건설,중앙건설,0612423035,,아파트,전라남도 목포시 둥근섬로54번길 11-1,자치관리,계단식,19810922,0612423035,355,23439.05,90.0,245.0,20.0,0.0,23439.05,5,0,0,0,,34.7927422607731,126.399879744172
A10024337,산정대광로제비앙아파트,4611010200,전라남도,목포시,산정동,,전라남도 목포시 산정동 1840 산정대광로제비앙아파트,임대,개별난방,44959.0,8,416.0,대광건영,(주)포레지아,0612763990,,아파트,전라남도 목포시 양을로79번길 6,위탁관리,계단식,20210330,0612763991,416,44180.69,0.0,416.0,0.0,0.0,33604.1333,17,17,2,15,58635,34.8050371692051,126.382733066476
A10026528,목포 라송센트럴카운티2차 아파트,4611010200,전라남도,목포시,산정동,,전라남도 목포시 산정동 1837 목포 라송센트럴카운티2차 아파트,임대,개별난방,59768.1,5,400.0,(주)한토건설,라송산업주식회사,0612733700,,아파트,전라남도 목포시 청호로136번길 22,위탁관리,혼합식,20180109,0612733701,400,43789.582,0.0,400.0,0.0,0.0,32890.0559,20,20,2,11,58640,34.804529850237,126.379097876414
A10027718,목포라송센트럴카운티1차 아파트,4611010200,전라남도,목포시,산정동,,전라남도 목포시 산정동 1836 목포라송센트럴카운티1차 아파트,임대,개별난방,39686.68,3,265.0,한토건설(주),라송산업(주),0612736006,,아파트,,위탁관리,계단식,20160107,0612738002,265,20736.723,0.0,265.0,0.0,0.0,20736.7223,20,20,2,9,58635,34.8062249687402,126.384127198401
A53035001,근화그린,4611010200,전라남도,목포시,산정동,,전라남도 목포시 산정동 326-10 근화그린,분양,개별난방,16271.0,1,150.0,근화건설,근화건설,0612736669,,아파트,전라남도 목포시 산정로 268-3,자치관리(직영),계단식,19900615,0612736680,150,15613.5,0.0,150.0,0.0,0.0,12745.45,15,15,1,5,58613,34.8115728368021,126.386963514059
A53035004,근화2차아파트,4611010200,전라남도,목포시,산정동,,전라남도 목포시 산정동 322 근화2차아파트,분양,개별난방,20515.98,1,160.0,(주)근화건설,(주)근화건설,0612790281,,아파트,전라남도 목포시 산정로 268-1,자치관리,계단식,19911122,0619816225,160,20080.0,0.0,120.0,0.0,40.0,16096.8,20,20,2,4,58613,34.8113984065001,126.388017932507
A53035005,동백,4611010200,전라남도,목포시,산정동,,전라남도 목포시 산정동 1392 동백,분양,개별난방,18961.0,2,180.0,(유)만리주택,(유)만리주택,0612428990,,아파트,전라남도 목포시 삼학로183번길 14,위탁관리,계단식,19901226,0612438990,180,18446.28,0.0,180.0,0.0,0.0,14581.71,15,15,1,6,58745,34.7895999501427,126.404054471378
A53035006,근화황제,4611010200,전라남도,목포시,산정동,,전라남도 목포시 산정동 1398- 근화황제,분양,개별난방,23391.68,1,150.0,근화건설,근화건설,0612420091,,아파트,전라남도 목포시 남해로 73,위탁관리,계단식,19920904,0612438990,150,15375.0,0.0,150.0,0.0,0.0,12730.5,15,15,1,5,58737,34.7903520565791,126.403424840212
A53035007,삼학타운,4611010200,전라남도,목포시,산정동,,전라남도 목포시 산정동 1285 삼학타운,분양,개별난방,28304.81,2,270.0,LG U+,종원건설,0612798809,,아파트,전라남도 목포시 용당로 73,위탁관리,계단식,19940416,0612786644,270,26280.3,150.0,60.0,60.0,0.0,21940.8,15,15,0,9,58733,34.7940647690426,126.401303103559
A53035010,삼성아파트,4611010200,전라남도,목포시,산정동,,전라남도 목포시 산정동 1080-56 삼성아파트,분양,개별난방,19834.9,4,300.0,동도건설,동도건설,0612732398,,아파트,전라남도 목포시 동명로 77,위탁관리(직영+위탁),계단식,19870704,0612762398,300,19800.0,300.0,0.0,0.0,0.0,17627.4,5,5,0,0,58732,34.7946165089404,126.395067517439
A53035011,신안비치1-1,4611010200,전라남도,목포시,산정동,,전라남도 목포시 산정동 1202 신안비치1-1,분양,개별난방,35506.6,4,450.0,신안건설,신안건설,0612776810,,아파트,전라남도 목포시 청호로 209,위탁관리,혼합식,19910117,0612776814,330,35206.598,180.0,210.0,60.0,0.0,36161.1,15,15,0,10,58624,34.8079268496121,126.369631713795
A53035013,라인아파트,4611010200,전라남도,목포시,산정동,,전라남도 목포시 산정동 1751 라인아파트,분양,개별난방,29614.0,3,360.0,라인건설,라인건설,0612736901,,아파트,전라남도 목포시 원산주택로 25,위탁관리,계단식,19910116,0612736902,360,28561.99,288.0,72.0,0.0,0.0,23317.92,15,15,1,13,58638,34.8084432115648,126.374636725257
A53035014,신안비치1-2,4611010200,전라남도,목포시,산정동,,전라남도 목포시 산정동 1202 신안비치1-2,분양,개별난방,33838.0,3,480.0,신안건설,신안건설,0612773478,,아파트,전라남도 목포시 청호로 209,위탁관리,복도식,19910117,0612773479,420,33180.0,480.0,0.0,0.0,0.0,28468.8,15,15,0,5,58624,34.8079268496121,126.369631713795
A53035015,신안비치3차아파트,4611010200,전라남도,목포시,산정동,,전라남도 목포시 산정동 1259-3 신안비치3차아파트,분양,개별난방,41595.36,3,495.0,신안건설산업(주),신안건설산업(주),0612771781,,아파트,전라남도 목포시 고하대로 641-11,위탁관리,계단식,19950529,0612771780,495,29673.963,495.0,0.0,0.0,0.0,29669.42,15,15,1,16,58624,34.8061698143071,126.367591321725
A53035016,산정동현대산업아파트,4611010200,전라남도,목포시,산정동,,전라남도 목포시 산정동 1710 산정동현대산업아파트,분양,개별난방,51756.0,4,530.0,현대산업,현대산업,0612782325,,아파트,전라남도 목포시 죽산로40번길 24,위탁관리,계단식,19911220,0612722325,530,51753.9,0.0,530.0,0.0,0.0,42129.15,15,15,0,18,58637,34.8112348606014,126.378179053368
A53035017,목포중앙하이츠,4611010200,전라남도,목포시,산정동,,전라남도 목포시 산정동 994-4 목포중앙하이츠,분양,개별난방,89020.74,9,893.0,(주)중앙건설,(주)중앙건설,0612789871,,아파트,전라남도 목포시 양을로41번길 40,위탁관리,혼합식,19920821,0612789872,893,82324.45,330.0,508.0,55.0,0.0,66729.44,15,15,1,26,58640,34.8041160627841,126.380485790537
A53035018,신안비치팔레스1차아파트입주자대표회의,4611010200,전라남도,목포시,산정동,,전라남도 목포시 산정동 1152 신안비치팔레스1차아파트입주자대표회의,분양,개별난방,110193.98,14,802.0,신안건설산업(주),신안주택,0612738846,,아파트,전라남도 목포시 청호로 210,위탁관리,계단식,20030827,0612740136,802,84420.89,180.0,622.0,0.0,0.0,63512.945,15,15,1,27,58622,34.8094212005573,126.371483150413
A53035019,신안비치팔레스2차,4611010200,전라남도,목포시,산정동,,전라남도 목포시 산정동 1112-11 신안비치팔레스2차,분양,개별난방,21932.0,2,210.0,신안건설산업(주),신안건설산업(주),0612748696,,아파트,전라남도 목포시 청호로220번길 5,자치관리,계단식,20040913,0612740146,210,17033.28,210.0,0.0,0.0,0.0,12565.269,15,15,1,6,58622,34.809962599772,126.3701800327
A53035020,소암,4611010200,전라남도,목포시,산정동,,전라남도 목포시 산정동 1747 소암,분양,개별난방,11198.0,1,112.0,소암건설,소암건설,0612771747,,주상복합,전라남도 목포시 원산주택로 30,위탁관리,혼합식,19991215,0612771747,108,8885.953,88.0,24.0,0.0,0.0,7187.52,12,12,0,4,58638,34.8088249329202,126.375545844615
A53035301,종원나이스빌아파트,4611010200,전라남도,목포시,산정동,,전라남도 목포시 산정동 292 종원나이스빌아파트,분양,개별난방,61283.223,7,351.0,(주)종원,(주)종원주택,0612740117,,아파트,전라남도 목포시 양을로 121,위탁관리,계단식,20020910,0612740118,351,48870.0,0.0,150.0,115.0,86.0,38718.57,15,15,0,12,58634,34.8081358718215,126.384722801323
A53035302,산정동 일신아파트,4611010200,전라남도,목포시,산정동,,전라남도 목포시 산정동 187 산정동 일신아파트,분양,개별난방,42759.0,4,474.0,(주)일신주택,(주)일신주택,0612789782,,아파트,전라남도 목포시 양을로 91,자치관리,계단식,19931231,0612789782,474,41792.113,264.0,210.0,0.0,0.0,33602.73,15,15,0,16,58635,34.8051443346649,126.384047483101
A53035303,신안비치2차,4611010200,전라남도,목포시,산정동,,전라남도 목포시 산정동 1259 신안비치2차,분양,개별난방,61456.0,3,645.0,(주)신안건설산업,(주)신안건설산업,0612731268,,아파트,전라남도 목포시 고하대로 641-10,위탁관리,혼합식,19930426,0612778600,645,59769.9,375.0,270.0,0.0,0.0,45350.55,15,15,1,13,58624,34.8070446919507,126.368456404733
A53046001,한성타워,4611010200,전라남도,목포시,산정동,,전라남도 목포시 산정동 1769 한성타워,분양,개별난방,18009.0,4,178.0,한성건설,한성건설,0612798318,,아파트,전라남도 목포시 원산로59번길 14,위탁관리,계단식,19930515,0612768910,178,17828.299,70.0,72.0,36.0,0.0,14240.4,10,10,0,7,58639,34.8061899876316,126.374950342158
A53076601,대송에이스빌,4611010200,전라남도,목포시,산정동,,전라남도 목포시 산정동 1112-10 대송에이스빌,분양,개별난방,18743.4,1,119.0,(주) 대송종합건설,(주) 대송종합건설,0612788672,53076601,아파트,전라남도 목포시 고하대로 707,자치관리,계단식,20011031,0612788672,119,14463.104,29.0,30.0,60.0,0.0,11866.5674,15,15,1,4,58622,34.8101450309316,126.373198083256
A10024255,백련지구 골드클래스9차,4611010300,전라남도,목포시,연산동,,전라남도 목포시 연산동 2022 백련지구 골드클래스9차,분양,개별난방,53795.5,5,356.0,보광종합건설주식회사,"보광종합건설주식회사, LH공사",0612776668,,아파트,전라남도 목포시 연산백련로1번길 111,위탁관리,계단식,20210427,0612776669,356,35059.51,0.0,356.0,0.0,0.0,27168.74,15,15,2,2,58763,34.8205629408436,126.390061128113
A10025560,목포 용해2지구 모아엘가 에듀파크 아파트,4611010300,전라남도,목포시,연산동,,전라남도 목포시 연산동 1944 목포 용해2지구 모아엘가 에듀파크 아파트,분양,개별난방,30766.0,7,259.0,혜림건설,모아주택산업,0612776656,용해모아엘가에듀파크.apti.co.kr,아파트,전라남도 목포시 연산백련로1번길 69,위탁관리,계단식,20190404,0612776657,259,20747.0,259.0,0.0,0.0,0.0,15536.1521,9,9,1,14,58763,34.816608666361,126.388256475723
A10026011,목포연산골드클래스8차아파트,4611010300,전라남도,목포시,연산동,,전라남도 목포시 연산동 2044 목포연산골드클래스8차아파트,분양,개별난방,41294.19,5,315.0,골드종합건설(주),골드종합건설(주),0612779821,연산골드클래스8차.apti.co.kr,아파트,전라남도 목포시 산정로 308,위탁관리,계단식,20180921,0612779822,315,27719.531,0.0,315.0,0.0,0.0,20316.291,20,20,2,9,58613,34.8140241628543,126.384140647651
A10026628,백련지구 천년가,4611010300,전라남도,목포시,연산동,,전라남도 목포시 연산동 2023 백련지구 천년가,분양,개별난방,65512.0,9,433.0,새천년종합건설,새천년종합건설,0612720366,천년가.apt.co.kr,아파트,전라남도 목포시 연산백련로1번길 79,위탁관리,계단식,20170922,0612720399,433,49238.45,0.0,383.0,50.0,0.0,37627.6941,15,15,1,15,58763,34.8190565858497,126.388562894268
A10026684,포미타운LH6단지,4611010300,전라남도,목포시,연산동,,전라남도 목포시 연산동 1944-1 포미타운LH6단지,임대,개별난방,24039.0,4,450.0,송학건설,한국토지주택공사,0612788780,,아파트,전라남도 목포시 연산백련로1번길 51,위탁관리,복도식,20171108,0612788779,450,23991.055,450.0,0.0,0.0,0.0,11935.7,10,10,1,11,58763,34.8156114295034,126.388107881096
A10027804,골드클래스7차아파트,4611010300,전라남도,목포시,연산동,,전라남도 목포시 연산동 1925 골드클래스7차아파트,분양,개별난방,46785.19,6,319.0,수범건설(주),수범건설(주),0612731116,goldclass7.apti.co.kr,아파트,전라남도 목포시 연산백련로 22,위탁관리,계단식,20150723,0612721116,319,26263.797,0.0,319.0,0.0,0.0,26263.7963,15,15,1,0,58763,34.8183925115491,126.391273743576
A53037001,연산주공4단지,4611010300,전라남도,목포시,연산동,,전라남도 목포시 연산동 1260 연산주공4단지,분양,개별난방,27747.13,4,401.0,대한주택공사,대한주택공사,0612746501,,아파트,전라남도 목포시 원산중앙로 87,위탁관리,복도식,19960710,0612746502,401,27747.13,401.0,0.0,0.0,0.0,18573.7,15,15,0,5,58632,34.812649216337,126.380100827607
A53037002,연산주공5차,4611010300,전라남도,목포시,연산동,,전라남도 목포시 연산동 1261 연산주공5차,분양,개별난방,50221.508,7,420.0,대한주택공사(LH),송촌건설주식회사,0612796118,,아파트,전라남도 목포시 원산중앙로 109-1,자치관리,계단식,19980525,0612796178,423,50080.8,0.0,420.0,0.0,0.0,35657.1,15,15,1,14,58632,34.8137805177241,126.381883245166
A53037004,연산현대아파트,4611010300,전라남도,목포시,연산동,,전라남도 목포시 연산동 331 연산현대아파트,분양,개별난방,47355.0,6,474.0,현대건설,현대건설,0612735880,,아파트,전라남도 목포시 산정로 298,위탁관리,계단식,19911126,0612735881,474,47064.6,0.0,474.0,0.0,0.0,38897.61,15,15,0,17,58613,34.8132996656768,126.385129350669
A53037005,연산주공2단지,4611010300,전라남도,목포시,연산동,,전라남도 목포시 연산동 1262 연산주공2단지,분양,개별난방+기타,41002.68,5,538.0,공영토건(주),공영토건(주),0612725408,,아파트,전라남도 목포시 원산중앙로 108,위탁관리,복도식,19951110,0612725409,538,41002.68,538.0,0.0,0.0,0.0,29457.49,15,15,1,8,58633,34.8123409302141,126.383078612476
A53037006,연산주공3단지아파트,4611010300,전라남도,목포시,연산동,,전라남도 목포시 연산동 1260 연산주공3단지아파트,분양,개별난방,89395.02,15,1050.0,대한주택공사,대한주택공사,0612746884,www.yeonsandong-apt3.co.kr,아파트,전라남도 목포시 원산중앙로 87,위탁관리,계단식,19960710,0612746883,1050,80945.1,1050.0,0.0,0.0,0.0,62974.2,15,15,0,35,58632,34.812649216337,126.380100827607
A53037007,연산주공1단지,4611010300,전라남도,목포시,연산동,,전라남도 목포시 연산동 1262 연산주공1단지,임대,개별난방,27508.31,4,476.0,공영토건,한국토지주택공사,0612721372,kohom.or.kr,아파트,전라남도 목포시 원산중앙로 108,위탁관리,복도식,19951110,0612721392,476,26317.68,476.0,0.0,0.0,0.0,17930.92,15,15,0,6,58633,34.8123409302141,126.383078612476
A10027700,목포 대성 LH천년나무 아파트,4611010400,전라남도,목포시,대성동,,전라남도 목포시 대성동 222 목포 대성 LH천년나무 아파트,혼합,개별난방,161651.8,11,1391.0,대보건설,한국토지주택공사,0612740006,cafe.naver.com/dslh1000,아파트,전라남도 목포시 양을로41번길 42,위탁관리,혼합식,20151222,0612780006,1391,160947.3,540.0,851.0,0.0,0.0,98366.03,25,25,3,29,58640,34.8005745023265,126.381197997594
A53033001,유달파크,4611010500,전라남도,목포시,양동,,전라남도 목포시 양동 120 유달파크,분양,개별난방,15839.08,1,159.0,(주)대신주택,(주)대신주택,0612433865,,아파트,전라남도 목포시 만세로 19,위탁관리,복도식,19900615,0612438797,159,15074.384,0.0,158.0,0.0,1.0,12883.55,10,10,1,2,58721,34.7959377626576,126.381151892159
A53031001,남교트윈스타,4611010700,전라남도,목포시,남교동,,전라남도 목포시 남교동 111-9 남교트윈스타,분양,개별난방,52949.0,1,204.0,(주)서한,한국토지주택공사,0612426077,,주상복합,전라남도 목포시 수문로 32,위탁관리,계단식,20140822,0612426078,204,16034.91,51.0,153.0,0.0,0.0,16034.91,31,31,4,4,58724,34.79316775771,126.382906214503
A53008001,송광비치타운,4611014500,전라남도,목포시,해안동4가,,전라남도 목포시 해안동4가 1 송광비치타운,분양,개별난방,27308.16,4,290.0,송광건설(주),송광비치타운입주자대표회의,0612431812,송광비치타운.ma-um.co.kr,아파트,전라남도 목포시 유동로 7,위탁관리,계단식,19981230,0612435174,290,23542.2,227.0,63.0,0.0,0.0,18890.94,10,10,0,16,58756,34.7822053653301,126.379773333386
A10027707,신안실크밸리7차아파트,4611015700,전라남도,목포시,죽교동,,전라남도 목포시 죽교동 704 신안실크밸리7차아파트,분양,개별난방,112915.74,10,657.0,신안건설,신안건설,0612434321,신안실크밸리7차.apti.co.kr,주상복합,전라남도 목포시 청호로219번길 51,위탁관리,계단식,20160628,0612439876,657,75158.27,0.0,582.0,75.0,0.0,56396.873,20,20,2,19,58624,34.805262065378,126.366577228313
A10020634,평화광장 미래엔스위트,4611015800,전라남도,목포시,상동,,전라남도 목포시 상동 1129-1 평화광장 미래엔스위트,임대,개별난방,22633.22,1,193.0,(주)엘로이종합건설,(주)미래엔,0612822341,,도시형 생활주택(주상복합),전라남도 목포시 원형동로 41,위탁관리,복도식,20250417,0612822342,193,14546.226,192.0,0.0,0.0,1.0,9595.9104,20,20,1,3,,34.7998437920747,126.43361636041
A10021849,양우비치팰리스,4611015800,전라남도,목포시,상동,,전라남도 목포시 상동 1137-21 양우비치팰리스,분양,개별난방,36112.0,1,122.0,양우건설(주),(주)덕지건설,0612812782,,주상복합,전라남도 목포시 원형서로 46-1,자치관리,계단식,20070302,0612717715,122,24836.44,0.0,0.0,16.0,106.0,20391.761,18,18,3,0,,34.7967579449037,126.430274951907
A10022288,목포 하당 센트럴 팰리체,4611015800,전라남도,목포시,상동,,전라남도 목포시 상동 783-3 목포 하당 센트럴 팰리체,임대,개별난방,12477.0,1,134.0,승원건설,승원건설,0612839822,,아파트,전라남도 목포시 양을로 508,위탁관리,복도식,20191212,0612839823,134,10117.615,134.0,0.0,0.0,0.0,6617.8284,15,15,1,0,,34.8115106422372,126.421085424322
A10022309,주하우제 스카이,4611015800,전라남도,목포시,상동,,전라남도 목포시 상동 1022- 주하우제 스카이,분양,개별난방,169609.0,1,100.0,자이종합건설,자이종핪건설,0612857480,,주상복합,전라남도 목포시 하당남부로 18,위탁관리,복도식,20211112,0612857481,100,12152.605,0.0,100.0,0.0,0.0,8497.525,1,27,0,3,,34.7983401783094,126.42672577852
A10022515,평화광장 모아엘가비스타,4611015800,전라남도,목포시,상동,,전라남도 목포시 상동 1115-6 평화광장 모아엘가비스타,임대,개별난방,31077.0,1,154.0,혜림건설(주),현성기업(주),0612843336,,주상복합,전라남도 목포시 평화로 2,위탁관리,계단식,20240618,0612843337,154,17255.604,0.0,154.0,0.0,0.0,12543.4958,28,28,1,5,,34.7975350339314,126.427277606737
A10023622,하당지구 중흥S-클래스 센텀뷰,4611015800,전라남도,목포시,상동,,전라남도 목포시 상동 860 하당지구 중흥S-클래스 센텀뷰,분양,개별난방,139856.0,4,640.0,중흥토건(주),(주)다원개발,0612836888,,주상복합,전라남도 목포시 비파로 96,위탁관리,계단식,20220926,0612836889,640,78672.5,0.0,472.0,156.0,12.0,59810.6628,48,48,5,0,58662,34.8068925311834,126.424965758516
A10024439,목포 하당 프라임아너팰리스 주상복합,4611015800,전라남도,목포시,상동,,전라남도 목포시 상동 1002 목포 하당 프라임아너팰리스 주상복합,임대,개별난방,21437.97,3,171.0,미래종합건설,프라임디앤씨,0612837702,,주상복합,전라남도 목포시 부흥로 69,위탁관리,계단식,20200522,0612837703,172,14501.849,171.0,0.0,0.0,0.0,10247.9163,19,19,0,5,58689,34.8034941931537,126.428509400901
A10025143,에메랄드퀸주상복합아파트,4611015800,전라남도,목포시,상동,,전라남도 목포시 상동 1139-7 에메랄드퀸주상복합아파트,분양,개별난방,55526.0,2,298.0,(주)큰빛종합건설,(주)우리,0612850025,,주상복합,전라남도 목포시 평화로83번길 16,위탁관리,계단식,20191007,0612850048,298,33848.65,0.0,262.0,33.0,3.0,24156,42,42,3,7,58747,34.7979568561389,126.43370466424
A10027867,목포상동 광신프로그레스 아파트,4611015800,전라남도,목포시,상동,,전라남도 목포시 상동 1187 목포상동 광신프로그레스 아파트,임대,개별난방,81839.12,7,623.0,(주)광신종합건설,(주)광신주택,0612820049,상동광신프로그레스.apti.co.kr,아파트,전라남도 목포시 영산로565번길 18,위탁관리,계단식,20150807,0612850293,623,61433.414,0.0,623.0,0.0,0.0,46052.7803,20,20,1,0,58616,34.8152045900838,126.417070388717
A53039002,상동현대,4611015800,전라남도,목포시,상동,,전라남도 목포시 상동 764 상동현대,분양,개별난방,54340.8,8,510.0,현대산업개발(주),현대산업개발(주),0612785158,목포상동현대.apti.co.kr/apthome/default.asp,아파트,전라남도 목포시 상동로 33,위탁관리,계단식,19960309,0612775158,510,47691.0,217.0,293.0,0.0,0.0,37857.958,15,15,1,18,58641,34.8117224705454,126.414042292508
A53039003,주공4차,4611015800,전라남도,목포시,상동,,전라남도 목포시 상동 740 주공4차,분양,개별난방,40268.0,4,628.0,주택공사,롯데건설,0612742435,,아파트,전라남도 목포시 상동로 64,위탁관리,복도식,19930721,0612742436,628,35815.2,628.0,0.0,0.0,0.0,27144.08,15,15,0,7,58642,34.8150736253844,126.413975723504
A53039005,목포주공2차,4611015800,전라남도,목포시,상동,,전라남도 목포시 상동 766 목포주공2차,분양,개별난방,44834.0,4,810.0,LH주택공사,LH주택공사,0612721021,,아파트,전라남도 목포시 상동로 43,위탁관리,복도식,19920330,0612790266,810,43048.26,810.0,0.0,0.0,0.0,32999.4,15,15,0,9,58641,34.8128135107481,126.412899889901
A53039006,하당동아,4611015800,전라남도,목포시,상동,,전라남도 목포시 상동 883 하당동아,분양,개별난방,82846.39,8,840.0,동아건설산업(주),동아건설산업(주),0612814122,,아파트,전라남도 목포시 신흥로45번길 13,위탁관리,계단식,19950623,0612814127,840,80226.52,320.0,520.0,0.0,0.0,63364.4,15,15,1,29,58690,34.8040428411509,126.423838095999
A53039008,목포상동1,4611015800,전라남도,목포시,상동,,전라남도 목포시 상동 739 목포상동1,임대,개별난방,21186.66,8,480.0,롯데기공,대한주택공사,0612782479,www.kohom.or.kr,아파트,전라남도 목포시 상동로 63,위탁관리,복도식,19900919,0612749592,496,19243.2,480.0,0.0,0.0,0.0,12643.2,6,6,0,1,58641,34.8146591306612,126.412641430014
A53049001,비파1차,4611015800,전라남도,목포시,상동,,전라남도 목포시 상동 845 비파1차,분양,개별난방,30307.0,3,500.0,금호건설,목포시청,0612810940,http://bipa.apti.co.kr/,아파트,전라남도 목포시 백년대로337번길 35,위탁관리,복도식,19911024,0612810940,500,27100.0,500.0,0.0,0.0,0.0,20136,15,15,0,4,58661,34.8082463894907,126.42138256256
A53049002,비파2차,4611015800,전라남도,목포시,상동,,전라남도 목포시 상동 845-1 비파2차,분양,개별난방,35102.09,4,500.0,(주)중앙건설,목포시,0612810941,,아파트,전라남도 목포시 백년대로337번길 23,위탁관리,복도식,19920930,0612810941,500,32500.0,500.0,0.0,0.0,0.0,24170,15,15,1,4,58661,34.8074222947042,126.421962400918
A53049003,비파3차,4611015800,전라남도,목포시,상동,,전라남도 목포시 상동 846 비파3차,분양,개별난방,36025.58,3,510.0,0,0,0612830588,,아파트,전라남도 목포시 백년대로337번길 9,위탁관리,혼합식,19930920,0612840588,510,32425.8,510.0,0.0,0.0,0.0,25387.38,15,15,0,9,58664,34.8064049326499,126.422674170645
A53050001,꿈동산1차,4611015800,전라남도,목포시,상동,,전라남도 목포시 상동 1016 꿈동산1차,분양,개별난방,29768.0,5,310.0,신안건설,신안건설,0612824875,,아파트,전라남도 목포시 하당남부로 25,위탁관리,계단식,19951125,0612854875,310,28960.0,130.0,180.0,0.0,0.0,23077.8,15,15,1,11,58692,34.7992482124229,126.426718618434
A53050002,초원1차아파트,4611015800,전라남도,목포시,상동,,전라남도 목포시 상동 1014 초원1차아파트,분양,개별난방,29295.0,3,352.0,초원건설,초원건설,0612812154,,아파트,전라남도 목포시 부흥로 30,위탁관리,계단식,19941018,0612812154,352,29264.0,296.0,56.0,0.0,0.0,22503.84,15,15,1,12,58692,34.8005382621813,126.425660739755
A53050003,하당현대아파트,4611015800,전라남도,목포시,상동,,전라남도 목포시 상동 1014-1 하당현대아파트,분양,개별난방,69667.91,6,657.0,현대건설,현대건설,0612825714,,아파트,전라남도 목포시 통일대로37번길 33,위탁관리,계단식,19961026,0612825713,657,60072.0,267.0,390.0,0.0,0.0,49078.86,15,15,1,22,58692,34.8009911728544,126.426607765197
A53050004,꿈동산신안2차아파트,4611015800,전라남도,목포시,상동,,전라남도 목포시 상동 1019 꿈동산신안2차아파트,분양,개별난방,76318.55,10,680.0,신안(주),신안(주),0612826206,,아파트,전라남도 목포시 하당로 14,위탁관리,계단식,19961207,0612826206,680,69141.9,260.0,270.0,150.0,0.0,56178.3,15,15,0,23,58694,34.7985178912794,126.424787227657
A53050005,목포하당우성아파트,4611015800,전라남도,목포시,상동,,전라남도 목포시 상동 886 목포하당우성아파트,분양,개별난방,96245.234,13,940.0,우성건설,우성건설,0612820650,하당우성.intm.co.kr,아파트,전라남도 목포시 신흥로 13,위탁관리,계단식,19941220,0612840650,940,91795.016,360.0,520.0,60.0,0.0,73772.2,15,15,0,32,58690,34.8024484850093,126.421811678138
A53073001,광명샤인빌2차,4611015800,전라남도,목포시,상동,,전라남도 목포시 상동 713 광명샤인빌2차,분양,개별난방,33474.53,4,294.0,광명주택,광명주택,0612842642,,아파트,전라남도 목포시 옥암로 165,위탁관리,계단식,20041019,0612832642,294,33474.53,0.0,294.0,0.0,0.0,23564.3432,15,15,1,11,58658,34.8126768175552,126.421852262989
A53073002,상동호반리젠시빌,4611015800,전라남도,목포시,상동,,전라남도 목포시 상동 251-16 상동호반리젠시빌,분양,개별난방,94681.11,7,710.0,리젠시빌(주),리젠시빌(주),0612811822,,아파트,전라남도 목포시 영산로535번길 6,위탁관리,계단식,20020802,0612810622,710,79257.3,0.0,710.0,0.0,0.0,60267.782,15,15,0,24,58617,34.8147040758256,126.418470709497
A53075609,목포상동3,4611015800,전라남도,목포시,상동,,전라남도 목포시 상동 740 목포상동3,임대,개별난방,47024.72,6,1074.0,명지건설,LH,0612772435,www.kohom.or.kr,아파트,전라남도 목포시 상동로 64,위탁관리,복도식,19921023,0612776843,1075,43832.58,1074.0,0.0,0.0,0.0,29796.48,15,15,0,12,58642,34.8150736253844,126.413975723504
A53082601,우미파크빌,4611015800,전라남도,목포시,상동,,전라남도 목포시 상동 1120 우미파크빌,분양,개별난방,61149.54,5,417.0,(주)우미건설,(주)우미건설,0612846006,목포하당우미.co.kr,아파트,전라남도 목포시 평화로20번길 11,위탁관리,계단식,20010530,0612846002,417,53519.4,0.0,237.0,180.0,0.0,41086.5351,15,15,1,14,58749,34.7953410787884,126.428342206603
A53082704,하당삼성,4611015800,전라남도,목포시,상동,,전라남도 목포시 상동 1018 하당삼성,분양,개별난방,75836.0,10,680.0,삼성종합건설주식회사,삼성종합건설주식회사,0612833769,,아파트,전라남도 목포시 부흥로 12,위탁관리,계단식,19950928,0612843769,680,54017.7,260.0,330.0,90.0,0.0,53944.8,15,15,1,23,58694,34.7997889706228,126.423629036088
A10020860,청산푸른아파트,4611015900,전라남도,목포시,용해동,,전라남도 목포시 용해동 374- 청산푸른아파트,분양,개별난방,12397.671,1,136.0,서부건설(주),(주)청산건설,0612770742,,아파트,전라남도 목포시 온남길 25,위탁관리,복도식,19960904,0612770742,136,3540.0,116.0,20.0,0.0,0.0,8654.52,10,10,1,3,,34.8146314217382,126.402984406926
A10024062,목포용해포미타운5단지,4611015900,전라남도,목포시,용해동,,전라남도 목포시 용해동 824 목포용해포미타운5단지,임대,개별난방,23593.01,2,400.0,(주)케이알산업,한국토지주택공사,0612782490,,아파트,전라남도 목포시 양을로 249,위탁관리,복도식,20211115,0612782491,403,23468.576,400.0,0.0,0.0,0.0,11384,20,20,2,6,58613,34.8129876869678,126.396943505993
A10025032,용해동광신프로그레스아파트,4611015900,전라남도,목포시,용해동,,전라남도 목포시 용해동 1061 용해동광신프로그레스아파트,분양,개별난방,66277.82,6,411.0,주식회사 광신종합건설,주식회사 아람주택,0612776232,,아파트,전라남도 목포시 백년대로 147,위탁관리,계단식,20200203,0612776235,411,46380.87,0.0,335.0,76.0,0.0,37105.4454,19,19,2,11,58703,34.7994477106921,126.40667418523
A10025322,천년가맘스카운티,4611015900,전라남도,목포시,용해동,,전라남도 목포시 용해동 1040 천년가맘스카운티,분양,개별난방,36004.88,5,308.0,새천년종합건설(주),"새천년종합건설(주),한국토지주택공사",0612787775,천년가맘스카운티.apti.co.kr,아파트,전라남도 목포시 용해지구로88번길 7,위탁관리,계단식,20190809,0612787776,308,25703.578,308.0,0.0,0.0,0.0,18413.1,15,15,1,0,58611,34.820831826155,126.392728114875
A53038001,라이프1차,4611015900,전라남도,목포시,용해동,,전라남도 목포시 용해동 400-1 라이프1차,분양,개별난방,32578.0,4,300.0,라이프건설,라이프건설,0612792433,,아파트,전라남도 목포시 용당로 323,위탁관리,계단식,19901229,0612782433,300,31140.54,0.0,300.0,0.0,0.0,24088.8,15,15,0,10,58613,34.8155622922037,126.399522503555
A53038002,용해2차,4611015900,전라남도,목포시,용해동,,전라남도 목포시 용해동 713 용해2차,분양,개별난방,21529.0,9,390.0,대한주택공사,대한주택공사,0612728054,,아파트,전라남도 목포시 양을로 267,위탁관리,계단식,19831109,0612728030,390,21265.2,390.0,0.0,0.0,0.0,19714.62,5,5,0,0,58613,34.8138950289522,126.398600680796
A53038003,금호타운,4611015900,전라남도,목포시,용해동,,전라남도 목포시 용해동 143-7 금호타운,분양,개별난방,45853.0,3,426.0,금호건설,금호건설,0612730280,목포용해금호타운.apti.co.kr,아파트,전라남도 목포시 삼학로 331,위탁관리,계단식,19940316,0612720281,426,45465.195,0.0,372.0,54.0,0.0,37258.82,15,15,0,15,58703,34.8006883412162,126.407348167084
A53038004,라이프2차,4611015900,전라남도,목포시,용해동,,전라남도 목포시 용해동 255 라이프2차,분양,개별난방,47157.594,5,465.0,라이프주택(주),라이프주택(주),0612722776,,아파트,전라남도 목포시 삼학로 376-1,위탁관리,혼합식,19941210,0612771776,465,44525.645,181.0,284.0,0.0,0.0,34652.12,15,15,0,13,58668,34.8048305695044,126.410735557901
A53038006,용해동아아파트,4611015900,전라남도,목포시,용해동,,전라남도 목포시 용해동 152-80 용해동아아파트,분양,개별난방,90555.31,8,690.0,동아건설,동아건설,0612785360,,아파트,전라남도 목포시 삼학로 303-3,위탁관리,계단식,19920327,0612784727,690,85487.57,0.0,480.0,120.0,90.0,71774.4,15,15,1,23,58736,34.797680118631,126.407349698385
A53038009,신안인스빌,4611015900,전라남도,목포시,용해동,,전라남도 목포시 용해동 126 신안인스빌,분양,개별난방,185366.0,14,1472.0,주식회사 신안,용해1단지아파트재건축조합,0612785490,www.shinanensvil.com,아파트,전라남도 목포시 삼학로 363,자치관리,혼합식,20070927,0612785492,1472,148653.2,354.0,960.0,78.0,80.0,118264.2698,20,20,1,36,58702,34.8030037150873,126.407654298569
A53070901,용해 호반리젠시빌스위트,4611015900,전라남도,목포시,용해동,,전라남도 목포시 용해동 1025 용해 호반리젠시빌스위트,분양,개별난방,86818.0,11,732.0,리젠시빌/건설,리젠시빌/건설,0612777812,목포용해호반.apti.co.kr,아파트,전라남도 목포시 용당로331번길 88,위탁관리,계단식,20050107,0612777813,732,62220.0,0.0,732.0,0.0,0.0,62179.176,15,15,0,25,58613,34.8160941798781,126.394515459641
A53070902,목포포미타운LH4단지,4611015900,전라남도,목포시,용해동,,전라남도 목포시 용해동 1054 목포포미타운LH4단지,임대,개별난방,61394.93,9,790.0,태평양개발(주),한국토지주택공사,0612780061,fomi.apti.co.kr,아파트,전라남도 목포시 용해지구로88번길 24,위탁관리,복도식,20131115,0612780062,790,32674.38,790.0,0.0,0.0,0.0,32674.38,15,15,1,19,58611,34.819392380108,126.394208345964
A53070903,골드디움6차,4611015900,전라남도,목포시,용해동,,전라남도 목포시 용해동 1052 골드디움6차,임대,개별난방,51299.766,5,325.0,보광건설(주),세종건설(주),0612776161,,아파트,전라남도 목포시 용해지구로88번길 8,위탁관리,계단식,20140725,0612776162,325,27601.059,0.0,325.0,0.0,0.0,27601.0583,15,15,1,9,58611,34.819514426396,126.393502238494
A53070904,용해골드디움5차,4611015900,전라남도,목포시,용해동,,전라남도 목포시 용해동 1042 용해골드디움5차,혼합,개별난방,67658.46,9,493.0,보광건설,골드클래스,0612779669,,아파트,전라남도 목포시 용해지구로88번길 23,위탁관리,계단식,20140725,0612779696,493,48819.273,0.0,493.0,0.0,0.0,36419.5693,16,16,1,16,58611,34.8209606897384,126.395109548686
A53084005,포미타운 LH3단지,4611015900,전라남도,목포시,용해동,,전라남도 목포시 용해동 1032 포미타운 LH3단지,임대,개별난방,30525.49,4,475.0,남양건설주식회사,한국토지주택공사,0612745007,blog.daum.net/pomi-3,아파트,전라남도 목포시 관해로5번길 29,위탁관리,복도식,20050325,0612785007,475,30376.783,475.0,0.0,0.0,0.0,19624.13,15,15,0,8,58609,34.8189444938531,126.399758753757
A53084207,포미타운주공1단지,4611015900,전라남도,목포시,용해동,,전라남도 목포시 용해동 973 포미타운주공1단지,분양,개별난방,60569.953,9,734.0,보성건설(주),대한주택공사,0612775141,포미타운주공1단지.ma-um.co.kr,아파트,전라남도 목포시 포미로 23,위탁관리,계단식,20041126,0612775142,734,60283.89,734.0,0.0,0.0,0.0,40204.66,15,15,1,25,58610,34.8179030470243,126.396192650989
A53084211,목포포미2,4611015900,전라남도,목포시,용해동,,전라남도 목포시 용해동 975 목포포미2,임대,개별난방,76970.38,13,980.0,"새한건설,거림건설",LH공사,0612748116,www.kohom.or.kr,아파트,전라남도 목포시 포미로 22,위탁관리,계단식,20041005,0612748117,980,76620.08,980.0,0.0,0.0,0.0,52708.96,15,15,0,0,58610,34.8192858676353,126.397901215144
A10020885,수창해뜨레아파트,4611016000,전라남도,목포시,석현동,,전라남도 목포시 석현동 1177- 수창해뜨레아파트,분양,개별난방,10958.0,2,134.0,수창건설,수창건설,0612858362,,아파트,전라남도 목포시 석현로45번길 19,위탁관리,계단식,20121228,0612858363,134,10586.0,134.0,0.0,0.0,0.0,7974.139,1,15,0,0,,34.8186557510084,126.424758224254
A10021881,한광프라임빌,4611016000,전라남도,목포시,석현동,,전라남도 목포시 석현동 493-1 한광프라임빌,분양,개별난방,16629.0,2,138.0,한광건설,한광건설,0612842256,,아파트,전라남도 목포시 영산로692번길 8,위탁관리,계단식,20050225,0612842254,138,14377.308,27.0,111.0,0.0,0.0,10511.4909,15,15,1,5,,34.826754290056,126.422733765382
A10022311,에드가안채 도시형생활주택,4611016000,전라남도,목포시,석현동,,전라남도 목포시 석현동 1178- 에드가안채 도시형생활주택,분양,개별난방,5894.0,1,114.0,하늘건설,도안건설,0612853250,,아파트,전라남도 목포시 옥암로 177-1,위탁관리,복도식,20181102,0612853251,114,5893.788,114.0,0.0,0.0,0.0,3837.9014,12,12,0,0,,34.8138589223556,126.421457213153
A10022722,한양립스더포레아파트,4611016000,전라남도,목포시,석현동,,전라남도 목포시 석현동 1186 한양립스더포레아파트,분양,개별난방,92805.07,7,648.0,한양건설,석현도룡주택조합,0612842900,,아파트,전라남도 목포시 영산로 719-32,위탁관리,계단식,20240119,0612842901,648,64689.66,168.0,480.0,0.0,0.0,49751.7612,24,24,2,19,58607,34.8272191061726,126.416717270416
A10023201,하당풍경채어바니티,4611016000,전라남도,목포시,석현동,,전라남도 목포시 석현동 1185 하당풍경채어바니티,분양,개별난방,73345.31,5,404.0,제일건설(주),(주)제이아이주택,0612835399,,아파트,전라남도 목포시 석현로25번길 9,위탁관리,계단식,20230518,0612832399,404,53704.89,0.0,0.0,404.0,0.0,42804.5676,27,27,1,0,58655,34.8172281794129,126.422467845059
A10023942,석현5차한국아델리움더숲,4611016000,전라남도,목포시,석현동,,전라남도 목포시 석현동 1182 석현5차한국아델리움더숲,임대,개별난방,33389.85,5,212.0,한국건설,한국주택건설,0612858858,,아파트,,위탁관리,계단식,20220125,0612848858,212,18010.629,0.0,212.0,0.0,0.0,18010.6395,18,18,2,7,58615,34.8207847671534,126.418767474584
A10024557,목포석현 서희스타힐스아파트,4611016000,전라남도,목포시,석현동,,전라남도 목포시 석현동 1181 목포석현 서희스타힐스아파트,분양,개별난방,149164.44,12,1186.0,목포석현지역주택조합,서희건설,0612840855,,아파트,전라남도 목포시 영산로 719-29,위탁관리,계단식,20200929,0612840857,1186,114148.57,328.0,858.0,0.0,0.0,176929.962,22,22,1,32,58607,34.8256525468548,126.417934659401
A10024781,라송센트럴카운티5차아파트,4611016000,전라남도,목포시,석현동,,전라남도 목포시 석현동 1180 라송센트럴카운티5차아파트,임대,개별난방,108305.164,9,756.0,라송산업,한토건설,0612825520,,아파트,전라남도 목포시 영산로 648-24,위탁관리,계단식,20200630,0612825521,756,81202.54,0.0,756.0,0.0,0.0,62725.0002,25,25,1,19,58655,34.8208389561793,126.424325835374
A10025099,대송베스트빌아파트,4611016000,전라남도,목포시,석현동,,전라남도 목포시 석현동 1172-1 대송베스트빌아파트,분양,개별난방,10177828.0,1,120.0,대송산업,대송산업,0612816762,,아파트,전라남도 목포시 옥암로186번길 20-1,위탁관리,계단식,20021111,0612816769,120,9943440.0,120.0,0.0,0.0,0.0,7159.884,150,15,0,4,58656,34.8141228991383,126.424813775213
A10025491,라송센트럴카운티3차아파트,4611016000,전라남도,목포시,석현동,,전라남도 목포시 석현동 1179 라송센트럴카운티3차아파트,임대,개별난방,52601.99,4,361.0,한토건설,라송산업(주),0612822211,,아파트,전라남도 목포시 석현로45번길 22-10,위탁관리,계단식,20190516,0612822215,361,38288.055,0.0,361.0,0.0,0.0,29086.872,21,21,1,9,58655,34.8184258763287,126.426587434049
A53040001,석현현대아파트,4611016000,전라남도,목포시,석현동,,전라남도 목포시 석현동 532-2 석현현대아파트,분양,개별난방,25656.395,2,252.0,현대산업개발(주),현대산업개발(주),0612836022,,아파트,전라남도 목포시 영산로 676-7,위탁관리,계단식,19930522,0612836029,252,25396.2,0.0,252.0,0.0,0.0,20638.62,15,15,0,9,58606,34.8260232639658,126.424046874787
A53040002,대성사랑으로아파트,4611016000,전라남도,목포시,석현동,,전라남도 목포시 석현동 1074 대성사랑으로아파트,분양,개별난방,50972.504,4,365.0,대성에이스건설(주),대성건설(주),0612851074,,아파트,전라남도 목포시 영산로 610,위탁관리,계단식,20030523,0612851073,365,42703.54,0.0,365.0,0.0,0.0,30949.81,15,15,1,14,58655,34.8193722098294,126.42286123257
A53074203,KD빌리앙뜨,4611016000,전라남도,목포시,석현동,,전라남도 목포시 석현동 1173 KD빌리앙뜨,분양,개별난방,63991.23,5,386.0,KD건설,KD건설,0612870212,,아파트,전라남도 목포시 옥암로 174,위탁관리,계단식,20070705,0612870213,386,51075.32,0.0,266.0,60.0,60.0,37894.797,15,15,1,13,58656,34.8142631502064,126.423250976654
A53077801,광명샤인빌1차,4611016000,전라남도,목포시,석현동,,전라남도 목포시 석현동 1171-1 광명샤인빌1차,분양,개별난방,50292.977,3,360.0,(합)광명주택,(합)광명주택,0612849745,,아파트,전라남도 목포시 석현로 42,위탁관리,계단식,20021011,0612879746,360,42843.6,0.0,360.0,0.0,0.0,30572.676,15,15,0,12,58656,34.8160781063269,126.425059877099
A53077804,근화네오빌2차,4611016000,전라남도,목포시,석현동,,전라남도 목포시 석현동 815-17 근화네오빌2차,분양,개별난방,59264.453,5,496.0,근화종합건설,근화종합건설,0612852010,,아파트,전라남도 목포시 텃골로 19,자치관리,계단식,20040325,0612852011,496,49537.48,201.0,295.0,0.0,0.0,35586.8768,15,15,0,17,58615,34.8222817571189,126.419626702209
A53077805,근화네오빌1차,4611016000,전라남도,목포시,석현동,,전라남도 목포시 석현동 816-15 근화네오빌1차,분양,개별난방,34167.33,5,258.0,근화건설(주),(주)근화건설,0612825542,,아파트,전라남도 목포시 텃골로13번길 40,위탁관리,계단식,20021122,0612821024,258,33992.754,0.0,258.0,0.0,0.0,21517.1524,13,13,1,11,58616,34.8189773031025,126.419147312596
A53077806,우진아트빌,4611016000,전라남도,목포시,석현동,,전라남도 목포시 석현동 816-17 우진아트빌,분양,개별난방,67303.0,8,196.0,우진산업,우진산업,0612850989,우진아트빌.apti.co.kr,아파트,전라남도 목포시 영산로609번길 5,위탁관리,계단식,20030926,0612850989,526,57600.4,168.0,28.0,0.0,0.0,40355.544,14,14,1,19,58616,34.8189798609124,126.420401961785
A53083004,근화블루빌,4611016000,전라남도,목포시,석현동,,전라남도 목포시 석현동 816-12 근화블루빌,분양,개별난방,54532.293,6,447.0,(유)근화종합건설,근화시티개발,0612838795,kunhwabluevill.co.kr,아파트,전라남도 목포시 텃골로13번길 26,위탁관리,계단식,20060227,0612838796,447,45495.0,137.0,310.0,0.0,0.0,33224.7428,15,15,0,17,58615,34.8210255784608,126.419703062967
A53083005,금호어울림,4611016000,전라남도,목포시,석현동,,전라남도 목포시 석현동 816-27 금호어울림,분양,개별난방,82030.5,7,476.0,금호건설(주),(주)하이-홈,0612853991,,아파트,전라남도 목포시 텃골로33번길 53,위탁관리,계단식,20071127,0612853992,476,42667.2,0.0,416.0,60.0,0.0,42667.3614,15,15,2,18,58616,34.8178772049108,126.418441417071
A10024031,신항만 뉴캐슬오션시티2차 아파트,4611016100,전라남도,목포시,달동,,전라남도 목포시 달동 1331-8 신항만 뉴캐슬오션시티2차 아파트,분양,개별난방,46054.51,6,348.0,(주)미래종합건설,(주)세종종합건설,0614614200,,아파트,전라남도 목포시 허사로57번길 15,위탁관리,계단식,20211201,0614614100,348,34232.54,0.0,348.0,0.0,0.0,26130.402,15,15,1,12,58762,34.7564498360342,126.36109438229
A10020792,대양동영신그린빌,4611016300,전라남도,목포시,대양동,,전라남도 목포시 대양동 555-1 대양동영신그린빌,분양,개별난방,10673.327,2,128.0,(유)영신토건,(주)영신종합건설,0612828224,,아파트,전라남도 목포시 영산로 761-2,위탁관리,복도식,20000729,,128,9497.515,128.0,0.0,0.0,0.0,7147.7082,15,15,1,0,,34.8322407826468,126.417323231204
A53028001,근화희망타운3차,4611016300,전라남도,목포시,대양동,,전라남도 목포시 대양동 75-18 근화희망타운3차,혼합,개별난방,32157.44,4,464.0,(유)근화시티개발,(유)근화시티개발,0612835272,없음,아파트,전라남도 목포시 산양로 50,위탁관리,복도식,20000712,0612831115,464,30766.19,464.0,0.0,0.0,0.0,21834.51,15,15,1,7,58604,34.8362004536067,126.429021738975
A53074101,아이엠로즈빌아파트,4611016300,전라남도,목포시,대양동,,전라남도 목포시 대양동 527 아이엠로즈빌아파트,분양,개별난방,31274.28,5,295.0,(주)아이엠종합건설,(주)아이엠종합건설,0612854562,,아파트,전라남도 목포시 영산로 769-6,위탁관리,계단식,20050309,0612854563,295,30120.275,265.0,30.0,0.0,0.0,18399.221,15,15,0,11,58603,34.8337893992324,126.417705000792
A53074103,근화희망타운2차,4611016300,전라남도,목포시,대양동,,전라남도 목포시 대양동 75-12 근화희망타운2차,분양,개별난방,13642.6,2,200.0,근화건설,근화건설,0612834915,,아파트,전라남도 목포시 산양로 40,위탁관리,복도식,20000502,0612814916,200,13504.0,200.0,0.0,0.0,0.0,9963,15,15,0,2,58604,34.8362877790522,126.428422587049
A53074104,근화희망타운1차,4611016300,전라남도,목포시,대양동,,전라남도 목포시 대양동 75-1 근화희망타운1차,혼합,개별난방,23483.0,3,294.0,근화건설,근화건설,0612851771,,아파트,전라남도 목포시 산양로 40,위탁관리,복도식,19960628,0612851887,294,23467.08,294.0,0.0,0.0,0.0,17575.14,15,15,1,3,58604,34.8366405559714,126.428052271877
A10024660,옥암3차 한국아델리움센트럴,4611016400,전라남도,목포시,옥암동,,전라남도 목포시 옥암동 1399 옥암3차 한국아델리움센트럴,분양,개별난방,369920.62,5,314.0,한국건설,와이디개발,0612837979,,아파트,전라남도 목포시 삼향천로 159,위탁관리,계단식,20200629,0612839933,318,21987.334,188.0,126.0,0.0,0.0,21987.3337,20,20,1,9,58657,34.8137648439386,126.426776783529
A10024964,옥암2차 한국아델리움,4611016400,전라남도,목포시,옥암동,,전라남도 목포시 옥암동 1398 옥암2차 한국아델리움,분양,개별난방,30662.32,2,217.0,한국건설,옥암동지역주택조합,0612858788,,아파트,전라남도 목포시 옥암로 150,위탁관리,계단식,20191122,0612858789,217,22504.37,70.0,144.0,0.0,3.0,16831.65,20,20,1,6,58657,34.8121920748331,126.424482157609
A10027372,영신그린빌1차아파트,4611016400,전라남도,목포시,옥암동,,전라남도 목포시 옥암동 994 영신그린빌1차아파트,분양,개별난방,13945.0,2,130.0,영신종합건설,영신토건,0612843055,,아파트,전라남도 목포시 신흥로83번길 4,위탁관리,계단식,20010314,0612843055,130,12079.31,48.0,82.0,0.0,0.0,9768.3876,15,15,0,5,58684,34.8055260390803,126.42931773351
A53042002,초원2차,4611016400,전라남도,목포시,옥암동,,전라남도 목포시 옥암동 994-1 초원2차,분양,개별난방,18524.58,2,196.0,(유)초원건설,(유)초원건설,0612835879,,아파트,전라남도 목포시 신흥로 93,위탁관리,계단식,19960913,0612835879,196,17740.8,112.0,84.0,0.0,0.0,13833.12,14,14,1,7,58684,34.8058871657746,126.430073674268
A53042003,하당금호1차,4611016400,전라남도,목포시,옥암동,,전라남도 목포시 옥암동 961 하당금호1차,분양,개별난방,21540.6,3,252.0,(주)금호건설,(주)금호건설,0612823800,,아파트,전라남도 목포시 백년대로375번길 32,위탁관리,계단식,19950511,0612823828,252,21540.06,162.0,90.0,0.0,0.0,17296.2,15,15,1,9,58663,34.8102010779094,126.42654539768
A53042004,하당 금호2차,4611016400,전라남도,목포시,옥암동,,전라남도 목포시 옥암동 965 하당 금호2차,분양,개별난방,41933.0,5,438.0,(주)금호건설,(주)금호건설,0612819045,,아파트,전라남도 목포시 백년대로375번길 20,위탁관리,계단식,19961119,0612819042,438,41933.37,150.0,288.0,0.0,0.0,33409.62,15,15,0,17,58663,34.8090527619928,126.427381755748
A53042005,우미1차,4611016400,전라남도,목포시,옥암동,,전라남도 목포시 옥암동 962 우미1차,분양,개별난방,21920.27,2,288.0,(주)우미산업개발,(주)우미산업개발,0612812070,,아파트,전라남도 목포시 삼향천로 131,자치관리,복도식,19931123,0612812071,288,21457.992,288.0,0.0,0.0,0.0,15561.36,14,14,1,4,58663,34.8110273338545,126.428258050194
A53042007,옥암코아루,4611016400,전라남도,목포시,옥암동,,전라남도 목포시 옥암동 1149 옥암코아루,분양,개별난방,44025.0,8,310.0,(주)한국토지신탁,(주)한국토지신탁,0612872442,,아파트,전라남도 목포시 당가두로13번길 12,위탁관리,계단식,20070302,0612870115,311,35321.285,0.0,310.0,0.0,0.0,26323.2252,15,15,1,8,58673,34.8089484306148,126.437909964399
A53042013,옥암 푸르지오,4611016400,전라남도,목포시,옥암동,,전라남도 목포시 옥암동 1174 옥암 푸르지오,분양,개별난방,67745.0,12,550.0,대우건설,(주)피데스개발,0612870557,,아파트,전라남도 목포시 남악1로 51,위탁관리,계단식,20070322,0612870558,550,59330.0,0.0,550.0,0.0,0.0,46316.3665,20,20,0,16,58675,34.8094733408929,126.444432463941
A53042014,한국아델리움,4611016400,전라남도,목포시,옥암동,,전라남도 목포시 옥암동 1178 한국아델리움,분양,개별난방,126723.0,10,576.0,한국종합건설(주),한국종합건설(주),0612870661,,아파트,전라남도 목포시 남악1로 15,위탁관리,계단식,20080923,0612870663,576,69634.22,0.0,0.0,424.0,152.0,69634.5296,18,18,2,18,58675,34.806517697351,126.445883929611
A53042015,옥암주공,4611016400,전라남도,목포시,옥암동,,전라남도 목포시 옥암동 1150 옥암주공,임대,개별난방,56031.375,9,708.0,혜림건설,LH,0612871151,목포옥암주공1단지apti.co.kr,아파트,전라남도 목포시 당가두로38번길 11,위탁관리,복도식,20070824,0612871152,708,55516.695,708.0,0.0,0.0,0.0,31988.94,15,15,1,18,58674,34.810024973229,126.440728113025
A53042025,목포옥암2,4611016400,전라남도,목포시,옥암동,,전라남도 목포시 옥암동 1244 목포옥암2,임대,개별난방,95637.11,14,1294.0,송촌건설(주),한국토지주택공사,0612844996,www.kohom.co.kr,아파트,전라남도 목포시 남악1로52번길 35-8,위탁관리,복도식,20081202,0612844998,1294,94907.69,1294.0,0.0,0.0,0.0,50256.59,20,20,1,0,58677,34.8125700541352,126.450179934698
A53073516,우미블루빌,4611016400,전라남도,목포시,옥암동,,전라남도 목포시 옥암동 1096 우미블루빌,분양,개별난방,57058.0,6,620.0,우미건설(주),우미건설(주),0612845022,,아파트,전라남도 목포시 평화로153번길 9,위탁관리(직영+위탁),계단식,20010119,0612845022,620,56853.76,442.0,178.0,0.0,0.0,41307.2476,15,15,0,0,58746,34.8002935864743,126.435750295439
A53073518,목포부영2차,4611016400,전라남도,목포시,옥암동,,전라남도 목포시 옥암동 1028 목포부영2차,임대,개별난방,86074.0,6,1280.0,부영주택,-,0612830815,,아파트,전라남도 목포시 부흥로 88,위탁관리,복도식,19941228,0612830895,1280,86073.6,1280.0,0.0,0.0,0.0,63641.6,15,15,0,18,58687,34.8032870180094,126.43152369233
A53073519,옥암 애시앙 1차 아파트,4611016400,전라남도,목포시,옥암동,,전라남도 목포시 옥암동 1148 옥암 애시앙 1차 아파트,분양,개별난방,43716.58,4,292.0,(주)부영,동광주택산업(주),0612870815,,아파트,전라남도 목포시 당가두로13번길 35,위탁관리,계단식,20070302,0612870816,292,33785.13,0.0,292.0,0.0,0.0,24793.8952,15,15,1,11,58673,34.8100296105202,126.437880655831
A53073520,부영애시앙2차,4611016400,전라남도,목포시,옥암동,,전라남도 목포시 옥암동 1144 부영애시앙2차,분양,개별난방,97784.49,10,678.0,동광주택관리(주),(주)부영,0612852459,애시앙2차.apt.co.kr,아파트,전라남도 목포시 당가두로13번길 9,위탁관리,계단식,20070427,0612852458,678,57542.797,0.0,678.0,0.0,0.0,57542.7954,18,18,1,21,58673,34.8092853737449,126.435748247146
A53073521,하당제일1차,4611016400,전라남도,목포시,옥암동,,전라남도 목포시 옥암동 1103 하당제일1차,분양,개별난방,64511.3,4,478.0,제일종합건설,제일종합건설,0612845010,,아파트,전라남도 목포시 미항로 206,위탁관리,계단식,20010720,0612875023,478,40630.0,0.0,478.0,0.0,0.0,40597.3072,15,15,1,16,58746,34.7999925428444,126.439990184482
A53073522,목포부영3차아파트,4611016400,전라남도,목포시,옥암동,,전라남도 목포시 옥암동 1027 목포부영3차아파트,임대,개별난방,93386.9,6,1300.0,동광주택,동광종합주택,0612812187,,아파트,전라남도 목포시 통일대로75번길 14,위탁관리(직영+위탁),복도식,19951031,0612842186,1300,86876.02,1300.0,0.0,0.0,0.0,65355.6,15,15,0,20,58687,34.8020783917715,126.43254030608
A53073523,옥암골드클래스,4611016400,전라남도,목포시,옥암동,,전라남도 목포시 옥암동 1338 옥암골드클래스,분양,개별난방,71902.2,6,462.0,보광건설(주),골드클래스(주),0612877701,,아파트,전라남도 목포시 남악1로16번길 10,위탁관리,계단식,20090514,0612851166,462,52321.984,0.0,462.0,0.0,0.0,39168.5034,18,18,1,15,58680,34.806279333695,126.448853801149
A53073524,한라비발디,4611016400,전라남도,목포시,옥암동,,전라남도 목포시 옥암동 1321 한라비발디,분양,개별난방,107733.97,9,576.0,한라건설,(주)피데스개발,0612875595,목포한라비발디.apti.co.kr,아파트,전라남도 목포시 남악2로22번길 10,위탁관리,계단식,20080724,0612875596,576,85379.4,0.0,0.0,546.0,30.0,68133.3,18,18,1,16,58681,34.8065423320427,126.454770263211
A53073525,모아엘가아파트,4611016400,전라남도,목포시,옥암동,,전라남도 목포시 옥암동 1329 모아엘가아파트,분양,개별난방,83635.9,8,518.0,혜림건설(주),(주)모아주택산업,0612856231,,아파트,전라남도 목포시 남악2로22번길 58,위탁관리,계단식,20100202,0612856232,518,58318.38,0.0,518.0,0.0,0.0,43996.1524,20,20,1,0,58681,34.8072396135212,126.458658104171
A53073526,목포부영5차아파트,4611016400,전라남도,목포시,옥암동,,전라남도 목포시 옥암동 1026 목포부영5차아파트,임대,개별난방,41955.76,3,480.0,광영토건,동광주택,0612812188,,아파트,전라남도 목포시 하당남부로 97,위탁관리,복도식,19951010,0612829737,480,39576.48,480.0,0.0,0.0,0.0,28800,15,15,0,10,58687,34.8026184050746,126.434318627228
A53073527,옥암펠리시아,4611016400,전라남도,목포시,옥암동,,전라남도 목포시 옥암동 1058-13 옥암펠리시아,분양,개별난방,23846.0,2,174.0,영신종합건설,영신종합건설,0612879080,,아파트,전라남도 목포시 하당로289번길 7,위탁관리,계단식,20121024,0612879081,174,19423.62,0.0,174.0,0.0,0.0,14788.26,15,15,1,6,58657,34.8122274974959,126.426409825791
A53073528,옥암3차골드디움,4611016400,전라남도,목포시,옥암동,,전라남도 목포시 옥암동 1272 옥암3차골드디움,혼합,개별난방,34812.695,9,214.0,골드디움(주) 보광건설,골드디움(주),0612818562,,아파트,전라남도 목포시 남악1로52번길 82,위탁관리,계단식,20130514,0612818561,214,23607.838,0.0,214.0,0.0,0.0,18163.0788,8,8,0,0,58676,34.8107711031882,126.454036394359
A53073529,에메랄드골드도시형생활주택,4611016400,전라남도,목포시,옥암동,,전라남도 목포시 옥암동 1098-4 에메랄드골드도시형생활주택,분양,개별난방,9990.0,1,171.0,큰빛 종합건설(주),(주)에메랄드 하우징,0612816376,,아파트,전라남도 목포시 평화로 116,위탁관리,복도식,20130524,0612816376,171,9790.866,171.0,0.0,0.0,0.0,6455.277,10,10,1,3,58746,34.798092634226,126.436994073485
A53073530,우미파렌하이트,4611016400,전라남도,목포시,옥암동,,전라남도 목포시 옥암동 1315 우미파렌하이트,분양,개별난방,95541.91,8,548.0,우미토건외1,아시아신탁(주),0612874255,우미파렌하이트.apti.co.kr,아파트,전라남도 목포시 남악2로22번길 15,위탁관리,계단식,20131016,0612874256,548,58219.62,0.0,96.0,446.0,6.0,58219.6202,18,18,2,17,58678,34.808482230473,126.455354087174
A53073531,코아루천년가,4611016400,전라남도,목포시,옥암동,,전라남도 목포시 옥암동 1312 코아루천년가,분양,개별난방,44441.93,9,316.0,새천년종합건설,한국토지신탁,0612841934,옥암코아루천년가.apti.co.kr,아파트,전라남도 목포시 남악1로16번길 43-14,위탁관리,계단식,20131227,0612851934,316,26849.977,0.0,316.0,0.0,0.0,26850.268,8,8,1,18,58679,34.8087359635948,126.452880218911
A53073532,우방아이유쉘,4611016400,전라남도,목포시,옥암동,,전라남도 목포시 옥암동 1397 우방아이유쉘,분양,개별난방,24324.0,4,168.0,SM우방(주),대한토지신탁(주),0612822620,,아파트,전라남도 목포시 하당로289번길 19,위탁관리,계단식,20140212,0612822621,168,17978.271,0.0,168.0,0.0,0.0,13671.5742,15,15,1,0,58657,34.8127769515973,126.425714084583
A53073533,옥암베아채,4611016400,전라남도,목포시,옥암동,,전라남도 목포시 옥암동 1246 옥암베아채,분양,개별난방,123952.0,13,831.0,근화건설(주),우남건설(주),0612856961,,아파트,전라남도 목포시 남악1로52번길 83,위탁관리,계단식,20140725,0612856964,831,70553.19,0.0,831.0,0.0,0.0,70553.1855,20,20,1,0,58677,34.8129212382157,126.453481428842
A53076101,목포부영1차,4611016400,전라남도,목포시,옥암동,,전라남도 목포시 옥암동 1023 목포부영1차,임대,개별난방,49333.54,6,560.0,부영주택,부영건설,0612812186,,아파트,전라남도 목포시 삼향천로 35,위탁관리,복도식,19950510,0612812746,560,46280.977,560.0,0.0,0.0,0.0,33600,15,15,0,11,58687,34.8042376793222,126.433234636447
A53083101,제일6단지풍경채,4611016400,전라남도,목포시,옥암동,,전라남도 목포시 옥암동 915-26 제일6단지풍경채,분양,개별난방,21721.53,3,194.0,(주)제일종합건설,(주)제일종합건설,0612854726,,아파트,전라남도 목포시 옥암로 156,위탁관리,계단식,20031110,0612854726,194,19028.0,136.0,58.0,0.0,0.0,12845.3928,10,10,0,10,58657,34.8127717757903,126.424046857017
A53083106,제일5차풍경채,4611016400,전라남도,목포시,옥암동,,전라남도 목포시 옥암동 915 제일5차풍경채,분양,개별난방,34237.027,4,299.0,제일건설(주),제일건설(주),0612854724,,아파트,전라남도 목포시 하당로289번길 25,위탁관리,계단식,20030503,0612824724,299,29477.688,164.0,135.0,0.0,0.0,20739.042,15,15,0,11,58657,34.8132267760578,126.425204606626
A53083108,우미2차,4611016400,전라남도,목포시,옥암동,,전라남도 목포시 옥암동 964 우미2차,분양,개별난방,25392.3,3,330.0,우미건설,우미건설,0612811808,,아파트,전라남도 목포시 삼향천로 115,위탁관리,혼합식,19940927,0612811808,330,24678.06,330.0,0.0,0.0,0.0,18534.6,15,15,0,9,58663,34.8094520556868,126.429295259308
A53083109,하당현대2차,4611016400,전라남도,목포시,옥암동,,전라남도 목포시 옥암동 992 하당현대2차,분양,개별난방,42290.0,5,351.0,현대산업개발,현대산업개발,0612815635,,아파트,전라남도 목포시 삼향천로91번길 21,자치관리,계단식,20020628,0612825635,351,38455.72,89.0,210.0,52.0,0.0,29422.6788,15,15,0,12,58684,34.8067545185526,126.429368170066
A53083110,제일3차,4611016400,전라남도,목포시,옥암동,,전라남도 목포시 옥암동 916-3 제일3차,분양,개별난방,44232.527,3,354.0,(주)제일종합건설,(주)제일종합건설,0612820147,,아파트,전라남도 목포시 하당로289번길 6,위탁관리,계단식,20020923,0612820149,354,38029.758,130.0,224.0,0.0,0.0,26656.384,15,15,0,13,58657,34.8128411929059,126.427314672329
A53083111,제일2차하이빌,4611016400,전라남도,목포시,옥암동,,전라남도 목포시 옥암동 984 제일2차하이빌,분양,개별난방,58703.29,6,420.0,(주)제일건설,(주)제일종합건설,0612842766,,아파트,전라남도 목포시 신흥로 113,위탁관리,계단식,20020228,0612842767,420,48955.2,0.0,420.0,0.0,0.0,35683.074,15,15,0,0,58684,34.8067512681947,126.43144690258
A53083112,우미오션빌,4611016400,전라남도,목포시,옥암동,,전라남도 목포시 옥암동 1097 우미오션빌,분양,개별난방,61450.047,5,447.0,우미건설(주),우미건설(주),0612816084,womi.apti.co.kr/aptHome/subpage/Default.asp?cate_code=AABC,아파트,전라남도 목포시 평화로107번길 16,위탁관리,계단식,20020226,0612815084,447,52046.273,0.0,267.0,180.0,0.0,42835.6755,15,15,1,15,58746,34.7991556012027,126.436515434475
