kaptCode,kaptName,bjdCode,as1,as2,as3,as4,kaptAddr,codeSaleNm,codeHeatNm,kaptTarea,kaptDongCnt,kaptdaCnt,kaptBcompany,kaptAcompany,kaptTel,kaptUrl,codeAptNm,doroJuso,codeMgrNm,codeHallNm,kaptUsedate,kaptFax,hoCnt,kaptMarea,kaptMparea60,kaptMparea85,kaptMparea135,kaptMparea136,privArea,kaptTopFloor,ktownFlrNo,kaptBaseFloor,kaptdEcntp,zipcode,위도,경도
A10026253,아트에비뉴198,4311110300,충청북도,청주상당구,북문로2가,,충청북도 청주상당구 북문로2가 78-10 아트에비뉴198,분양,개별난방,9719.435,1,198.0,동서건설,한국자산신탁,0432250716,,주상복합,충청북도 청주시 상당구 중앙로 9-1,위탁관리,혼합식,20160129,0432250717,213,8132.711,198.0,0.0,0.0,0.0,4442.876,15,15,2,2,28545,36.6380166668865,127.488530436882
A10024536,청주행정타운 코아루휴티스,4311110400,충청북도,청주상당구,북문로3가,,충청북도 청주상당구 북문로3가 21-1 청주행정타운 코아루휴티스,분양,개별난방,98135.59,3,530.0,(주)금강건설,한국토지신탁,0432259257,koaroohutis.aptner.com/v2,주상복합,충청북도 청주시 상당구 중앙로 80,위탁관리,계단식,20201201,0432259258,530,61010.695,0.0,530.0,0.0,0.0,44965.0526,49,49,5,6,28542,36.6440725374095,127.489205295743
A36071401,청주북문로한신휴플러스,4311110400,충청북도,청주상당구,북문로3가,,충청북도 청주상당구 북문로3가 49-1 청주북문로한신휴플러스,분양,개별난방,42605.33,4,286.0,한신공영(주),대한토지신탁(주),0432229370,,아파트,충청북도 청주시 상당구 중앙로 83,위탁관리,계단식,20130622,0432229371,286,42604.22,0.0,276.0,6.0,4.0,24051.3036,25,25,2,8,28541,36.6444766221348,127.487530026548
A10021707,트레비앙,4311110500,충청북도,청주상당구,남문로1가,,충청북도 청주상당구 남문로1가 53- 트레비앙,분양,,0.0,1,127.0,금강건설,무궁화신탁,0432250485,,도시형 생활주택(아파트),충청북도 청주시 상당구 상당로29번길 20,자치관리,복도식,20160216,0432250486,127,5845.263,127.0,0.0,0.0,0.0,3834.92,12,12,1,1,,36.6311113074706,127.489981800761
A10025801,센트럴칸타빌아파트,4311110700,충청북도,청주상당구,문화동,,충청북도 청주상당구 문화동 118 센트럴칸타빌아파트,분양,개별난방,119188.555,4,630.0,대원,자영/문화칸타빌PFV,0432251811,센트럴칸타빌.apti.co.kr/,주상복합,충청북도 청주시 상당구 용담로 7,위탁관리,계단식,20181227,0432251817,630,74677.82,0.0,508.0,120.0,2.0,55440.266,33,33,3,12,28516,36.6329194242652,127.491752889716
A10021045,탑동삼일맨션,4311111700,충청북도,청주상당구,탑동,,충청북도 청주상당구 탑동 83- 탑동삼일맨션,분양,개별난방,17801.07,1,170.0,삼일주택,삼일주택,0432572863,,아파트,충청북도 청주시 상당구 산성로49번길 18,자치관리,계단식,19880923,null3397031,170,17460.0,0.0,140.0,30.0,0.0,15519.3,1,5,0,0,,36.6293042288083,127.499540602633
A10021283,탑동석탑아파트,4311111700,충청북도,청주상당구,탑동,,충청북도 청주상당구 탑동 297-75 탑동석탑아파트,분양,개별난방,8190.0,1,130.0,자료 없음,자료없음,0432234600,,아파트,충청북도 청주시 상당구 탑동로1번길 70,자치관리,계단식,19840119,,130,8190.0,130.0,0.0,0.0,0.0,7564.05,1,5,0,0,,36.6315073264557,127.49569582565
A10023239,청주 센트럴힐데스하임,4311111700,충청북도,청주상당구,탑동,,충청북도 청주상당구 탑동 233-25 청주 센트럴힐데스하임,혼합,개별난방,223226.02,16,1368.0,원건설,원건설,0432258565,,아파트,충청북도 청주시 상당구 용담로 50,위탁관리,계단식,20221129,0432258566,1368,148849.56,70.0,1102.0,196.0,0.0,224548.698,35,35,2,30,28717,36.6291143598737,127.497322213772
A36008102,보성트윈힐스아파트,4311111700,충청북도,청주상당구,탑동,,충청북도 청주상당구 탑동 42 보성트윈힐스아파트,혼합,개별난방,28510.234,2,444.0,보성건설주식회사,보성건설주식회사,0432222245,,아파트,충청북도 청주시 상당구 중고개로 349,위탁관리,복도식,19980525,0432222245,444,23483.16,444.0,0.0,0.0,0.0,17284.92,15,15,1,4,28720,36.6305882810323,127.501826917667
A36077703,탑동현대아파트,4311111700,충청북도,청주상당구,탑동,,충청북도 청주상당구 탑동 44 탑동현대아파트,분양,지역난방,50199.0,7,485.0,현대산업개발,현대산업개발,0432573349,,아파트,충청북도 청주시 상당구 탑동로 78,위탁관리,계단식,19910427,0432243350,485,49812.83,0.0,485.0,0.0,0.0,40124.265,13,13,1,19,28523,36.631528890698,127.502294553391
A36077704,탑클래스아파트,4311111700,충청북도,청주상당구,탑동,,충청북도 청주상당구 탑동 344 탑클래스아파트,분양,개별난방,58347.49,6,400.0,(주)삼호건설,LH토지주택공사,0432225234,www.raybol.net/A10018,아파트,충청북도 청주시 상당구 산성로 55,위탁관리,혼합식,20140318,0422225239,400,40900.414,86.0,314.0,0.0,0.0,30794.22,19,19,2,12,28720,36.6298685189052,127.501127724525
A36076902,대성우성3차아파트,4311111800,충청북도,청주상당구,대성동,,충청북도 청주상당구 대성동 5 대성우성3차아파트,분양,지역난방,70460.0,8,554.0,우성건설,우성건설,0432213912,대성우성3차.apti.co.kr/,아파트,충청북도 청주시 상당구 용담로63번길 33,자치관리,계단식,19911030,0432213913,554,55519.74,0.0,390.0,112.0,52.0,55519.74,15,15,1,20,28521,36.6333840188746,127.498718193997
A10021324,영운미림아파트,4311111900,충청북도,청주상당구,영운동,,충청북도 청주상당구 영운동 179-11 영운미림아파트,분양,개별난방,13883.0,6,250.0,영운미림아파트,영운미림아파트,0432573596,,아파트,충청북도 청주시 상당구 무심동로 124,위탁관리(직영+위탁),계단식,19910827,0432573595,250,12497.5,250.0,0.0,0.0,0.0,12497.5,6,6,0,0,,36.6175125638434,127.495336928236
A10026017,파모스라움아파트,4311111900,충청북도,청주상당구,영운동,,충청북도 청주상당구 영운동 72 파모스라움아파트,분양,개별난방,28736.043,4,246.0,금장건설(주),금천동지역주택조합,0432210941,,아파트,충청북도 청주시 상당구 수영로 180,위탁관리,계단식,20181002,0432220941,246,21371.613,246.0,0.0,0.0,0.0,14631.0789,25,25,1,8,28739,36.6205047547775,127.502890971899
A36009001,영운삼일아파트,4311111900,충청북도,청주상당구,영운동,,충청북도 청주상당구 영운동 204 영운삼일아파트,분양,개별난방,23015.27,4,228.0,삼일주택,삼일주택,0432219317,so2219317@hanmail.net,아파트,충청북도 청주시 상당구 수영로 136,위탁관리,계단식,19920811,0432219319,228,21089.82,92.0,136.0,0.0,0.0,16790.72,15,15,0,4,28743,36.6166002830481,127.500506842202
A36009002,영운한진신세대아파트,4311111900,충청북도,청주상당구,영운동,,충청북도 청주상당구 영운동 33-1 영운한진신세대아파트,분양,개별난방,18001.504,1,272.0,한진건설,한진건설,0432220444,hjapt@hanmail.net,아파트,충청북도 청주시 상당구 영운천로119번길 7,위탁관리,복도식,19970912,0432220447,272,18001.504,272.0,0.0,0.0,0.0,11761.28,15,15,1,4,28731,36.6207733665304,127.510249558617
A36009003,두산하이츠타운아파트,4311111900,충청북도,청주상당구,영운동,,충청북도 청주상당구 영운동 135-19 두산하이츠타운아파트,분양,개별난방,10516.0,1,296.0,두산개발,두산개발,0432580125,,아파트,충청북도 청주시 상당구 단재로95번길 40,위탁관리,복도식,19920629,0432588833,296,10327.44,296.0,0.0,0.0,0.0,6787.28,15,15,0,2,28737,36.6209753526166,127.498918735714
A36009004,신라송림아파트,4311111900,충청북도,청주상당구,영운동,,충청북도 청주상당구 영운동 145-11 신라송림아파트,분양,개별난방,43403.062,3,393.0,신라개발,신라개발,0432575971,,아파트,충청북도 청주시 상당구 단재로77번길 21-22,위탁관리,혼합식,19951209,0432575974,393,36976.504,163.0,230.0,0.0,0.0,28910.94,15,15,1,14,28737,36.6222208093425,127.497063285097
A36009005,영운수정아파트,4311111900,충청북도,청주상당구,영운동,,충청북도 청주상당구 영운동 73-5 영운수정아파트,분양,개별난방,31560.863,2,486.0,태암주택(주),태암주택(주),0432240548,,아파트,충청북도 청주시 상당구 영운천로51번길 26,위탁관리,복도식,19951113,07071633798,486,27413.16,486.0,0.0,0.0,0.0,21201.84,15,15,0,6,28742,36.6184959758275,127.504144366037
A36009007,성화누리안아파트,4311111900,충청북도,청주상당구,영운동,,충청북도 청주상당구 영운동 112-14 성화누리안아파트,분양,개별난방,23191.412,4,174.0,성화종합건설,매산,0432253003,성화누리안.apti.co.kr,아파트,충청북도 청주시 상당구 단재로115번길 46,위탁관리,계단식,20080407,0432253210,174,14768.129,0.0,174.0,0.0,0.0,14768.1288,15,15,1,0,28737,36.6201727597833,127.500133527952
A10021284,금천삼일아파트,4311112000,충청북도,청주상당구,금천동,,충청북도 청주상당구 금천동 122-1 금천삼일아파트,분양,개별난방,2.26789993e+16,10,299.0,삼일건설주식회사,삼일건설주식회사,0432544788,없슴,아파트,충청북도 청주시 상당구 영운천로91번길 58,위탁관리(직영+위탁),계단식,19871118,0432544788,299,18253910.0,299.0,0.0,0.0,0.0,17866,6,6,1,0,,36.6221392248938,127.506125693093
A10024466,금천센트럴파크스타힐스아파트,4311112000,충청북도,청주상당구,금천동,,충청북도 청주상당구 금천동 477 금천센트럴파크스타힐스아파트,분양,개별난방,110992.266,9,749.0,(주)서희건설,청주금천지역주택조합,0432213015,gcstarhills.aptner.com,아파트,충청북도 청주시 상당구 쇠내로 48,위탁관리,계단식,20201130,0432213016,749,76912.69,0.0,749.0,0.0,0.0,56593.8859,29,29,2,15,28734,36.6238004392521,127.501098390968
A10027626,금천덕성아파트,4311112000,충청북도,청주상당구,금천동,,충청북도 청주상당구 금천동 81 금천덕성아파트,분양,개별난방,9828.0,1,105.0,덕성건설,덕성건설,0432545924,,아파트,충청북도 청주시 상당구 꽃산동로 15-1,위탁관리,복도식,19930424,0432245924,105,2625.0,105.0,0.0,0.0,0.0,6161.4,15,15,0,17,28729,36.6247028622951,127.509673769487
A36076611,장자마을현대아파트,4311112000,충청북도,청주상당구,금천동,,충청북도 청주상당구 금천동 270 장자마을현대아파트,분양,지역난방,84834.0,10,636.0,현대산업개발,현대산업개발,0432934123,금천장자마을.apti.co.kr/,아파트,충청북도 청주시 상당구 수영로 312,자치관리,계단식,20020529,0432934124,636,70647.66,0.0,636.0,0.0,0.0,52075.0882,15,15,0,23,28753,36.6320514346276,127.508987588073
A36078007,장자마을10단지부영아파트,4311112000,충청북도,청주상당구,금천동,,충청북도 청주상당구 금천동 318 장자마을10단지부영아파트,분양,지역난방,43195.84,5,330.0,(주)부영,(주)부영,0432877891,,아파트,충청북도 청주시 상당구 호미로233번길 68,위탁관리,계단식,20020805,0432887891,330,34909.082,0.0,330.0,0.0,0.0,28042.311,15,15,1,12,28752,36.6271987361416,127.51011191304
A36078013,장자마을7단지부영아파트,4311112000,충청북도,청주상당구,금천동,,충청북도 청주상당구 금천동 275 장자마을7단지부영아파트,분양,지역난방,66446.86,9,725.0,부영,부영,0432880160,장자마을7단지부영아파트.apti.co.kr,아파트,충청북도 청주시 상당구 중고개로 288,위탁관리,혼합식,20011124,0432880170,725,66446.86,725.0,0.0,0.0,0.0,39172.4,15,15,1,16,28753,36.6294856111383,127.508533003906
A36079014,뉴타운아파트,4311112000,충청북도,청주상당구,금천동,,충청북도 청주상당구 금천동 77-7 뉴타운아파트,분양,개별난방,90712.7,6,783.0,두진종합건설(주),두진종합건설(주),0432233751,,아파트,충청북도 청주시 상당구 꽃산동로 41,자치관리,계단식,19930520,0432233756,783,84216.38,286.0,325.0,120.0,52.0,69445.1,15,15,0,27,28731,36.6223510491316,127.509009998152
A36079015,장자마을3단지부영아파트,4311112000,충청북도,청주상당구,금천동,,충청북도 청주상당구 금천동 324 장자마을3단지부영아파트,분양,지역난방,49758.61,5,378.0,(주)부영,(주)부영,0432965551,장자마을3단지.apti.co.kr,아파트,충청북도 청주시 상당구 호미로 285,위탁관리,계단식,20030908,0432965552,378,39986.77,0.0,378.0,0.0,0.0,32126.8248,15,15,1,13,28753,36.6310579607485,127.509699629308
A36079016,금천우미린,4311112000,충청북도,청주상당구,금천동,,충청북도 청주상당구 금천동 476 금천우미린,분양,개별난방,46613.516,6,319.0,우미건설,선우종합건설,0432223009,gcwoomi.aptner.com,아파트,충청북도 청주시 상당구 꽃산동로 25,위탁관리,계단식,20141002,0432223010,320,32064.547,0.0,319.0,0.0,0.0,24894.7495,15,15,2,11,28729,36.6238664999919,127.509574131442
A36079103,장자마을1단지부영,4311112000,충청북도,청주상당구,금천동,,충청북도 청주상당구 금천동 325 장자마을1단지부영,분양,지역난방,37700.0,5,284.0,부영(주),부영(주),0432887760,장자마을1단지부영.apti.co.kr,아파트,충청북도 청주시 상당구 수영로 350,위탁관리,계단식,20040624,0432887761,284,30209.08,0.0,284.0,0.0,0.0,24137.6144,15,15,0,10,28747,36.63258437168,127.511237201272
A36079105,장자마을e-그린타운2차,4311112000,충청북도,청주상당구,금천동,,충청북도 청주상당구 금천동 311 장자마을e-그린타운2차,분양,지역난방,45717.37,6,320.0,(주)부영,(주)부영,0432834486,,아파트,충청북도 청주시 상당구 수영로 294,위탁관리,계단식,20051116,0432834487,320,37411.2,0.0,320.0,0.0,0.0,27155.584,15,15,0,12,28753,36.6300220920797,127.506916709977
A36079108,장자마을5단지(부영8차)아파트,4311112000,충청북도,청주상당구,금천동,,충청북도 청주상당구 금천동 312 장자마을5단지(부영8차)아파트,분양,지역난방,49768.652,6,379.0,(주)부영,(주)부영,0432867722,,아파트,충청북도 청주시 상당구 수영로 306,위탁관리,계단식,20030421,0432867723,379,32206.17,0.0,379.0,0.0,0.0,32206.1693,15,15,1,14,28753,36.6309049879188,127.507706696114
A36079302,금천효성2차아파트,4311112000,충청북도,청주상당구,금천동,,충청북도 청주상당구 금천동 137 금천효성2차아파트,분양,개별난방,13179.542,1,253.0,효성건설,효성건설,0432529303,,아파트,충청북도 청주시 상당구 수영로196번길 18,위탁관리,복도식,19980711,0432239303,253,10001.09,253.0,0.0,0.0,0.0,6899.31,14,14,1,2,28739,36.6214076282859,127.504013859631
A36079310,금천효성1차아파트,4311112000,충청북도,청주상당구,금천동,,충청북도 청주상당구 금천동 124 금천효성1차아파트,혼합,개별난방,37548.62,2,495.0,효성건설,효성건설,0432233766,www.raybol.net/A10003,아파트,충청북도 청주시 상당구 수영로 204,위탁관리,혼합식,19980827,0432233768,495,31076.596,345.0,150.0,0.0,0.0,23631,15,15,1,9,28739,36.622610170048,127.504124091261
A36080001,금천수정아파트,4311112000,충청북도,청주상당구,금천동,,충청북도 청주상당구 금천동 115-1 금천수정아파트,분양,개별난방,21339.0,2,191.0,(주)태암수정,(주)태암수정,0432544287,,아파트,충청북도 청주시 상당구 꽃산동로 40,위탁관리,계단식,19930403,07071633489,191,16796.64,84.0,107.0,0.0,0.0,14117.05,14,14,0,4,28732,36.6231231949852,127.507602219794
A36080006,금천풍림아파트,4311112000,충청북도,청주상당구,금천동,,충청북도 청주상당구 금천동 106-1 금천풍림아파트,분양,지역난방,37652.66,6,327.0,풍림산업(주),풍림산업(주),0432581844,gp1844@hanmail.net,아파트,충청북도 청주시 상당구 꽃산동로 36,위탁관리,계단식,19920803,0432581843,327,29828.06,38.0,229.0,0.0,60.0,29828.06,13,13,1,14,28732,36.6251511820435,127.507518589406
A36080009,금천경희,4311112000,충청북도,청주상당구,금천동,,충청북도 청주상당구 금천동 50-3 금천경희,분양,개별난방,31356.824,2,470.0,경희주택,경희주택,0432565669,금천경희.apti.co.kr,아파트,충청북도 청주시 상당구 꽃산동로 4-5,위탁관리,혼합식,19970923,0432565663,470,25133.928,470.0,0.0,0.0,0.0,17218.3,15,15,1,7,28728,36.626622334635,127.508941153922
A36080312,장자마을8단지부영(7차)아파트,4311112000,충청북도,청주상당구,금천동,,충청북도 청주상당구 금천동 320 장자마을8단지부영(7차)아파트,분양,지역난방,86038.49,10,663.0,부영,부영,0432917373,,아파트,충청북도 청주시 상당구 호미로 261,위탁관리,계단식,20021207,0432917374,663,70205.07,0.0,663.0,0.0,0.0,56339.5521,15,15,0,23,28752,36.6287013656636,127.511415703423
A36080315,장자마을9단지(부영6차)아파트,4311112000,충청북도,청주상당구,금천동,,충청북도 청주상당구 금천동 317 장자마을9단지(부영6차)아파트,분양,지역난방,44413.0,5,456.0,부영,부영,0432844751,,아파트,충청북도 청주시 상당구 중고개로 286,위탁관리,혼합식,20020805,0432844752,456,34916.426,456.0,0.0,0.0,0.0,26253.7848,15,15,1,17,28752,36.6282348459944,127.509439770376
A36080316,금천현대아파트,4311112000,충청북도,청주상당구,금천동,,충청북도 청주상당구 금천동 199-1 금천현대아파트,분양,지역난방,110402.0,14,1032.0,나드리건설,현대건설,0432532338,www.raybol.net,아파트,충청북도 청주시 상당구 중고개로337번길 23,위탁관리,혼합식,19921202,0432593895,1032,104374.26,0.0,890.0,142.0,0.0,85628.88,15,15,0,31,28727,36.6287509195977,127.502950134238
A10021713,모드니아파트,4311112100,충청북도,청주상당구,용담동,,충청북도 청주상당구 용담동 190-1 모드니아파트,분양,,10599.0,1,113.0,홍은건설,홍은건설,0432525997,없음,아파트,충청북도 청주시 상당구 용담로105번길 70,자치관리,복도식,20091211,0432525995,113,5600.775,113.0,0.0,0.0,0.0,5595.055,14,14,0,2,,36.6365985705757,127.500833294271
A10026242,청주 호미지구 우미린 에듀파크 2단지,4311112100,충청북도,청주상당구,용담동,,충청북도 청주상당구 용담동 467 청주 호미지구 우미린 에듀파크 2단지,분양,개별난방,141674.0,14,901.0,우미건설,우미건설,0432940941,https://www.aptner.com,아파트,충청북도 청주시 상당구 수영로 359,위탁관리,계단식,20180214,0432940942,901,102068.98,0.0,811.0,90.0,0.0,78054.1278,29,29,2,0,28746,36.6357633406273,127.51170567667
A36078504,가좌마을2단지부영아파트,4311112100,충청북도,청주상당구,용담동,,충청북도 청주상당구 용담동 425 가좌마을2단지부영아파트,분양,지역난방,57387.0,7,569.0,(주)부영주택,(주)부영주택,0432840020,apt12.apat.biz/view.php,아파트,충청북도 청주시 상당구 호미로 329,위탁관리,계단식,20030718,0432840021,569,44358.33,569.0,0.0,0.0,0.0,34132.603,15,15,1,19,28745,36.6353231953517,127.508261421919
A36078505,용담e그린타운1차,4311112100,충청북도,청주상당구,용담동,,충청북도 청주상당구 용담동 423 용담e그린타운1차,분양,지역난방,50465.875,5,380.0,(주)부영,(주)부영,0432861330,,아파트,충청북도 청주시 상당구 호미로 317,위탁관리,계단식,20030729,0439021331,380,40198.34,0.0,380.0,0.0,0.0,32296.808,15,15,0,14,28745,36.6343507463764,127.508165698283
A36078702,가좌마을5단지부영아파트(부영12차),4311112100,충청북도,청주상당구,용담동,,충청북도 청주상당구 용담동 418 가좌마을5단지부영아파트(부영12차),분양,지역난방,56703.0,6,437.0,부영,부영,0432889950,http://www.raybol.net/A10025,아파트,충청북도 청주시 상당구 산성로116번길 23,위탁관리,계단식,20040624,0432889951,437,46464.023,0.0,437.0,0.0,0.0,37141.3292,15,15,1,15,28745,36.6336601591694,127.506421632338
A36078803,세영첼시빌아파트,4311112100,충청북도,청주상당구,용담동,,충청북도 청주상당구 용담동 421 세영첼시빌아파트,분양,지역난방,87341.0,11,568.0,세영종합건설(주),세영종합건설(주),0432830407,용담세영첼시빌.apti.co.kr,아파트,충청북도 청주시 상당구 수영로 327,위탁관리,계단식,20050105,0432830408,568,76117.1,0.0,388.0,120.0,60.0,58160.424,15,15,1,22,28745,36.6330331848414,127.507959704427
A36078901,용담e편한세상아파트,4311112100,충청북도,청주상당구,용담동,,충청북도 청주상당구 용담동 436 용담e편한세상아파트,분양,지역난방,80650.53,8,421.0,대림산업(주),하나로종합건설,0432838047,용담e편한세상.apti.co.kr/,아파트,충청북도 청주시 상당구 호미로 330,위탁관리,계단식,20041025,0432838046,421,63829.082,0.0,0.0,187.0,234.0,54299.0773,15,15,1,15,28746,36.6361403754311,127.509897470308
A36984101,홍은모드니,4311112100,충청북도,청주상당구,용담동,,충청북도 청주상당구 용담동 190-1 홍은모드니,,,0.0,1,113.0,,,438833022,,아파트,,기타,,20091211,0438833021,0,0.0,113.0,0.0,0.0,0.0,5595.055,1,14,0,0,,36.6365985705757,127.500833294271
A10021372,동산빌리지,4311112400,충청북도,청주상당구,용암동,,충청북도 청주상당구 용암동 429-2 동산빌리지,분양,개별난방,25070.0,11,144.0,삼진건설(주),삼진건설(주),0432948565,,연립주택,충청북도 청주시 상당구 월평로253번길 110,자치관리,계단식,19980824,0432948566,144,24859.121,0.0,0.0,104.0,40.0,20792.36,4,4,0,18,,36.6096972994008,127.515672214247
A10023575,청주동남LH3단지,4311112400,충청북도,청주상당구,용암동,,충청북도 청주상당구 용암동 3156 청주동남LH3단지,임대,지역난방,111540.88,7,1299.0,(주)한일건설,한국토지주택공사,0432911222,,아파트,충청북도 청주시 상당구 호미로 60,위탁관리,복도식,20220816,0432971227,1299,111245.734,1299.0,0.0,0.0,0.0,49845.34,25,25,4,22,28760,36.6160659439398,127.523259703508
A10023613,동남파라곤,4311112400,충청북도,청주상당구,용암동,,충청북도 청주상당구 용암동 3163 동남파라곤,분양,지역난방,86062.66,6,562.0,"(주)동양건설산업, (주)라인건설",(주)동양개발산업,0432878310,dnparagon.aptner.com,아파트,충청북도 청주시 상당구 중고개로 56,위탁관리,계단식,20220823,022878311,562,46386.785,0.0,562.0,0.0,0.0,46386.7864,25,25,1,12,28758,36.6113074549811,127.522659948817
A10023978,동남우미린에듀포레아파트,4311112400,충청북도,청주상당구,용암동,,충청북도 청주상당구 용암동 3150 동남우미린에듀포레아파트,분양,지역난방,83399.88,6,489.0,"(주)우미개발,심우종합건설",(주)우미개발,0432848001,dwa8001.aptner.com,아파트,충청북도 청주시 상당구 중고개로142번길 20,위탁관리,계단식,20211230,0432848002,489,83399.88,0.0,274.0,215.0,0.0,45614.4685,25,25,2,11,28807,36.6178487121605,127.520879966417
A10024444,청주동남파밀리에NHF4단지,4311112400,충청북도,청주상당구,용암동,,충청북도 청주상당구 용암동  청주동남파밀리에NHF4단지,임대,지역난방,123063.35,10,1077.0,신동아건설,NHF제15호공공임대부동산투자회사,0432962008,동남파밀리에nhf4ekswl.apti.co.kr,아파트,충청북도 청주시 상당구 동남로 187,위탁관리,계단식,20210115,0432962009,1077,123063.35,1077.0,0.0,0.0,0.0,62219.72,25,25,2,26,28758,36.6101642240563,127.522015002399
A10024618,동남지구 힐데스하임아파트,4311112400,충청북도,청주상당구,용암동,,충청북도 청주상당구 용암동 2944-141 동남지구 힐데스하임아파트,분양,지역난방,145965.47,11,910.0,원건설(주),원건설(주),0432873363,https://link.zigbang.com/,아파트,충청북도 청주시 상당구 월운로 116,위탁관리,계단식,20200922,0432873364,910,98439.21,0.0,910.0,0.0,0.0,77215.0348,25,25,2,19,28809,36.6052365195461,127.519386422709
A10024685,청주동남1단지아파트,4311112400,충청북도,청주상당구,용암동,,충청북도 청주상당구 용암동 2942-73 청주동남1단지아파트,임대,지역난방,107416.88,5,1486.0,코오롱글로벌주식회사,한국토지주택공사,0432882400,청주동남1단지.apti.co.kr,아파트,충청북도 청주시 상당구 호미로 137,위탁관리,복도식,20200814,0432852400,1486,106824.12,1486.0,0.0,0.0,0.0,57722.48,25,25,1,16,28807,36.6223619312849,127.519640920233
A10024771,동남지구 대성베르힐1차아파트,4311112400,충청북도,청주상당구,용암동,,충청북도 청주상당구 용암동 169 동남지구 대성베르힐1차아파트,혼합,지역난방,126220.625,9,792.0,디에스종합건설(주),디에스종합건설(주),0432950941,daesungbh1.aptner.com,아파트,충청북도 청주시 상당구 호미로 14,위탁관리,계단식,20200602,0432950942,792,84998.75,0.0,792.0,0.0,0.0,65338.5246,25,25,3,2,28808,36.6143315876184,127.519500288018
A10024802,동남지구대성베르힐2차,4311112400,충청북도,청주상당구,용암동,,충청북도 청주상당구 용암동 163 동남지구대성베르힐2차,혼합,지역난방,113036.7,8,715.0,대성건설,대성건설,0432952255,동남지구대성베르힐2차아파트apti.co.kr,아파트,충청북도 청주시 상당구 호미로 2,위탁관리,계단식,20200602,0432952256,715,76585.914,0.0,715.0,0.0,0.0,58894.6786,25,25,2,15,28808,36.613148137163,127.516950701314
A10024924,동남LH행복주택,4311112400,충청북도,청주상당구,용암동,,충청북도 청주상당구 용암동 2944-41 동남LH행복주택,임대,지역난방,57043.0,5,998.0,(주)서한,한국토지주택공사,0432977003,,아파트,충청북도 청주시 상당구 월운로 146,위탁관리,복도식,20200417,0432977004,999,56808.38,998.0,0.0,0.0,0.0,26306.08,23,23,1,14,28809,36.6063547212709,127.521164355815
A10024963,시티프라디움2단지,4311112400,충청북도,청주상당구,용암동,,충청북도 청주상당구 용암동 2942-160 시티프라디움2단지,분양,지역난방,97297.0,7,610.0,"시티건설,시티종합건설",시티개발,0432882995,청주동남시티프라디움2단지.apti.co.kr,아파트,충청북도 청주시 상당구 중고개로142번길 17,위탁관리,계단식,20200218,0432882998,610,65460.89,0.0,610.0,0.0,0.0,51840.1698,25,25,2,17,28807,36.6187063223829,127.518896025231
A10025023,청주동남시티프라디움1단지,4311112400,충청북도,청주상당구,용암동,,충청북도 청주상당구 용암동 2942-111 청주동남시티프라디움1단지,분양,지역난방,127950.87,8,797.0,"(주)시티건설,(주)시티종합건설",(주)아이시티건설,0432938006,,아파트,충청북도 청주시 상당구 중고개로142번길 31,위탁관리,계단식,20200218,0432948007,797,126226.47,0.0,797.0,0.0,0.0,67727.7788,25,25,2,18,28807,36.6194917476723,127.520094635463
A10025134,동남칸타빌더테라스2단지,4311112400,충청북도,청주상당구,용암동,,충청북도 청주상당구 용암동 149-10 동남칸타빌더테라스2단지,분양,지역난방,110247.44,7,706.0,(주)대원/(주)대원건설,(주)대원/(주)대원건설,0432838737,http://dcantavill2.aptner.com/,아파트,충청북도 청주시 상당구 중고개로 104,위탁관리,계단식,20191219,0432838739,706,74895.45,0.0,706.0,0.0,0.0,58446.6607,25,25,2,17,28760,36.6149448344046,127.520876977217
A10025139,칸타빌더테라스1단지,4311112400,충청북도,청주상당구,용암동,,충청북도 청주상당구 용암동 206-1 칸타빌더테라스1단지,분양,지역난방,119423.65,8,676.0,(주)대원건설,(주)대원,0432968006,dcantavil.aptner.com,아파트,충청북도 청주시 상당구 중고개로 140,위탁관리,계단식,20191219,0432978006,676,117881.54,0.0,380.0,296.0,0.0,64632.8403,25,25,2,16,28760,36.6176439673809,127.518754203536
A10025791,용암서희스타힐스아파트,4311112400,충청북도,청주상당구,용암동,,충청북도 청주상당구 용암동 2953 용암서희스타힐스아파트,분양,개별난방,39490.0,5,318.0,서희건설,한마음지역주택조합,0432930941,,아파트,충청북도 청주시 상당구 단재로196번길 9,위탁관리,계단식,20181119,0432930940,318,26550.389,318.0,0.0,0.0,0.0,19077.5552,29,29,2,7,28788,36.6126204236176,127.499414971719
A36010001,용암대원칸타빌아파트,4311112400,충청북도,청주상당구,용암동,,충청북도 청주상당구 용암동 2063 용암대원칸타빌아파트,분양,개별난방,29562.0,2,233.0,(주)대원,(주)대원,0432888012,http://www.raybol.net/A10031,아파트,충청북도 청주시 상당구 무농정로 72,위탁관리,계단식,20021025,0432878012,233,25418.18,0.0,233.0,0.0,0.0,19800.806,15,15,1,8,28780,36.6084767176961,127.510796931388
A36010002,용암현대1차아파트,4311112400,충청북도,청주상당구,용암동,,충청북도 청주상당구 용암동 2095 용암현대1차아파트,분양,지역난방,42166.04,3,264.0,현대산업개발(주),현대산업개발(주),0432935685,www.raybol.net/A10041,아파트,충청북도 청주시 상당구 월평로 189,위탁관리,계단식,19941222,0432935688,264,32555.4,0.0,0.0,240.0,24.0,32555.4,15,15,0,9,28774,36.6102677659755,127.506032905094
A36010003,용암임광아파트,4311112400,충청북도,청주상당구,용암동,,충청북도 청주상당구 용암동 2094 용암임광아파트,분양,지역난방,41346.4,3,280.0,임광토건(주),임광토건(주),0432941919,www.raybol.net/A10040,아파트,충청북도 청주시 상당구 용암로 35,위탁관리,계단식,19960529,0432941920,280,39409.76,0.0,0.0,280.0,0.0,32437.6,15,15,1,10,28774,36.6112978649566,127.50708911091
A36010004,용암현대2차아파트,4311112400,충청북도,청주상당구,용암동,,충청북도 청주상당구 용암동 2104 용암현대2차아파트,분양,지역난방,36397.89,3,315.0,현대산업개발,현대산업개발,0432935625,용암현대2차apti.co.kr,아파트,충청북도 청주시 상당구 원봉로 41,자치관리,계단식,19941222,0432844842,315,33426.445,0.0,315.0,0.0,0.0,26532.45,15,15,0,11,28769,36.6131975255078,127.509036794132
A36010005,중흥마을e-그린3차아파트,4311112400,충청북도,청주상당구,용암동,,충청북도 청주상당구 용암동 2540 중흥마을e-그린3차아파트,분양,지역난방,41294.0,5,326.0,(주)부영,(주)부영,0432833283,,아파트,충청북도 청주시 상당구 중흥로 178,위탁관리,계단식,20051116,0432833284,326,27664.752,0.0,326.0,0.0,0.0,27664.7512,15,15,0,12,28764,36.6181516915665,127.513505181804
A36010006,용암한우리타운아파트,4311112400,충청북도,청주상당구,용암동,,충청북도 청주상당구 용암동 2105 용암한우리타운아파트,분양,지역난방,33771.12,3,330.0,(주)진흥주택,진흥건설,0432935520,,아파트,충청북도 청주시 상당구 용암로 36,위탁관리,계단식,19950602,0432935521,330,33771.12,0.0,330.0,0.0,0.0,26009.7,15,15,1,11,28769,36.6123344130667,127.50815220575
A36010007,용암형석아파트,4311112400,충청북도,청주상당구,용암동,,충청북도 청주상당구 용암동 2088 용암형석아파트,분양,지역난방,52672.37,6,430.0,새한주택,새한주택,0432934869,용암형석.apti.co.kr,아파트,충청북도 청주시 상당구 월평로 207,위탁관리(직영+위탁),계단식,19941130,0432933364,430,46070.414,0.0,430.0,0.0,0.0,36455.4,15,15,1,15,28781,36.6092285497963,127.507650529361
A36010008,용암현대홈타운아파트,4311112400,충청북도,청주상당구,용암동,,충청북도 청주상당구 용암동 2089 용암현대홈타운아파트,분양,지역난방,56318.42,8,476.0,삼정주택건설,현대건설,0432935838,cafe.daum.net/htwn,아파트,충청북도 청주시 상당구 용암로 23,자치관리,계단식,19951012,0432938697,476,50189.44,0.0,476.0,0.0,0.0,40398.12,15,15,1,16,28781,36.6102572857659,127.508706062672
A36010009,용암효성아파트,4311112400,충청북도,청주상당구,용암동,,충청북도 청주상당구 용암동 2086 용암효성아파트,분양,개별난방,47947.0,4,486.0,효성건설,효성건설,0432930663,,아파트,충청북도 청주시 상당구 월평로 221,위탁관리,계단식,19941015,0432938996,486,37348.56,486.0,0.0,0.0,0.0,28806.12,15,15,0,19,28781,36.6084452799772,127.508856344687
A36010010,용암덕성그린아파트,4311112400,충청북도,청주상당구,용암동,,충청북도 청주상당구 용암동 2085 용암덕성그린아파트,분양,중앙난방,40519.0,5,495.0,덕성건설,덕성건설,0432939580,용암로덕성.apti.co.kr,아파트,충청북도 청주시 상당구 용암로 3,위탁관리,계단식,19950715,0432949581,495,34602.24,495.0,0.0,0.0,0.0,27288.525,15,15,0,16,28781,36.6094771496649,127.509914139277
A36010011,강변뜨란채아파트,4311112400,충청북도,청주상당구,용암동,,충청북도 청주상당구 용암동 2915 강변뜨란채아파트,분양,지역난방,54386.0,9,517.0,신영건설,한국토지주택공사,0432869908,www.raybol.net/A10053,아파트,충청북도 청주시 상당구 무심동로 86,위탁관리,계단식,20050829,0432869909,517,47795.04,228.0,238.0,51.0,0.0,38838.45,15,15,1,18,28788,36.6137960602437,127.498161330492
A36010012,용암현대3차아파트,4311112400,충청북도,청주상당구,용암동,,충청북도 청주상당구 용암동 2096 용암현대3차아파트,분양,지역난방,64883.824,6,520.0,현대산업개발,현대산업개발,0432940085,,아파트,충청북도 청주시 상당구 중흥로 70,위탁관리,계단식,19951213,0432949131,520,61223.0,0.0,280.0,240.0,0.0,49494,15,15,0,18,28774,36.6112872492787,127.505026641643
A36010013,중흥마을6단지(부영5차)아파트,4311112400,충청북도,청주상당구,용암동,,충청북도 청주상당구 용암동 2433 중흥마을6단지(부영5차)아파트,분양,지역난방,72362.08,9,557.0,부영,부영,0432881300,byby1300@daum.net,아파트,충청북도 청주시 상당구 중흥로 146,위탁관리,계단식,20011124,0432881400,557,58925.03,0.0,557.0,0.0,0.0,47319.2666,15,15,1,21,28768,36.6159105754046,127.510465451107
A36010014,중흥마을1단지(부영10차)아파트,4311112400,충청북도,청주상당구,용암동,,충청북도 청주상당구 용암동 2542 중흥마을1단지(부영10차)아파트,분양,지역난방,73854.44,9,752.0,(주)부영주택,(주)부영주택,0432860018,www.raybol.net/a10052,아파트,충청북도 청주시 상당구 중흥로 173,위탁관리,계단식,20030923,0432860019,752,58080.117,752.0,0.0,0.0,0.0,45110.224,15,15,1,26,28765,36.6192160537595,127.511212079638
A36010015,용암태산그린아파트,4311112400,충청북도,청주상당구,용암동,,충청북도 청주상당구 용암동 2076 용암태산그린아파트,분양,중앙난방,54362.0,5,590.0,(주)태산도시산업,(주)태산도시산업,0432939595,www.raybol.net/A10033,아파트,충청북도 청주시 상당구 원봉로 20,위탁관리,계단식,19950411,0432939594,590,46029.44,590.0,0.0,0.0,0.0,35258.4,15,15,1,20,28778,36.6132765823343,127.511555493081
A36010016,청주용암주공1단지,4311112400,충청북도,청주상당구,용암동,,충청북도 청주상당구 용암동 2108 청주용암주공1단지,분양,지역난방,42819.92,5,600.0,주택공사,주택공사,0432931061,용암주공1단지,아파트,충청북도 청주시 상당구 원봉로 52,위탁관리,복도식,19941101,0432931060,600,41738.4,600.0,0.0,0.0,0.0,29880,15,15,1,8,28768,36.6140558130358,127.509973348756
A36010018,용암삼일아파트,4311112400,충청북도,청주상당구,용암동,,충청북도 청주상당구 용암동 2083 용암삼일아파트,분양,개별난방,57881.45,7,640.0,삼일주택(주),삼일주택,0432931551,용암삼일.apti.co.kr,아파트,충청북도 청주시 상당구 무농정로 103,위탁관리,계단식,19941031,0432931552,640,48661.184,640.0,0.0,0.0,0.0,38361.6,15,15,0,22,28778,36.6111729905813,127.511973281112
A36010019,용암소라아파트,4311112400,충청북도,청주상당구,용암동,,충청북도 청주상당구 용암동 2082 용암소라아파트,분양,지역난방,64615.0,6,675.0,"덕성건설, 태암주택","덕성건설,태암주택",0432931243,용암소라아파트.apti.co.kr,아파트,충청북도 청주시 상당구 원봉로 21,위탁관리,계단식,19941107,0432930994,675,51738.0,675.0,0.0,0.0,0.0,40244.85,15,15,0,23,28778,36.6120246718834,127.510518752979
A36010020,용암덕일마이빌아파트,4311112400,충청북도,청주상당구,용암동,,충청북도 청주상당구 용암동 2537 용암덕일마이빌아파트,분양,지역난방,78632.11,11,856.0,(주)덕일엔지니어링,(주)덕일엔지니어링,0432844743,www.raybol.net/A10050,아파트,충청북도 청주시 상당구 중흥로 148,위탁관리,계단식,20030709,0432844744,857,64226.36,856.0,0.0,0.0,0.0,51141.4908,15,15,1,0,28768,36.6166193337159,127.511889343135
A36010022,건영아파트,4311112400,충청북도,청주상당구,용암동,,충청북도 청주상당구 용암동 2099 건영아파트,분양,지역난방,152348.64,13,1046.0,건영,건영,0432943101,www.raybol.net,아파트,충청북도 청주시 상당구 중흥로 71,위탁관리,계단식,19990416,0432943102,1046,131932.19,0.0,416.0,630.0,0.0,108700.68,15,15,0,35,28773,36.6121663584752,127.503458869561
A36010024,용암세원한아름아파트,4311112400,충청북도,청주상당구,용암동,,충청북도 청주상당구 용암동 2064 용암세원한아름아파트,분양,중앙난방,128708.0,12,1530.0,(주)세원건설,(주)세원건설,0432930244,WWW.raybol.net/a10032,아파트,충청북도 청주시 상당구 무농정로 90,위탁관리,혼합식,19941109,0432930245,1530,108071.1,1530.0,0.0,0.0,0.0,82836,15,15,0,40,28780,36.6094320144826,127.512180851001
A36010025,청주용암2,4311112400,충청북도,청주상당구,용암동,,충청북도 청주상당구 용암동 2108 청주용암2,임대,중앙난방,47387.508,7,1140.0,삼환기업,한국토지주택공사,0432935102,www.kohom.co.kr,아파트,충청북도 청주시 상당구 원봉로 52,위탁관리,복도식,19941101,0432935034,1140,32310.0,1140.0,0.0,0.0,0.0,32310,15,15,0,16,28768,36.6140558130358,127.509973348756
A36073501,중흥마을부영2단지,4311112400,충청북도,청주상당구,용암동,,충청북도 청주상당구 용암동 2444 중흥마을부영2단지,분양,지역난방,70106.375,8,620.0,(주)부영,(주)부영,0432866677,,아파트,충청북도 청주시 상당구 중흥로 196,위탁관리,계단식,20010918,0432866678,620,69688.0,0.0,620.0,0.0,0.0,52669.496,15,15,1,21,28764,36.6190972166115,127.514619275162
A36077101,용암부영1차아파트,4311112400,충청북도,청주상당구,용암동,,충청북도 청주상당구 용암동 2060 용암부영1차아파트,분양,개별난방,71867.45,6,979.0,부영주택,부영주택,0432941088,,아파트,충청북도 청주시 상당구 월평로 243,위탁관리,복도식,19961122,0432941089,979,70422.0,979.0,0.0,0.0,0.0,53614.11,15,15,0,12,28780,36.6073034422101,127.511301777851
A10026670,우미린에듀파크1단지아파트,4311112500,충청북도,청주상당구,용정동,,충청북도 청주상당구 용정동 1286 우미린에듀파크1단지아파트,분양,개별난방,67358.91,6,390.0,우미건설(주),우미건설(주),0432925501,www.raybol.net/A10085,아파트,충청북도 청주시 상당구 수영로 360,위탁관리,계단식,20171109,0432925502,390,50134.51,0.0,179.0,171.0,40.0,40154.5905,25,25,1,10,28747,36.6324100112935,127.51289169638
A36018201,용정한라비발디,4311112500,충청북도,청주상당구,용정동,,충청북도 청주상당구 용정동 1116 용정한라비발디,분양,지역난방,240866.75,16,1400.0,한라건설,다임홀딩스,0432872116,,아파트,충청북도 청주시 상당구 용정로 25,위탁관리,계단식,20130620,0432872118,1400,168783.27,0.0,835.0,565.0,0.0,129873.47,25,25,2,34,28748,36.6299865624819,127.515532995825
A10023089,청주 동남 호반써밋 브룩사이드아파트,4311112600,충청북도,청주상당구,방서동,,충청북도 청주상당구 방서동 825 청주 동남 호반써밋 브룩사이드아파트,분양,지역난방,192022.0,14,1215.0,호반건설,호반건설,0432864782,,아파트,충청북도 청주시 상당구 동남로 2,위탁관리,계단식,20230721,0432864783,1215,99228.41,0.0,1215.0,0.0,0.0,99228.4095,25,25,2,29,28785,36.6009905731396,127.505723524263
A10024616,동남우미린풀하우스,4311112600,충청북도,청주상당구,방서동,,충청북도 청주상당구 방서동 1 동남우미린풀하우스,분양,지역난방,148509.0,10,1016.0,우미종합건설,우미종합건설,0432879100,dwf..aptner.com,아파트,충청북도 청주시 상당구 동남로 15,위탁관리,계단식,20200923,0432889100,1016,147363.16,0.0,1016.0,0.0,0.0,79811.4391,25,25,2,24,28785,36.6024957082839,127.506917604979
A10025775,청주하트리움리버파크,4311112600,충청북도,청주상당구,방서동,,충청북도 청주상당구 방서동 655 청주하트리움리버파크,분양,개별난방,102777.7,9,600.0,(주)두진건설,평촌지역주택조합,0432848005,,아파트,충청북도 청주시 상당구 2순환로 2031,위탁관리,계단식,20190124,0432848006,600,67888.3,0.0,600.0,0.0,0.0,50914.24,26,26,2,19,28787,36.5975540150437,127.501050425652
A10026020,청주 센트럴자이아파트,4311112600,충청북도,청주상당구,방서동,,충청북도 청주상당구 방서동 654 청주 센트럴자이아파트,분양,개별난방,234023.88,16,1500.0,GS건설,하나자산신탁,0432838051,cjxi.xisnd.co.kr,아파트,충청북도 청주시 상당구 단재로 316,위탁관리,계단식,20180921,0432838052,1500,163060.25,194.0,1153.0,153.0,0.0,122573.7669,29,29,2,33,28787,36.6002574283799,127.501197215097
A10026027,방서동 중흥S클래스 아파트,4311112600,충청북도,청주상당구,방서동,,충청북도 청주상당구 방서동 653 방서동 중흥S클래스 아파트,분양,개별난방,267879.6,22,1595.0,중흥토건(주),(주)에코세종,0432839261,movill.net,아파트,충청북도 청주시 상당구 단재로 312,위탁관리,계단식,20180921,0432839262,1595,185853.42,0.0,1338.0,257.0,0.0,141531.3942,29,29,2,35,28787,36.6029271171335,127.50081313703
