kaptCode,kaptName,bjdCode,as1,as2,as3,as4,kaptAddr,codeSaleNm,codeHeatNm,kaptTarea,kaptDongCnt,kaptdaCnt,kaptBcompany,kaptAcompany,kaptTel,kaptUrl,codeAptNm,doroJuso,codeMgrNm,codeHallNm,kaptUsedate,kaptFax,hoCnt,kaptMarea,kaptMparea60,kaptMparea85,kaptMparea135,kaptMparea136,privArea,kaptTopFloor,ktownFlrNo,kaptBaseFloor,kaptdEcntp,zipcode,위도,경도
A10021389,동현 일동아파트,4315010300,충청북도,제천시,동현동,,충청북도 제천시 동현동 109- 동현 일동아파트,분양,개별난방,10002.0,1,120.0,(주) 일동주택 .(주)우일주택,(주)일동줕택,0436488186,,아파트,충청북도 제천시 의병대로 182,자치관리,계단식,19970922,0436488186,120,9960.0,120.0,0.0,0.0,0.0,7196.4,1,15,0,0,,37.1330461911102,128.220716371926
A39019001,동현현대아파트,4315010300,충청북도,제천시,동현동,,충청북도 제천시 동현동 29-2 동현현대아파트,분양,개별난방,29630.0,3,276.0,현대산업개발주식회사,현대산업개발주식회사,0436457360,동현현대.apti.co.kr,아파트,충청북도 제천시 독순로 140,위탁관리,계단식,19921015,0436457361,276,28246.86,0.0,276.0,0.0,0.0,22274.52,15,15,1,10,27175,37.1365849477193,128.218627103647
A39019002,제천세경아파트,4315010300,충청북도,제천시,동현동,,충청북도 제천시 동현동 63-1 제천세경아파트,분양,개별난방,22640.49,5,390.0,세경산업,세경산업,0436421530,제천세경.apti.co.kr,아파트,충청북도 제천시 의병대로30길 10,위탁관리,혼합식,19891209,0436421530,390,22467.773,390.0,0.0,0.0,0.0,18789.84,5,5,1,0,27181,37.1334799696341,128.21759464664
A39007002,교동두진,4315010500,충청북도,제천시,교동,,충청북도 제천시 교동 1-1 교동두진,분양,개별난방,35566.0,4,363.0,두진종합건설(주),두진종합건설(주),0436468264,없음,아파트,충청북도 제천시 독순로23길 19,위탁관리,계단식,19941130,0436488264,363,32502.465,203.0,160.0,0.0,0.0,25613.695,18,18,1,12,27176,37.1382340655572,128.220211475567
A10025606,삼익아파트,4315010900,충청북도,제천시,화산동,,충청북도 제천시 화산동 237-19 삼익아파트,분양,개별난방,19132.6,1,110.0,11,11,0436459768,,주상복합,충청북도 제천시 의림대로2길 9,자치관리,혼합식,19940103,0436439768,110,6809.4,8.0,102.0,0.0,0.0,6809.4,10,10,2,2,27196,37.1288509859037,128.206958587158
A10027418,제천서희스타힐스,4315010900,충청북도,제천시,화산동,,충청북도 제천시 화산동 1009 제천서희스타힐스,분양,개별난방,52187.984,7,399.0,서희건설(주),대한토지신탁(주),0436534242,,아파트,충청북도 제천시 원화산로 13,위탁관리,계단식,20160831,0436534243,399,39879.57,0.0,399.0,0.0,0.0,30860.5117,15,15,2,17,27196,37.1258273621931,128.212742667949
A10025983,제천강저리슈빌아파트,4315011000,충청북도,제천시,영천동,,충청북도 제천시 영천동 2234 제천강저리슈빌아파트,임대,개별난방,73938.31,5,565.0,계룡건설,NHF,0436449003,제천강저리슈빌.apti.co.kr/aptHome/,아파트,충청북도 제천시 청풍호로7길 76,위탁관리,계단식,20181010,0436449004,565,73732.79,0.0,565.0,0.0,0.0,46874.04,20,20,1,15,27200,37.1242297566792,128.208077698928
A10027865,제천강저LH4단지아파트,4315011000,충청북도,제천시,영천동,,충청북도 제천시 영천동 2234-1 제천강저LH4단지아파트,임대,개별난방,17325.09,2,268.0,동문건설(주) 외2,한국토지주택공사,0436422662,,주상복합,충청북도 제천시 청풍호로7길 40,위탁관리,복도식,20151014,0436462662,268,9966.6,268.0,0.0,0.0,0.0,9966.6,15,15,1,5,27200,37.124141940298,128.206685766452
A39012001,강저휴먼시아1단지,4315011000,충청북도,제천시,영천동,,충청북도 제천시 영천동 2227 강저휴먼시아1단지,임대,개별난방,59438.68,8,872.0,(주)혜림건설,한국토지주택공사,0436437542,apti.co.kr,아파트,충청북도 제천시 청풍호로7길 20,위탁관리,복도식,20091203,0436437543,872,59438.57,872.0,0.0,0.0,0.0,36305.89,15,15,1,14,27200,37.1240571104807,128.205095959795
A39024009,제천하소4,4315011100,충청북도,제천시,하소동,,충청북도 제천시 하소동 345 제천하소4,임대,중앙난방,47541.0,6,1074.0,동신주택,한국토지주택공사,0436450874,340180@kohom.or.kr,아파트,충청북도 제천시 용두대로23길 14,위탁관리,복도식,19940722,0436480875,1063,43664.23,1074.0,0.0,0.0,0.0,29504.43,15,15,0,14,27161,37.1462473679821,128.197506965878
A39075201,하소주공1단지아파트,4315011100,충청북도,제천시,하소동,,충청북도 제천시 하소동 82 하소주공1단지아파트,분양,개별난방,22081.2,12,420.0,대한주택공사,대한주택공사,0436432521,하소주공1차아파트.apti.co.kr/,아파트,충청북도 제천시 용두대로15길 11,자치관리,계단식,19891015,0436432521,420,22081.2,420.0,0.0,0.0,0.0,17691.3,5,5,0,0,27162,37.1387824750882,128.199828310692
A39075606,하소주공2단지아파트,4315011100,충청북도,제천시,하소동,,충청북도 제천시 하소동 353 하소주공2단지아파트,분양,중앙난방,61232.65,8,780.0,금호건설,대한주택공사,0436483770,하소2단지.apti.co.kr,아파트,충청북도 제천시 하소로 88,위탁관리,복도식,19950928,0439201000,780,61215.45,780.0,0.0,0.0,0.0,43807.5,15,15,0,10,27161,37.1441282102964,128.199368233974
A39075710,제천하소3,4315011100,충청북도,제천시,하소동,,충청북도 제천시 하소동 350 제천하소3,임대,중앙난방,31998.0,4,540.0,대한주택공사,금호건설,0436444317,www.kohom.co.kr,아파트,충청북도 제천시 하소로 95,위탁관리,복도식,19951106,0436478915,540,31096.8,540.0,0.0,0.0,0.0,21384,15,15,0,8,27161,37.144612666015,128.197159743154
A39077203,제천 하소 청구아파트,4315011100,충청북도,제천시,하소동,,충청북도 제천시 하소동 139 제천 하소 청구아파트,분양,개별난방,57421.61,8,498.0,(주)청구주택,(주)청구주택,0436441189,하소청구.apti.co.kr,아파트,충청북도 제천시 용두대로15길 47,위탁관리,계단식,20020726,0436441187,498,48363.645,222.0,250.0,26.0,0.0,37969.28,15,15,0,18,27162,37.1388500807305,128.196616949145
A39077302,하소현대아파트,4315011100,충청북도,제천시,하소동,,충청북도 제천시 하소동 110 하소현대아파트,분양,개별난방,48450.19,4,497.0,현대산업개발,현대산업개발,0436455433,,아파트,충청북도 제천시 용두대로15길 38,위탁관리,계단식,19961230,0436422452,497,43540.76,323.0,174.0,0.0,0.0,34063.13,19,19,1,16,27162,37.1407513505354,128.197022015338
A39077605,제천그린코아루아파트,4315011100,충청북도,제천시,하소동,,충청북도 제천시 하소동 198 제천그린코아루아파트,분양,개별난방,103968.984,12,702.0,(주)새롬성원,(주)한국토지신탁,0436527878,제천그린코아루.apti.co.kr/aptHome/,아파트,충청북도 제천시 용두대로7길 25,위탁관리,계단식,20070327,0436527870,702,70013.836,0.0,501.0,87.0,114.0,70013.8395,15,15,0,26,27187,37.1344154819803,128.196279602579
A39077606,하소현대힐스테이트,4315011100,충청북도,제천시,하소동,,충청북도 제천시 하소동 156 하소현대힐스테이트,분양,개별난방,59907.355,6,358.0,현대건설,광일씨앤엠,0436518500,하소힐스.apti.co.kr,아파트,충청북도 제천시 용두대로7길 36,위탁관리,계단식,20080227,0436518501,358,48800.004,0.0,182.0,147.0,29.0,37395.771,15,15,1,11,27160,37.136508649173,128.196115392364
A10020348,제천자이더스카이아파트,4315011200,충청북도,제천시,신월동,,충청북도 제천시 신월동 1474- 제천자이더스카이아파트,분양,개별난방,130140.375,5,713.0,지에스건설,우리자산신탁,0437567225,,아파트,충청북도 제천시 복합타운1길 22,위탁관리,계단식,20251024,0437567226,713,84037.0,0.0,591.0,122.0,0.0,62949.7462,37,37,4,23,,37.1608950424909,128.184063880276
A10025808,제천 행복주택,4315011200,충청북도,제천시,신월동,,충청북도 제천시 신월동 1469 제천 행복주택,임대,개별난방,44019.426,4,420.0,효림건설,제천시,0436539013,,아파트,충청북도 제천시 복합타운길 135,위탁관리,계단식,20181231,0436539014,420,44019.426,420.0,0.0,0.0,0.0,22946.502,28,28,1,10,27157,37.1625722329274,128.186165990226
A39023001,제천신월사랑으로부영,4315011200,충청북도,제천시,신월동,,충청북도 제천시 신월동 1414 제천신월사랑으로부영,분양,개별난방,58282.402,8,401.0,(주)부영주택,(주)부영주택,0436421915,,아파트,충청북도 제천시 대학로12길 8,위탁관리,계단식,20061107,0436421916,401,47263.223,0.0,401.0,0.0,0.0,34040.9702,15,15,0,14,27136,37.1682634324285,128.195078258791
A10020994,덕일아파트,4315011300,충청북도,제천시,청전동,,충청북도 제천시 청전동 626- 덕일아파트,분양,개별난방,30798.93,1,275.0,(주)덕일건설,(주)덕일건설,0436449586,,아파트,충청북도 제천시 용두천로 313,자치관리,계단식,19910115,0436459587,275,30795.0,0.0,265.0,0.0,10.0,23820,5,5,1,0,,37.1529547546567,128.217093389368
A10021931,성우한솔아파트,4315011300,충청북도,제천시,청전동,,충청북도 제천시 청전동 1069- 성우한솔아파트,분양,개별난방,14266.0,1,148.0,성우종합건설(주),현대시멘트 직장주택조합,0436462115,http://성우한솔.apti.co.kr,아파트,충청북도 제천시 용두천로 257,자치관리,계단식,19950530,0436462115,148,13317.34,74.0,74.0,0.0,0.0,10136.26,19,19,1,0,,37.1490417385249,128.219438058822
A39010001,청전두진백로2차아파트,4315011300,충청북도,제천시,청전동,,충청북도 제천시 청전동 986 청전두진백로2차아파트,분양,개별난방,24555.0,2,180.0,(주) 두진공영,(주) 두진공영,0436475796,www.raybol.net adminC00041,아파트,충청북도 제천시 청전대로 100,자치관리,계단식,19950531,0436485796,180,21087.0,0.0,90.0,90.0,0.0,17298.9,15,15,1,6,27153,37.1481906971127,128.209489572512
A39076707,청전주공1단지아파트,4315011300,충청북도,제천시,청전동,,충청북도 제천시 청전동 4 청전주공1단지아파트,분양,개별난방,35634.0,14,640.0,대한주택공사,대한주택공사,0436476655,cj1.apti.co.kr/index.asp,아파트,충청북도 제천시 청전대로15길 70,위탁관리,계단식,19801108,0436476654,646,28977.19,640.0,0.0,0.0,0.0,28009.64,5,5,0,0,27146,37.1585361143731,128.213147725759
A39076804,청전덕일한마음아파트,4315011300,충청북도,제천시,청전동,,충청북도 제천시 청전동 987 청전덕일한마음아파트,분양,개별난방,41073.0,4,420.0,(주)덕일건설,(주)덕일건설,0436482956,,아파트,충청북도 제천시 칠성로 5,위탁관리,계단식,19950613,0436482957,420,34990.56,300.0,120.0,0.0,0.0,28094.4,15,15,1,14,27153,37.1475404567458,128.208313362889
A39076805,성한아파트,4315011300,충청북도,제천시,청전동,,충청북도 제천시 청전동 480-4 성한아파트,분양,개별난방,16827.6,6,270.0,송원주택건설(주),송원주택건설(주),0436447935,,아파트,충청북도 제천시 명륜로2길 12,자치관리,계단식,19910415,0436447935,270,14286.6,270.0,0.0,0.0,0.0,14286.6,5,5,0,0,27163,37.1429767396261,128.202283419681
A39076905,청전두진백로1차아파트,4315011300,충청북도,제천시,청전동,,충청북도 제천시 청전동 985 청전두진백로1차아파트,분양,개별난방,40822.4,3,484.0,(주)두진공영,두진공영,0436475795,,주상복합,충청북도 제천시 칠성로 19,위탁관리,계단식,19950531,0436465795,484,40822.4,344.0,140.0,0.0,0.0,32530.2,15,15,0,17,27153,37.1464278308621,128.208973461348
A39077008,비둘기아파트,4315011300,충청북도,제천시,청전동,,충청북도 제천시 청전동 639 비둘기아파트,분양,개별난방,37056.0,4,768.0,제천시청,제천시청,0436460112,비둘기.apti.co.kr,아파트,충청북도 제천시 청전대로 166,위탁관리,복도식,19910613,0436440812,768,37044.48,768.0,0.0,0.0,0.0,27279.36,16,16,0,12,27152,37.1512722029662,128.216173582949
A39077102,제천현대아파트,4315011300,충청북도,제천시,청전동,,충청북도 제천시 청전동 326-5 제천현대아파트,분양,개별난방,21446.74,2,205.0,현대건설,(주)무광주택,0436450095,제천현대.apti.co.kr,아파트,충청북도 제천시 의림대로 348,위탁관리,계단식,19901022,0436450895,205,20856.35,0.0,205.0,0.0,0.0,16868.05,15,15,0,7,27146,37.1582037924596,128.212155949875
A39077106,청전현대,4315011300,충청북도,제천시,청전동,,충청북도 제천시 청전동 72 청전현대,분양,개별난방,61023.0,7,591.0,현대산업개발,현대산업개발,0436450818,,아파트,충청북도 제천시 용두천로 235,위탁관리,계단식,19901224,0436451046,591,60162.543,0.0,531.0,60.0,0.0,48440.025,15,15,1,21,27152,37.1479739938503,128.218418485724
A39089903,청전2차주공아파트,4315011300,충청북도,제천시,청전동,,충청북도 제천시 청전동 646 청전2차주공아파트,분양,개별난방,18480.84,6,360.0,대한주택공사,대한주택공사,0436452515,cj2office@hanmail.net,아파트,충청북도 제천시 고암로 22,자치관리,계단식,19911109,0436452516,360,18480.84,360.0,0.0,0.0,0.0,14951.52,6,6,0,0,27147,37.1543064376703,128.216444278265
A39011001,로즈웰모산힐아파트,4315011400,충청북도,제천시,모산동,,충청북도 제천시 모산동 543-9 로즈웰모산힐아파트,분양,개별난방,23606.71,2,180.0,SK하우징(주),SK하우징(주),0436489339,,아파트,충청북도 제천시 신죽하로 165,위탁관리,계단식,20030523,0436489339,180,20251.38,0.0,180.0,0.0,0.0,15291.456,15,15,0,6,27146,37.1598854760105,128.212459173724
A10022018,홍인아파트,4315011500,충청북도,제천시,고암동,,충청북도 제천시 고암동 1169-7 홍인아파트,분양,개별난방,9894.0,1,115.0,홍인,아시아시멘트 주택조합,0436462327,,아파트,충청북도 제천시 용두천로 394,자치관리,계단식,19920401,,114,9793.618,40.0,75.0,0.0,0.0,8137.2,1,5,0,0,,37.1600775241347,128.216972533098
A10026589,고암오네뜨프라임아파트,4315011500,충청북도,제천시,고암동,,충청북도 제천시 고암동 1268 고암오네뜨프라임아파트,분양,개별난방,58834.523,7,596.0,남해종합건설,한국자산신탁,0436421122,honnete.apti.co.kr,아파트,충청북도 제천시 신죽하로 83-20,위탁관리,계단식,20171221,0436521123,599,51784.258,518.0,78.0,0.0,0.0,36966.7929,20,20,0,19,27145,37.1595411896073,128.220298587156
A39075903,고암주공,4315011500,충청북도,제천시,고암동,,충청북도 제천시 고암동 1250 고암주공,분양,개별난방,24267.23,14,500.0,대한주택공사,대한주택공사,0436426341,www.raybol.net,아파트,충청북도 제천시 고암로14길 13,자치관리,계단식,19860204,0436436341,500,24117.2,500.0,0.0,0.0,0.0,21414.6,5,5,0,0,27146,37.1581418140368,128.215989145355
A39076004,고암두진백로,4315011500,충청북도,제천시,고암동,,충청북도 제천시 고암동 1101 고암두진백로,분양,개별난방,76706.23,7,866.0,두진공영,두진공영,0436486540,고암두진백로.apti.co.kr,아파트,충청북도 제천시 용두천로 384,위탁관리,혼합식,19971024,0436486541,866,66738.56,690.0,176.0,0.0,0.0,52513.8,15,15,1,29,27145,37.1591759833094,128.218033376527
A39076005,보미파란채,4315011500,충청북도,제천시,고암동,,충청북도 제천시 고암동 1254 보미파란채,분양,개별난방,53994.047,6,378.0,(주)보미종합건설,현주개발(주),0436515577,,아파트,충청북도 제천시 용두천로46길 12,위탁관리,계단식,20091008,0436515582,378,47346.848,0.0,299.0,49.0,30.0,35982.431,15,15,1,11,27145,37.1575526083001,128.219071008021
A39076006,고암두진백로4차아파트,4315011500,충청북도,제천시,고암동,,충청북도 제천시 고암동 1142 고암두진백로4차아파트,분양,개별난방,19344.35,1,237.0,(주)두진,(주)두진,0436520095,고암두진4차.apti.co.kr,주상복합,충청북도 제천시 용두천로 378,위탁관리,복도식,20000531,0436528095,237,12068.703,237.0,0.0,0.0,0.0,7821,14,14,2,4,27145,37.1584138980503,128.217175733576
A39089101,고암부강,4315011500,충청북도,제천시,고암동,,충청북도 제천시 고암동 1163-1 고암부강,분양,개별난방,25472.25,7,305.0,부강건설,부강건설,0436437791,,아파트,충청북도 제천시 고암로 88,위탁관리,계단식,19881122,0436437792,305,25472.25,305.0,0.0,0.0,0.0,18032.797,5,5,0,0,27146,37.1596596738232,128.215468040518
A39089102,고암금용아파트,4315011500,충청북도,제천시,고암동,,충청북도 제천시 고암동 1129-1 고암금용아파트,분양,개별난방,38760.0,3,370.0,금용건설(주),금용건설,0436462089,없음,아파트,충청북도 제천시 용두천로44길 5,위탁관리,혼합식,19930705,0436472089,370,38128.95,134.0,184.0,0.0,52.0,29693.67,15,15,1,11,27145,37.1575385533608,128.218037046953
A10020426,세영리첼에듀퍼스트아파트,4315011600,충청북도,제천시,장락동,,충청북도 제천시 장락동 1060- 세영리첼에듀퍼스트아파트,분양,개별난방,105288.39,7,564.0,에쓰와이이앤씨(주),(주)삼태사,0436513027,,아파트,충청북도 제천시 용두천로44길 50,위탁관리,계단식,20250915,0436513028,564,62038.453,0.0,564.0,0.0,0.0,47902.4752,23,23,5,0,,37.1553595645097,128.222237656278
A10021162,이편한세상제천더프라임아파트,4315011600,충청북도,제천시,장락동,,충청북도 제천시 장락동 1059- 이편한세상제천더프라임아파트,분양,개별난방,108556.62,6,630.0,DL 건설,하나자산신탁,0436420511,,아파트,충청북도 제천시 내토로63길 13,위탁관리,계단식,20241115,0436420512,630,72347.94,0.0,538.0,92.0,0.0,56458.6254,29,29,2,14,,37.1543581599218,128.227583829863
A10025788,제천장락엘크루힐즈아파트,4315011600,충청북도,제천시,장락동,,충청북도 제천시 장락동 674-1 제천장락엘크루힐즈아파트,분양,개별난방,41035.09,5,310.0,대우조선해양건설(주),대한토지신탁(주),0437567075,,아파트,충청북도 제천시 내제로 339,위탁관리,계단식,20180629,0437567085,310,31747.13,0.0,310.0,0.0,0.0,48218.76,15,15,2,14,27150,37.1461635191407,128.22270485833
A10026836,신안실크밸리스카이시티아파트,4315011600,충청북도,제천시,장락동,,충청북도 제천시 장락동 1050 신안실크밸리스카이시티아파트,분양,개별난방,120252.0,7,790.0,신안건설산업(주),신안건설산업(주),0436516002,,아파트,충청북도 제천시 내토로59길 31,위탁관리,계단식,20170703,0436526002,790,73727.04,0.0,790.0,0.0,0.0,51347.0139,36,36,3,18,27149,37.1527771927449,128.223931925317
A39075111,제천장락1,4315011600,충청북도,제천시,장락동,,충청북도 제천시 장락동 1029 제천장락1,임대,중앙난방,72902.38,10,920.0,한국토지주택공사,한국토지주택공사,0436458386,www.kohom.or.kr,아파트,충청북도 제천시 죽하로 30,위탁관리,복도식,19990607,0436458387,920,72333.45,920.0,0.0,0.0,0.0,44776.77,15,15,0,10,27149,37.154415345964,128.224547278126
A39075307,장락주공2단지아파트,4315011600,충청북도,제천시,장락동,,충청북도 제천시 장락동 1026 장락주공2단지아파트,분양,개별난방,56129.68,9,714.0,토지주택공사,신일,0436488347,장락주공2단지.apti.co.kr,아파트,충청북도 제천시 죽하로 48,위탁관리,혼합식,19990531,0436488348,714,54695.77,714.0,0.0,0.0,0.0,36555.31,15,15,1,12,27142,37.1563475173408,128.225325787609
A39075406,장락주공3단지아파트,4315011600,충청북도,제천시,장락동,,충청북도 제천시 장락동 1040 장락주공3단지아파트,임대,개별난방,37866.344,6,508.0,신도산업개발,LH,0436430886,https://xn--3-2c6er1n87e3oy30bkwb.apti.co.kr/aptHome/subpage/Default.asp?cate_code=AAGL,아파트,충청북도 제천시 장락로 130,위탁관리,계단식,20050530,0436430887,508,37653.28,508.0,0.0,0.0,0.0,28369.82,15,15,0,18,27149,37.1532627169027,128.226705452786
A39075503,장락주공4단지,4315011600,충청북도,제천시,장락동,,충청북도 제천시 장락동 1043 장락주공4단지,임대,개별난방,19396.424,2,332.0,세계토건,LH,0436481136,장락주공4.apti.co.kr/,아파트,충청북도 제천시 내토로59길 7,위탁관리,복도식,20051019,0436481137,332,19154.914,332.0,0.0,0.0,0.0,13189.32,15,15,0,0,27149,37.1520235517334,128.226715711547
A39076605,미림청솔아파트,4315011600,충청북도,제천시,장락동,,충청북도 제천시 장락동 637-7 미림청솔아파트,분양,개별난방,33415.0,4,449.0,(주)미림건설,(주)미림건설,0436462055,제천미림청솔.apti.co.kr/default.asp,아파트,충청북도 제천시 청전대로 211,위탁관리,복도식,19951128,0436462056,449,32654.693,449.0,0.0,0.0,0.0,22346.73,15,15,0,7,27148,37.1527152496146,128.221596025275
A39076609,장락로즈웰아파트,4315011600,충청북도,제천시,장락동,,충청북도 제천시 장락동 536-4 장락로즈웰아파트,분양,개별난방,34537.363,2,253.0,에스케이하우징(주),선광건설(주),0436527188,로즈웰.apti.co.kr,아파트,충청북도 제천시 장락로 169,위탁관리,계단식,20010710,0436527189,253,31407.578,0.0,193.0,60.0,0.0,23059.33,15,15,1,9,27142,37.1576169131122,128.226504065453
A39076610,제천장락롯데캐슬아파트,4315011600,충청북도,제천시,장락동,,충청북도 제천시 장락동 1046 제천장락롯데캐슬아파트,분양,개별난방,57220.68,6,342.0,KB부동산신탁,롯데건설,0436535331,제천롯데캐슬.apti.co.kr,아파트,충청북도 제천시 신죽하로 83-24,위탁관리,계단식,20081120,0436535332,342,45552.66,0.0,171.0,143.0,28.0,35238.83,15,15,1,10,27144,37.1585375188685,128.222470739462
A39089401,장락파라디아아파트,4315011600,충청북도,제천시,장락동,,충청북도 제천시 장락동 325 장락파라디아아파트,분양,개별난방,38380.85,3,213.0,(주)파라다이스건축,(주)알에스플레닝,0436514900,,아파트,충청북도 제천시 내토로57길 19,위탁관리,계단식,20080611,0436514901,213,31616.102,0.0,86.0,53.0,74.0,24424.0458,20,20,1,7,27150,37.1493475217662,128.224158939673
A39089402,천일베리굿아파트,4315011600,충청북도,제천시,장락동,,충청북도 제천시 장락동 460 천일베리굿아파트,분양,개별난방,29569.97,3,266.0,천일건설(주),천일건설(주),0436424680,천일베리굿.apti.co.kr,아파트,충청북도 제천시 내토로65길 17,위탁관리,계단식,20030731,0436424681,266,21090.021,60.0,206.0,0.0,0.0,21090.022,15,15,0,9,27142,37.1560159083717,128.227593074705
A39089404,장락e-편한세상아파트,4315011600,충청북도,제천시,장락동,,충청북도 제천시 장락동 678 장락e-편한세상아파트,분양,개별난방,59887.43,9,378.0,(주) 삼호,현주건설,0436512626,,아파트,충청북도 제천시 장락로 62,위탁관리,계단식,20070726,0436512625,378,51403.83,0.0,159.0,195.0,24.0,40401.324,15,15,1,15,27150,37.1474354843939,128.223436463435
A10020983,화성1차아파트,4315012000,충청북도,제천시,신백동,,충청북도 제천시 신백동 201-1 화성1차아파트,분양,개별난방,133339.8,1,226.0,화성건설,화성건설,0436420065,,아파트,충청북도 제천시 신백로14길 9,자치관리,계단식,19880825,0436420065,226,13339.8,226.0,0.0,0.0,0.0,10031.04,1,5,0,0,,37.1313973283928,128.225738506051
A39076206,신백덕일한마음1차아파트,4315012000,충청북도,제천시,신백동,,충청북도 제천시 신백동 110 신백덕일한마음1차아파트,분양,개별난방,66061.0,6,805.0,덕일건설,덕일건설,0436462053,,아파트,충청북도 제천시 탑안로4길 11,위탁관리,혼합식,19960913,0436462054,805,60925.41,805.0,0.0,0.0,0.0,46773.83,14,14,0,27,27178,37.1353918826209,128.227798129437
A39076301,신백덕일한마음2차아파트,4315012000,충청북도,제천시,신백동,,충청북도 제천시 신백동 134 신백덕일한마음2차아파트,분양,개별난방,28051.375,4,308.0,덕일건설(주),덕일건설(주),0436527889,,아파트,충청북도 제천시 의병대로35길 28,위탁관리,계단식,20000724,0436464217,308,23417.24,308.0,0.0,0.0,0.0,18317.94,15,15,1,12,27178,37.1349390435168,128.226770776429
A39076405,신백로즈웰아파트,4315012000,충청북도,제천시,신백동,,충청북도 제천시 신백동 209-8 신백로즈웰아파트,분양,개별난방,43692.32,4,698.0,선광건설,선광건설,0436524161,신백로즈웰.apti.co.kr,아파트,충청북도 제천시 신백로 30,위탁관리,혼합식,20000620,0436524162,698,43410.12,698.0,0.0,0.0,0.0,30436.3,15,15,0,11,27180,37.1279740471073,128.224910343041
A39076503,신백화성2차아파트,4315012000,충청북도,제천시,신백동,,충청북도 제천시 신백동 198-3 신백화성2차아파트,분양,개별난방,25783.56,8,420.0,화성주택,화성주택,0436461867,https://제천화성2차.apti.co.kr,아파트,충청북도 제천시 신백로14길 21,자치관리,계단식,19920201,0436461868,420,25783.56,420.0,0.0,0.0,0.0,19013.76,5,5,0,0,27179,37.131245766417,128.227437537096
A39089202,제천장미아파트,4315012000,충청북도,제천시,신백동,,충청북도 제천시 신백동 205-5 제천장미아파트,분양,개별난방,31011.0,1,330.0,문영건설(주),문영건설(주),0436468220,,아파트,충청북도 제천시 의병대로36길 28,위탁관리,복도식,19940809,0436468221,330,27274.5,330.0,0.0,0.0,0.0,19714.2,15,15,1,4,27179,37.1297719467734,128.226884842773
A39089304,제천극동아파트,4315012000,충청북도,제천시,신백동,,충청북도 제천시 신백동 208-5 제천극동아파트,분양,개별난방,68908.0,9,653.0,극동건설,대한제지,0436453826,,아파트,충청북도 제천시 관전로1길 35,위탁관리,계단식,19930917,0436453827,653,64046.83,113.0,540.0,0.0,0.0,51202.13,15,15,0,26,27180,37.1290305765074,128.227409182554
A10026824,제천강저롯데캐슬프리미어아파트,4315012100,충청북도,제천시,강제동,,충청북도 제천시 강제동 844 제천강저롯데캐슬프리미어아파트,분양,개별난방,100488.47,12,863.0,(주)롯데건설,하나자산신탁,0436539537,raybol.net/c00063,아파트,충청북도 제천시 청풍호로10길 53,위탁관리,계단식,20170829,0436539538,863,86769.89,0.0,863.0,0.0,0.0,65090.838,20,20,1,23,27192,37.1215159434395,128.196776644004
A10027444,센트럴코아루,4315012100,충청북도,제천시,강제동,,충청북도 제천시 강제동 805 센트럴코아루,분양,개별난방,55931.53,6,493.0,이테크건설,한국토지신탁,0436458809,www.raybol.net/C00062,아파트,충청북도 제천시 강저로11나길 13,위탁관리,계단식,20160629,0436458810,493,55931.516,0.0,493.0,0.0,0.0,37272.8797,20,20,1,13,27201,37.1205258951243,128.202831852253
A10027946,강저코아루파크아파트,4315012100,충청북도,제천시,강제동,,충청북도 제천시 강제동 903 강저코아루파크아파트,분양,개별난방,49783.25,6,422.0,이테크건설(주),한국토지신탁(주),0436438033,강저코아루파크.apti.co.kr,아파트,충청북도 제천시 청풍호로10길 31,위탁관리,계단식,20150529,0436438034,422,43935.684,0.0,422.0,0.0,0.0,33758.66,19,19,1,12,27192,37.1198955927691,128.198343783304
A39016001,강저휴먼시아3단지,4315012100,충청북도,제천시,강제동,,충청북도 제천시 강제동 898 강저휴먼시아3단지,임대,개별난방,56722.656,9,800.0,이수건설(주),한국토지주택공사,0436539002,www.jecheonapt.kr/kangjeo3,아파트,충청북도 제천시 청풍호로10길 16,위탁관리,복도식,20101203,0436539003,800,56722.535,800.0,0.0,0.0,0.0,32873.13,15,15,1,19,27192,37.1207798484005,128.200400456277
A39016002,강저휴먼시아2단지,4315012100,충청북도,제천시,강제동,,충청북도 제천시 강제동 729 강저휴먼시아2단지,임대,개별난방,32930.14,5,498.0,한국토지주택공사,한국토지주택공사,0436448558,https://xn--2-9y5ew4pm6hp9kvsd63ft4dpy5b.apti.co.kr/aptHome/,아파트,충청북도 제천시 청풍호로7길 110,위탁관리,복도식,20110711,0436448668,498,32930.047,498.0,0.0,0.0,0.0,20064.9,15,15,0,0,27200,37.1216200896811,128.206855576219
A10026271,제천 왕암 코아루드림,4315012400,충청북도,제천시,왕암동,,충청북도 제천시 왕암동 779 제천 왕암 코아루드림,분양,개별난방,78116.42,11,749.0,금강종합건설(주),한국토지신탁,0436424943,,아파트,충청북도 제천시 바이오밸리로 171,위탁관리,계단식,20180426,0436424945,749,63068.094,0.0,749.0,0.0,0.0,45751.5329,15,15,1,25,27159,37.1552382137753,128.168647430115
A39025001,제천현진에버빌,4315012400,충청북도,제천시,왕암동,,충청북도 제천시 왕암동 905 제천현진에버빌,분양,개별난방,54910.0,6,377.0,(주)현진에버빌,(주)현진에버빌,0436511033,제천현진에버빌.apti.co.kr,아파트,충청북도 제천시 바이오밸리로 202,위탁관리,계단식,20070727,0436421033,377,42795.773,0.0,347.0,30.0,0.0,30730.1012,15,15,0,13,27159,37.1553319831105,128.172626682315
A10025568,제천 신원아침도시더퍼스트아파트,4315012500,충청북도,제천시,천남동,,충청북도 제천시 천남동 9 제천 신원아침도시더퍼스트아파트,분양,개별난방,66431.62,5,492.0,신원종합개발(주),천남지역주택조합,0436536070,www.apti.co.kr,아파트,충청북도 제천시 원뜰로 25,위탁관리,계단식,20200110,0436536072,492,50083.195,81.0,411.0,0.0,0.0,37914.9663,25,25,2,13,27188,37.1326633328643,128.194336688165
A39013001,제천코아루,4315012500,충청북도,제천시,천남동,,충청북도 제천시 천남동 9-10 제천코아루,분양,개별난방,54685.0,6,318.0,대한토지신탁,사업자등록번호 선택,0436460941,제천코아루.APTI.co.kr,아파트,충청북도 제천시 원뜰로 14,위탁관리,계단식,20051230,0436480941,318,46590.0,0.0,138.0,150.0,30.0,36640.6098,15,15,1,11,27187,37.131515245755,128.195777622675
A39087501,봉양중앙아파트,4315025021,충청북도,제천시,봉양읍,주포리,충청북도 제천시 봉양읍 주포리 235 봉양중앙아파트,분양,개별난방,40793.56,4,447.0,중앙공영,중앙공영,0436479464,봉양중앙아파트.apti.co.kr/,아파트,충청북도 제천시 제원로2길 7,위탁관리,혼합식,19940207,0436459464,447,39894.12,213.0,234.0,0.0,0.0,31491.56,15,15,0,14,27114,37.1339010190962,128.12730935836
A39087402,미당한마음아파트,4315025023,충청북도,제천시,봉양읍,미당리,충청북도 제천시 봉양읍 미당리 820 미당한마음아파트,분양,개별난방,38834.816,4,495.0,(주)한마음 산업개발,(주)한마음 산업개발,0436515424,midang7.hanmail.net,아파트,충청북도 제천시 용두대로36길 5-12,위탁관리,계단식,20041231,0436515425,495,37636.383,495.0,0.0,0.0,0.0,29474.775,15,15,0,17,27109,37.1579192340898,128.15840842683
