kaptCode,kaptName,bjdCode,as1,as2,as3,as4,kaptAddr,codeSaleNm,codeHeatNm,kaptTarea,kaptDongCnt,kaptdaCnt,kaptBcompany,kaptAcompany,kaptTel,kaptUrl,codeAptNm,doroJuso,codeMgrNm,codeHallNm,kaptUsedate,kaptFax,hoCnt,kaptMarea,kaptMparea60,kaptMparea85,kaptMparea135,kaptMparea136,privArea,kaptTopFloor,ktownFlrNo,kaptBaseFloor,kaptdEcntp,zipcode,위도,경도
A31409001,교동대우,4415010600,충청남도,공주시,교동,,충청남도 공주시 교동 167-1 교동대우,분양,개별난방,34197.625,4,295.0,(주)대우건설,(주)신풍건설,0418560508,,아파트,충청남도 공주시 무령로 169-5,위탁관리,계단식,19990729,0418560556,295,27086.678,149.0,111.0,35.0,0.0,22426.639,20,20,2,8,32542,36.4569545249446,127.118728456077
A10026981,금성백조예미지아파트,4415010700,충청남도,공주시,웅진동,,충청남도 공주시 웅진동 771 금성백조예미지아파트,분양,개별난방,49602.0,8,423.0,(주)금성백조주택,명진건설산업(주),0418818782,,아파트,충청남도 공주시 웅진절골3길 38,위탁관리,계단식,20170427,0418818784,423,34425.562,423.0,0.0,0.0,0.0,25314.7023,15,15,2,15,32543,36.4551630869934,127.108815055515
A31402002,공주 청실아파트,4415010700,충청남도,공주시,웅진동,,충청남도 공주시 웅진동 242-2 공주 청실아파트,분양,개별난방,23671.24,4,240.0,배원건설,배원건설,0418561966,,아파트,충청남도 공주시 백제문화로 2151,자치관리,계단식,19931217,0418561966,240,23671.2,160.0,20.0,40.0,20.0,19068.2,10,10,1,12,32543,36.457507048474,127.108481984967
A10022639,공주 대웅 맨션,4415010900,충청남도,공주시,옥룡동,,충청남도 공주시 옥룡동 56-5 공주 대웅 맨션,분양,개별난방,11650.0,5,170.0,알수없음,알수없음,0418528161,없음,아파트,충청남도 공주시 월성산1길 19-2,자치관리,계단식,19861209,0418568161,170,11649.6,0.0,170.0,0.0,0.0,11649.6,5,5,0,0,32558,36.4544815580639,127.136110985464
A31404005,공주옥룡1,4415010900,충청남도,공주시,옥룡동,,충청남도 공주시 옥룡동 123 공주옥룡1,임대,중앙난방,27794.59,3,589.0,대아건설,한국토지주택공사,0418565898,kohom.co.kr,아파트,충청남도 공주시 우금티로 709-12,위탁관리(직영+위탁),복도식,19930518,0418563812,592,24397.33,589.0,0.0,0.0,0.0,16269.48,15,15,0,8,32559,36.4482702488117,127.134147445055
A31480401,덕성그린타운,4415010900,충청남도,공주시,옥룡동,,충청남도 공주시 옥룡동 93 덕성그린타운,분양,개별난방,27027.0,2,265.0,덕성건설,덕성건설,0418530751,,아파트,충청남도 공주시 우금티로 704,위탁관리,혼합식,19950622,0418580751,265,22953.12,107.0,158.0,0.0,0.0,18529.66,18,18,1,7,32558,36.4479968145157,127.136392458379
A31480406,옥룡주공2단지,4415010900,충청남도,공주시,옥룡동,,충청남도 공주시 옥룡동 103 옥룡주공2단지,분양,개별난방,40637.22,6,593.0,대한주택공사,대한주택공사,0418550376,옥룡주공2단지.apti.co.kr,아파트,충청남도 공주시 우금티로 709-11,위탁관리,복도식,19940805,0418579449,593,39519.215,593.0,0.0,0.0,0.0,28644.45,15,15,0,8,32559,36.4473968034631,127.134099093321
A31408002,공주금학e편한세상,4415011000,충청남도,공주시,금학동,,충청남도 공주시 금학동 389 공주금학e편한세상,분양,개별난방,82212.0,9,476.0,(주) 삼호,수석산업개발(주),0418569966,금학이편한세상.apti.co.kr.,아파트,충청남도 공주시 우금티로 580,위탁관리,계단식,20081218,0418569965,476,61837.22,0.0,351.0,64.0,61.0,46836.7419,20,20,3,14,32603,36.4424734438473,127.12377122692
A10022858,화성파크드림 공주월송,4415011900,충청남도,공주시,월송동,,충청남도 공주시 월송동 669 화성파크드림 공주월송,분양,개별난방,48781.027,4,303.0,(주)화성개발,(주)화성개발,0418539901,,아파트,충청남도 공주시 무령로 600-26,위탁관리,계단식,20231221,0418539902,303,33655.848,0.0,303.0,0.0,0.0,25747.0917,20,20,1,9,32594,36.4744529362017,127.154548697415
A10023753,공주월송LH천년나무4단지,4415011900,충청남도,공주시,월송동,,충청남도 공주시 월송동 671 공주월송LH천년나무4단지,임대,개별난방,55803.0,8,820.0,남양건설,LH 한국토지주택공사,0418530821,www.공주월송LH천년나무4단지.apti.co.kr,아파트,충청남도 공주시 무령로 550-39,위탁관리,혼합식,20220826,0418530822,821,55451.34,820.0,0.0,0.0,0.0,27732.14,16,16,1,0,32594,36.4723677364029,127.151386886616
A10025859,NHF공주월송2단지아파트,4415011900,충청남도,공주시,월송동,,충청남도 공주시 월송동 618 NHF공주월송2단지아파트,분양,개별난방,78920.67,7,671.0,양우건설,(주)NHF제7호공공임대위탁관리부동산투자회사,0418580998,월송2단지관리사무소.apti.co.kr,아파트,충청남도 공주시 무령로 600-85,위탁관리,계단식,20181105,0418580997,671,78920.555,539.0,132.0,0.0,0.0,42567.17,24,24,2,18,32594,36.4775508377446,127.15581108274
A10026615,공주월송LH천년나무3단지아파트,4415011900,충청남도,공주시,월송동,,충청남도 공주시 월송동 619 공주월송LH천년나무3단지아파트,임대,개별난방,43239.0,4,788.0,(주)서한,한국토지주택공사,0418541300,월송천년나무3단지.apti.co.kr,아파트,충청남도 공주시 무령로 600-25,위탁관리,복도식,20171031,0418541301,788,43070.277,788.0,0.0,0.0,0.0,24218.64,21,21,1,13,32594,36.4757747790407,127.155712012058
A10020487,유진한아름아파트,4415012000,충청남도,공주시,신관동,,충청남도 공주시 신관동 475-2 유진한아름아파트,분양,개별난방,11729686.0,1,105.0,유진건설주식회사,유진건설주식회사,0418560663,,아파트,충청남도 공주시 의당로 3-8,자치관리,계단식,19940416,0418560664,105,9270.45,45.0,30.0,30.0,0.0,9270.45,15,15,0,3,,36.4727614987546,127.128275053814
A10020519,신라아파트,4415012000,충청남도,공주시,신관동,,충청남도 공주시 신관동 312-23 신라아파트,분양,개별난방,8558.0,3,110.0,아도건축,아도건축,0418530761,,아파트,충청남도 공주시 한적1길 8-31,자치관리,계단식,19891228,0418530761,110,8390.0,0.0,90.0,20.0,0.0,7904.4,5,5,0,0,,36.4761699107204,127.138091355436
A10020616,이솔아파트,4415012000,충청남도,공주시,신관동,,충청남도 공주시 신관동 276-9 이솔아파트,분양,지역난방,12080.518,1,120.0,신원건설(주),거송산업(주),0418810880,,아파트,충청남도 공주시 신금2길 38-36,자치관리(직영),복도식,20030821,0418580882,120,9677.928,120.0,0.0,0.0,0.0,7091.664,15,15,2,0,,36.4740764490475,127.143866865044
A10020619,덕성아파트,4415012000,충청남도,공주시,신관동,,충청남도 공주시 신관동 340-10 덕성아파트,분양,개별난방,10340.148,1,105.0,덕성건설,덕성건설,0418564300,,아파트,충청남도 공주시 관골1길 49-3,자치관리,계단식,19921126,0418574301,105,10340.148,45.0,30.0,30.0,0.0,8971.95,1,15,0,3,,36.4745521051346,127.133695516383
A10020667,신관주공2단지아파트,4415012000,충청남도,공주시,신관동,,충청남도 공주시 신관동 285-2 신관주공2단지아파트,분양,개별난방,14833.3,1,280.0,LH,LH,0418556502,,아파트,충청남도 공주시 신금1길 10,자치관리,계단식,19880425,0418566503,280,14833.3,280.0,0.0,0.0,0.0,13197.7,1,5,0,0,,36.476207036234,127.141782173735
A10020669,주공1단지아파트,4415012000,충청남도,공주시,신관동,,충청남도 공주시 신관동 255-3 주공1단지아파트,분양,개별난방,15164.93,1,240.0,LH,LH,0418557356,,아파트,충청남도 공주시 번영1로 77-8,자치관리,계단식,19850326,0418567357,240,14703.0,210.0,30.0,0.0,0.0,13421.82,5,5,0,0,,36.474509113864,127.135934326836
A10026177,코아루센트럴파크,4415012000,충청남도,공주시,신관동,,충청남도 공주시 신관동 690 코아루센트럴파크,분양,개별난방,91287.086,14,722.0,(주)신태양건설,한국토지신탁,0414152215,kcentralpark.com,아파트,충청남도 공주시 관골1길 7,위탁관리,계단식,20180703,0414152216,722,70310.63,300.0,422.0,0.0,0.0,53693.73,20,20,3,19,32571,36.4735752560351,127.130264085218
A10026949,공주 효성해링턴플레이스 아파트,4415012000,충청남도,공주시,신관동,,충청남도 공주시 신관동 686 공주 효성해링턴플레이스 아파트,분양,개별난방,57276.26,5,475.0,효성건설(주),아시아신탁(주),0418819596,http://gjhhp.ezville.net/,아파트,충청남도 공주시 관골2길 35,위탁관리,계단식,20170628,0418549596,475,42211.984,289.0,186.0,0.0,0.0,31567.615,23,23,2,10,32571,36.4760220731724,127.132407909964
A31470119,삼환나우빌,4415012000,충청남도,공주시,신관동,,충청남도 공주시 신관동 679 삼환나우빌,분양,개별난방,49040.5,6,389.0,삼환까뮤,대윤P&D,0418544700,,아파트,충청남도 공주시 관골1길 31-8,위탁관리,계단식,20090501,0418544701,389,49040.5,0.0,269.0,94.0,26.0,37833.629,15,15,2,15,32571,36.4741641635194,127.132069336864
A31470120,공주신관6,4415012000,충청남도,공주시,신관동,,충청남도 공주시 신관동 683 공주신관6,임대,개별난방,38001.703,5,517.0,티이씨건설,한국토지주택공사,0418585600,www.kohom.co.kr,아파트,충청남도 공주시 관골2길 34,위탁관리,혼합식,20090910,0418585611,517,37766.766,517.0,0.0,0.0,0.0,21996.87,15,15,1,0,32570,36.475881067705,127.134239648713
A31480203,대아곰나루,4415012000,충청남도,공주시,신관동,,충청남도 공주시 신관동 5 대아곰나루,분양,개별난방,42490.0,4,472.0,대아건설,경남기업,0418537225,,아파트,충청남도 공주시 신금2길 47-1,위탁관리,혼합식,19960530,0418817226,472,42489.84,240.0,232.0,0.0,0.0,32799.68,15,15,0,12,32580,36.4725585520317,127.146664240434
A31480204,공주 대아2차 아이투빌,4415012000,충청남도,공주시,신관동,,충청남도 공주시 신관동 5-7 공주 대아2차 아이투빌,분양,개별난방,76343.8,9,719.0,대아건설,대아건설,0418810153,,아파트,충청남도 공주시 번영1로 194-7,위탁관리,계단식,20021130,0418810154,719,60881.96,0.0,719.0,0.0,0.0,60882.3371,21,21,1,23,32580,36.4718590903583,127.145765279571
A31480208,현대힐스테이트5차,4415012000,충청남도,공주시,신관동,,충청남도 공주시 신관동 668 현대힐스테이트5차,분양,개별난방,45750.0,8,306.0,현대건설,(주)로이앤디,0418811462,https://공주힐스테이트.apti.co.kr,아파트,충청남도 공주시 신금2길 17,위탁관리,계단식,20060814,0418811463,306,38479.61,0.0,200.0,76.0,30.0,30418.57,15,15,0,11,32579,36.474518348049,127.14838126793
A31480210,"공주현대1,2차아파트",4415012000,충청남도,공주시,신관동,,"충청남도 공주시 신관동 177-1 공주현대1,2차아파트",분양,개별난방,44193.28,5,422.0,현대건설,현대건설,0418562108,공주현대1차.apti.co.kr,아파트,충청남도 공주시 공주대학로 23-4,위탁관리,계단식,19920715,0418562107,422,44193.28,0.0,422.0,0.0,0.0,35158.62,15,15,0,15,32586,36.4678845040132,127.13694900002
A31480211,공주 대동다숲 아파트,4415012000,충청남도,공주시,신관동,,충청남도 공주시 신관동 180-5 공주 대동다숲 아파트,분양,개별난방,48574.0,9,350.0,대동,한국토지신탁,0418580222,공주대동다숲.apti.co.kr,아파트,충청남도 공주시 공주대학로 49-5,위탁관리,계단식,20060316,0418580233,350,39163.86,0.0,322.0,0.0,28.0,30838.02,15,15,1,12,32587,36.4693610226586,127.136901611965
A31480214,공주 신관주공5단지 아파트,4415012000,충청남도,공주시,신관동,,충청남도 공주시 신관동 664 공주 신관주공5단지 아파트,분양,개별난방,38863.2,5,512.0,(주)범양건영,한국토지주택공사,0418810555,,아파트,충청남도 공주시 관골2길 24-29,위탁관리,계단식,20050718,0418810556,512,38861.18,512.0,0.0,0.0,0.0,28091.7,15,15,0,18,32570,36.4757620285312,127.136381844117
A31480215,공주 신관주공3단지아파트,4415012000,충청남도,공주시,신관동,,충청남도 공주시 신관동 24-64 공주 신관주공3단지아파트,분양,개별난방,35483.24,15,714.0,계룡건설,LH,0418533453,없음,아파트,충청남도 공주시 신금1길 30-3,위탁관리,계단식,19900613,0418572833,714,34728.42,714.0,0.0,0.0,0.0,30545.4,6,6,0,0,32578,36.4762009294663,127.144096860868
A31480217,새뜸현대아파트,4415012000,충청남도,공주시,신관동,,충청남도 공주시 신관동 1-22 새뜸현대아파트,분양,개별난방,69673.25,8,775.0,현대건설주식회사,현대건설주식회사,0418570701,stha.apti.co.kr,아파트,충청남도 공주시 신금1길 72,위탁관리,계단식,19960325,0418810701,775,69673.25,325.0,420.0,30.0,0.0,58587.25,15,15,0,26,32578,36.4765350578962,127.147507835396
A31480218,공주 신관주공4단지아파트,4415012000,충청남도,공주시,신관동,,충청남도 공주시 신관동 19 공주 신관주공4단지아파트,분양,개별난방,75494.625,11,838.0,LH,LH,0418547005,,아파트,충청남도 공주시 신금2길 48,위탁관리,계단식,19980514,0418569523,838,74887.58,838.0,0.0,0.0,0.0,49907.82,18,18,1,25,32580,36.473102587914,127.14466698739
A31480309,공주 한빛아파트,4415012000,충청남도,공주시,신관동,,충청남도 공주시 신관동 280-3 공주 한빛아파트,분양,개별난방,30920.21,6,312.0,한양산업개발,한양산업개발,0418561824,,아파트,충청남도 공주시 신금1길 62-15,자치관리,혼합식,19941022,0418541824,312,30235.2,168.0,120.0,24.0,0.0,23049.84,15,15,1,8,32578,36.4759566657253,127.145990875625
A31480313,덕성그린시티빌,4415012000,충청남도,공주시,신관동,,충청남도 공주시 신관동 336-9 덕성그린시티빌,임대,개별난방,32515.16,1,499.0,덕성건설(주),덕성건설(주),041-857-5300,,아파트,충청남도 공주시 관골2길 24-5,위탁관리(직영+위탁),복도식,19990211,0418575303,499,23259.8,499.0,0.0,0.0,0.0,19078.794,15,15,2,4,32570,36.4753048564872,127.133765879004
A10023277,공주금흥LH행복1단지,4415012100,충청남도,공주시,금흥동,,충청남도 공주시 금흥동 311-8 공주금흥LH행복1단지,임대,개별난방,11716833.0,2,200.0,만훈(주),LH,0418582242,www.apti.co.kr,아파트,,위탁관리,복도식,20230221,028582243,200,11716.833,200.0,0.0,0.0,0.0,11013.6,15,15,1,4,32566,36.4811778448021,127.142004368518
A10023480,공주지평더웰아파트,4415012100,충청남도,공주시,금흥동,,충청남도 공주시 금흥동 627 공주지평더웰아파트,분양,개별난방,56428.0,4,376.0,지평건설(주),지평건설(주),0418524798,공주월송지평더웰.apti.co.kr/aptHome/,아파트,충청남도 공주시 무령로 599-50,위탁관리,계단식,20221201,0418524790,376,41449.98,0.0,376.0,0.0,0.0,31269.999,20,20,1,11,32567,36.4798227902011,127.150588125141
A10025943,공주월송흥화하브아파트,4415012100,충청남도,공주시,금흥동,,충청남도 공주시 금흥동 628 공주월송흥화하브아파트,분양,개별난방,89124.625,6,562.0,(주)흥화,(주)흥화,0418520093,haav.aptner.com/,아파트,충청남도 공주시 무령로 599-40,위탁관리,계단식,20181101,0418520094,562,62918.375,0.0,562.0,0.0,0.0,46706.6828,20,20,1,13,32567,36.4784465131047,127.151177878628
A31414002,공주 현대4차아파트,4415012100,충청남도,공주시,금흥동,,충청남도 공주시 금흥동 259 공주 현대4차아파트,분양,개별난방,76917.37,6,644.0,현대건설,현대건설,0418810307,,아파트,충청남도 공주시 신금1길 98,위탁관리,계단식,19991001,0418810357,645,64907.188,96.0,372.0,176.0,0.0,55002.22,24,24,1,14,32579,36.4750989877397,127.149734865043
A31471501,우남퍼스트빌,4415012100,충청남도,공주시,금흥동,,충청남도 공주시 금흥동 602 우남퍼스트빌,분양,개별난방+기타,106948.4,9,622.0,(주)우남건설,(주)우남건설,0418570600,,아파트,충청남도 공주시 한적2길 51-14,위탁관리,계단식,20100901,0418570602,622,67678.414,163.0,395.0,60.0,4.0,49844.0259,18,18,2,18,32569,36.4795561001665,127.138723823059
A10021166,공주 유구 라트라움,4415025023,충청남도,공주시,유구읍,석남리,충청남도 공주시 유구읍 석남리 454- 공주 유구 라트라움,분양,개별난방,42213.23,4,286.0,천마종합건설,한국투자부동산신탁주식회사국투자부동산신탁주식회사,0418416117,,아파트,충청남도 공주시 석남외마루길 21,위탁관리,계단식,20240822,0418416118,286,31499.56,0.0,286.0,0.0,0.0,24299.0176,19,19,2,0,,36.5505092719301,126.949107300519
A10027020,탄천산단 주거복지센터,4415032024,충청남도,공주시,탄천면,안영리,충청남도 공주시 탄천면 안영리 829 탄천산단 주거복지센터,임대,개별난방,9604.14,1,156.0,금성건설,충청남도개발공사,0418568240,,연립주택,충청남도 공주시 탄천산업단지길 123-22,자치관리,복도식,20170310,0416317730,156,9414.6,156.0,0.0,0.0,0.0,4632.12,5,5,0,2,32610,36.3020581731032,127.061917239175
A31481301,공주 신한2차아파트,4415036026,충청남도,공주시,의당면,청룡리,충청남도 공주시 의당면 청룡리 641-3 공주 신한2차아파트,분양,개별난방,18500.0,4,250.0,신한건설,신한건설,0418525996,,아파트,충청남도 공주시 연수원길 116,위탁관리,복도식,19981029,,250,17639.674,250.0,0.0,0.0,0.0,14094.12,8,8,0,4,32589,36.4916390751939,127.148855877926
A31481303,신한1차아파트,4415036026,충청남도,공주시,의당면,청룡리,충청남도 공주시 의당면 청룡리 640-1 신한1차아파트,분양,개별난방,28419.0,6,496.0,(주)신한건설,(주)신한건설,0418557517,www.tlsgks.apti.co.kr,아파트,충청남도 공주시 연수원길 115-21,자치관리,복도식,19980107,05028553333,496,28418.56,496.0,0.0,0.0,0.0,21692.16,8,8,0,7,32589,36.4920672350347,127.147023221769
