kaptCode,kaptName,bjdCode,as1,as2,as3,as4,kaptAddr,codeSaleNm,codeHeatNm,kaptTarea,kaptDongCnt,kaptdaCnt,kaptBcompany,kaptAcompany,kaptTel,kaptUrl,codeAptNm,doroJuso,codeMgrNm,codeHallNm,kaptUsedate,kaptFax,hoCnt,kaptMarea,kaptMparea60,kaptMparea85,kaptMparea135,kaptMparea136,privArea,kaptTopFloor,ktownFlrNo,kaptBaseFloor,kaptdEcntp,zipcode,위도,경도
A10025845,엘에이치(LH)미디어촌 6단지 아파트,5115010100,강원특별자치도,강릉시,홍제동,,강원특별자치도 강릉시 홍제동 1044 엘에이치(LH)미디어촌 6단지 아파트,혼합,개별난방,129523.0,13,1144.0,KR산업,한국토지주택공사,0336426110,,아파트,강원특별자치도 강릉시 선수촌로 10,위탁관리,계단식,20181019,0336426111,1144,129229.586,1144.0,0.0,0.0,0.0,68544.33,25,25,1,29,25522,37.752803625158,128.867462355074
A10025849,미디어촌 LH5단지아파트,5115010100,강원특별자치도,강릉시,홍제동,,강원특별자치도 강릉시 홍제동 1039 미디어촌 LH5단지아파트,임대,개별난방,64291.37,5,1054.0,대창기업,한국토지주택공사,0336414734,,아파트,강원특별자치도 강릉시 선수촌로 11,위탁관리,복도식,20181109,0336414735,1057,64025.473,1054.0,0.0,0.0,0.0,33042.14,23,23,1,14,25522,37.7544790660027,128.867476456183
A10025924,강릉유천LH미디어촌7단지아파트,5115010100,강원특별자치도,강릉시,홍제동,,강원특별자치도 강릉시 홍제동 1043 강릉유천LH미디어촌7단지아파트,혼합,개별난방,49649.68,5,363.0,일성건설(주),한국토지주택공사 강원지역본부,0336455700,,아파트,강원특별자치도 강릉시 선수촌로 36,위탁관리,계단식,20181012,0336455704,363,49557.477,0.0,363.0,0.0,0.0,29048.58,22,22,1,10,25522,37.7537349043963,128.869383379466
A10027592,유천우미린아파트,5115010100,강원특별자치도,강릉시,홍제동,,강원특별자치도 강릉시 홍제동 1037 유천우미린아파트,분양,개별난방,72357.17,9,662.0,우미건설,서령개발,0336482348,,아파트,강원특별자치도 강릉시 선수촌로 55,위탁관리,계단식,20160212,0336482349,662,71297.42,0.0,662.0,0.0,0.0,55208.7864,20,20,1,17,25522,37.7559648959668,128.868267891331
A10027945,홍제한신휴플러스,5115010100,강원특별자치도,강릉시,홍제동,,강원특별자치도 강릉시 홍제동 1055 홍제한신휴플러스,분양,개별난방,50310.0,6,391.0,대한토지신탁(주),피앤씨건설,0336559091,,아파트,강원특별자치도 강릉시 토성로 100,위탁관리,계단식,20150724,0336559092,391,39183.395,158.0,233.0,0.0,0.0,29228.26,19,19,1,12,25535,37.750069646068,128.883298021651
A21001001,우산아파트,5115010100,강원특별자치도,강릉시,홍제동,,강원특별자치도 강릉시 홍제동 122 우산아파트,분양,개별난방,14419.097,1,182.0,우산건설(주),우산건설(주),0336470232,,아파트,강원특별자치도 강릉시 토성로 51,자치관리,복도식,19971213,0336470232,182,12694.34,171.0,11.0,0.0,0.0,9183.035,14,14,1,3,25536,37.751112849753,128.883499305117
A21094802,강릉홍제푸르지오,5115010100,강원특별자치도,강릉시,홍제동,,강원특별자치도 강릉시 홍제동 158 강릉홍제푸르지오,분양,개별난방,38335.816,6,273.0,대우건설,대우건설,0336417886,"Apti.co,kr",아파트,강원특별자치도 강릉시 홍제로71번길 1,위탁관리,계단식,20050930,0336417802,273,32217.42,0.0,159.0,114.0,0.0,25550.61,12,12,0,12,25526,37.7531313435025,128.883827895404
A21094903,홍제힐스테이트,5115010100,강원특별자치도,강릉시,홍제동,,강원특별자치도 강릉시 홍제동 1007 홍제힐스테이트,분양,개별난방,87654.79,7,493.0,현대건설(주),준흥건설(주),03306559530,홍제힐스테이트.apti.co.kr/,아파트,강원특별자치도 강릉시 토성로 39,위탁관리,혼합식,20070629,0336559531,493,66554.19,0.0,256.0,211.0,26.0,52717.438,15,15,1,12,25536,37.7508501270039,128.881798989849
A21002001,남문삼익아파트,5115010200,강원특별자치도,강릉시,남문동,,강원특별자치도 강릉시 남문동 183-2 남문삼익아파트,분양,개별난방,20027.8,2,156.0,삼익,삼익,0336476030,,아파트,강원특별자치도 강릉시 홍제로 7-13,위탁관리,계단식,19921214,0336476030,156,20027.8,0.0,104.0,26.0,26.0,16338.01,15,15,0,6,25537,37.7495428435297,128.885370155067
A10020364,강릉역경남아너스빌더센트로,5115011000,강원특별자치도,강릉시,교동,,강원특별자치도 강릉시 교동 2020- 강릉역경남아너스빌더센트로,분양,개별난방,75248.66,8,456.0,SM경남기업,강릉교동센트럴파크지역주택조합,0336513007,,아파트,강원특별자치도 강릉시 명륜로 85,위탁관리,계단식,20251029,0336513008,456,70701.52,345.0,111.0,0.0,0.0,30060.089,24,24,3,0,,37.767321303805,128.898554358834
A10020437,강릉교동아테라아파트,5115011000,강원특별자치도,강릉시,교동,,강원특별자치도 강릉시 교동 2003- 강릉교동아테라아파트,분양,개별난방,59885.684,4,346.0,주식회사금호건설,준씨엠에스,0336516881,,아파트,강원특별자치도 강릉시 노가니남길 25,위탁관리,계단식,20250624,0336516882,346,41956.0,0.0,245.0,101.0,0.0,32821.1701,20,20,2,13,,37.7722771597471,128.891730242023
A10021044,강릉롯데캐슬시그니처아파트,5115011000,강원특별자치도,강릉시,교동,,강원특별자치도 강릉시 교동 2000- 강릉롯데캐슬시그니처아파트,분양,개별난방,239411.4,11,1305.0,롯데건설,강릉교동홀딩스,0336442001,,아파트,강원특별자치도 강릉시 원대로 76,위탁관리,계단식,20241129,0336442009,1305,157634.56,0.0,1031.0,261.0,13.0,118695.9141,29,29,2,29,,37.7615674978464,128.883719420516
A10021138,교동하늘채스카이파크,5115011000,강원특별자치도,강릉시,교동,,강원특별자치도 강릉시 교동 1989- 교동하늘채스카이파크,분양,개별난방,117069.1,8,688.0,코오롱글로벌(주),한국자산신탁(주),0336539972,,아파트,강원특별자치도 강릉시 가작로 240,위탁관리,계단식,20241118,0336539973,688,116510.78,0.0,646.0,37.0,5.0,59717.857,25,25,4,17,,37.7691906549366,128.899916637624
A10026838,풍림아이원 아파트,5115011000,강원특별자치도,강릉시,교동,,강원특별자치도 강릉시 교동 1984 풍림아이원 아파트,분양,개별난방,27250.0,3,194.0,풍림산업(주),티엔에스(주),0336480660,,아파트,강원특별자치도 강릉시 화부산로40번길 29,위탁관리,계단식,20170728,0336480661,194,20831.72,0.0,194.0,0.0,0.0,15503.5064,20,20,2,6,25502,37.7612636056827,128.889774222437
A21000301,교동2주공아파트,5115011000,강원특별자치도,강릉시,교동,,강원특별자치도 강릉시 교동 1748 교동2주공아파트,임대,개별난방,51226.0,8,688.0,파라다이스건설,한국토지주택공사,0336444417,www.lohom.or.kr,아파트,강원특별자치도 강릉시 가작로 85,위탁관리,혼합식,20020513,0336444418,688,50972.125,688.0,0.0,0.0,0.0,36827.02,15,15,0,17,25494,37.769450592081,128.885633838595
A21000302,강릉롯데캐슬2단지아파트,5115011000,강원특별자치도,강릉시,교동,,강원특별자치도 강릉시 교동 1983 강릉롯데캐슬2단지아파트,분양,개별난방,51528.0,4,295.0,롯데건설,대한토지신탁,0336559892,,아파트,강원특별자치도 강릉시 화부산로111번길 24,위탁관리(직영+위탁),계단식,20091228,0336429892,295,41681.2,0.0,90.0,85.0,120.0,33896.622,15,15,1,10,25497,37.7671102262439,128.890078964442
A21000303,강릉교동롯데캐슬1단지,5115011000,강원특별자치도,강릉시,교동,,강원특별자치도 강릉시 교동 1982 강릉교동롯데캐슬1단지,분양,개별난방,59992.95,4,286.0,롯데건설,대한토지신탁(주),0336446969,,아파트,강원특별자치도 강릉시 화부산로99번길 12,위탁관리,계단식,20091221,0336430220,286,49767.38,0.0,30.0,0.0,256.0,41799.3724,15,15,1,0,25497,37.7661113945846,128.888296894541
A21010001,교동e-편한세상,5115011000,강원특별자치도,강릉시,교동,,강원특별자치도 강릉시 교동 357 교동e-편한세상,분양,개별난방,59469.535,4,400.0,대림산업(주),(주)더원,0336554400,,아파트,강원특별자치도 강릉시 종합운동장길 92,위탁관리,계단식,20061129,0336554411,400,41126.504,0.0,243.0,118.0,39.0,41126.5053,20,20,1,10,25475,37.7706826565118,128.895401925068
A21010002,교동1주공아파트,5115011000,강원특별자치도,강릉시,교동,,강원특별자치도 강릉시 교동 1750 교동1주공아파트,분양,개별난방,105113.0,14,1019.0,"태평양건설, 요진건설",대한주택공사,0336444117,,아파트,강원특별자치도 강릉시 가작로 78,위탁관리,혼합식,19991201,0336444118,1020,92235.44,599.0,420.0,0.0,0.0,70612.75,15,15,1,33,25495,37.7674674907294,128.883600285826
A21010004,교동대림,5115011000,강원특별자치도,강릉시,교동,,강원특별자치도 강릉시 교동 18-16 교동대림,분양,개별난방,22384.686,1,199.0,(주)대림주택건설,(주)대림주택건설,0336523143,,아파트,강원특별자치도 강릉시 수리골길17번길 21,위탁관리,계단식,19971213,0336533143,199,19236.357,92.0,90.0,17.0,0.0,15164.121,18,18,1,6,25476,37.7718408508619,128.897993349185
A21010102,부영5차아파트,5115011000,강원특별자치도,강릉시,교동,,강원특별자치도 강릉시 교동 1762 부영5차아파트,분양,개별난방,30465.0,4,240.0,(주)부영주택,(주)부영주택,0336413218,,아파트,강원특별자치도 강릉시 교동광장로 163,위탁관리,계단식,20011123,0336413219,240,25462.8,0.0,240.0,0.0,0.0,20383.2,15,15,1,8,25500,37.763924058206,128.882927693112
A21010105,강릉3차부영아파트,5115011000,강원특별자치도,강릉시,교동,,강원특별자치도 강릉시 교동 1780 강릉3차부영아파트,분양,개별난방,59130.19,7,468.0,(주)부영,(주)부영,0336418972,강릉3차부영.apti.co.kr,아파트,강원특별자치도 강릉시 하슬라로 124,위탁관리,계단식,20010921,0336418973,468,52598.52,0.0,468.0,0.0,0.0,39747.24,15,15,1,19,25517,37.7603086141822,128.874799317799
A21010107,부영1차아파트,5115011000,강원특별자치도,강릉시,교동,,강원특별자치도 강릉시 교동 1773 부영1차아파트,혼합,개별난방,42010.86,4,495.0,부영,부영주택,0336474640,,아파트,강원특별자치도 강릉시 정원로 53-4,위탁관리,복도식,19990906,0336474641,495,37463.848,495.0,0.0,0.0,0.0,27028.8,15,15,0,4,25517,37.7617759678273,128.874654131144
A21010108,교동주공3단지아파트,5115011000,강원특별자치도,강릉시,교동,,강원특별자치도 강릉시 교동 1766 교동주공3단지아파트,분양,개별난방,66730.31,12,750.0,고려개발주식회사,한국토지주택공사,0336448025,,아파트,강원특별자치도 강릉시 교동광장로 138-12,위탁관리,계단식,20021109,0336448026,750,44846.91,750.0,0.0,0.0,0.0,44846.91,15,15,0,26,25514,37.7630556240527,128.878623632867
A21010109,부영2차아파트,5115011000,강원특별자치도,강릉시,교동,,강원특별자치도 강릉시 교동 1747 부영2차아파트,임대,개별난방,75495.63,5,917.0,(주)부영주택,(주)부영주택,0336477398,,아파트,강원특별자치도 강릉시 가작로 71,위탁관리,복도식,19990909,0336477399,917,66905.71,917.0,0.0,0.0,0.0,47950.14,15,15,0,10,25494,37.7699799983705,128.88356281186
A21092001,교동한신아파트,5115011000,강원특별자치도,강릉시,교동,,강원특별자치도 강릉시 교동 46-1 교동한신아파트,분양,개별난방,27650.26,3,271.0,한신공영,대하,0336425260,,아파트,강원특별자치도 강릉시 명륜로 95-7,자치관리,계단식,19970403,0336425266,271,25342.52,132.0,139.0,0.0,0.0,19711.1,18,18,1,6,25489,37.7679647756637,128.898816955244
A21092403,교동현대하이빌,5115011000,강원특별자치도,강릉시,교동,,강원특별자치도 강릉시 교동 1759 교동현대하이빌,분양,개별난방,48331.43,3,300.0,현대건설,현대건설,0336412082,http://하이빌현대.apti.co.kr/,아파트,강원특별자치도 강릉시 원대로128번길 14,자치관리,계단식,19991127,0336422084,300,43140.508,0.0,0.0,240.0,60.0,36583.8,15,15,1,10,25500,37.7652665677425,128.883413379101
A21092404,부영6차아파트,5115011000,강원특별자치도,강릉시,교동,,강원특별자치도 강릉시 교동 1775 부영6차아파트,분양,개별난방,49034.0,6,418.0,(주) 부영주택,(주)부영주택,0336434734,,아파트,강원특별자치도 강릉시 정원로 53-9,위탁관리,계단식,20030425,0336434732,418,40094.625,148.0,270.0,0.0,0.0,31821.677,15,15,0,14,25517,37.7613916914529,128.876497298219
A21092406,교동2차현대아파트,5115011000,강원특별자치도,강릉시,교동,,강원특별자치도 강릉시 교동 1767 교동2차현대아파트,분양,개별난방,57856.293,7,480.0,현대산업개발(주),현대산업개발(주),0336469390,강릉교동2차현대.apti.co.kr,아파트,강원특별자치도 강릉시 교동광장로 138-15,위탁관리,계단식,19991027,0336469391,480,55637.88,0.0,210.0,270.0,0.0,45882,15,15,1,16,25514,37.7628886008379,128.88048173038
A10020357,강릉KTX역경남아너스빌,5115011100,강원특별자치도,강릉시,포남동,,강원특별자치도 강릉시 포남동 852- 강릉KTX역경남아너스빌,분양,개별난방,33272.16,1,167.0,sm동아건설산업,kb신탁/베스트앤지,0336551697,,주상복합,강원특별자치도 강릉시 곶감전길 12,위탁관리,복도식,20250613,0336551698,167,20128.87,0.0,163.0,4.0,0.0,14333.7798,24,24,4,0,,37.7646564593613,128.901619274074
A10020821,강릉교동 행복주택 아파트,5115011100,강원특별자치도,강릉시,포남동,,강원특별자치도 강릉시 포남동 652-16 강릉교동 행복주택 아파트,임대,개별난방,11815.77,2,180.0,(주)동서,한국토지주택공사,0336437101,https://강릉교동행복주택아파트.apti.co.kr/,아파트,강원특별자치도 강릉시 강릉대로313번길 29,위탁관리,복도식,20250219,0336437102,180,11815.726,180.0,0.0,0.0,0.0,5205.24,19,19,1,0,,37.7665652949131,128.902760171883
A10021272,동남1차아파트,5115011100,강원특별자치도,강릉시,포남동,,강원특별자치도 강릉시 포남동 1005-248 동남1차아파트,분양,개별난방,6186.0,2,100.0,확인불가,확인불가,0336429831,,아파트,강원특별자치도 강릉시 경강로2256번길 12,자치관리,계단식,19851227,0336429831,1,3000.0,100.0,0.0,0.0,0.0,5494.5,5,5,0,0,,37.7638146952756,128.909578699919
A10021286,"동남아파트 3,4동",5115011100,강원특별자치도,강릉시,포남동,,"강원특별자치도 강릉시 포남동 1005-253 동남아파트 3,4동",분양,개별난방,7295.0,2,120.0,확인불가,확인불가,0336429833,,아파트,강원특별자치도 강릉시 경강로2234번길 15,자치관리,계단식,19860827,,120,7270.2,120.0,0.0,0.0,0.0,6593.4,5,5,0,0,,37.7629376939581,128.908941575069
A10022177,삼호임대아파트,5115011100,강원특별자치도,강릉시,포남동,,강원특별자치도 강릉시 포남동 1064- 삼호임대아파트,분양,개별난방,1044570.0,4,200.0,삼호건설,삼호건설,0336519825,,,강원특별자치도 강릉시 강릉대로457번길 38,자치관리,계단식,19880514,0336518258,200,9647.5,200.0,0.0,0.0,0.0,7915.5,5,5,1,0,,37.7760649947703,128.9105413482
A10023388,강릉역 동도센트리움,5115011100,강원특별자치도,강릉시,포남동,,강원특별자치도 강릉시 포남동 1117 강릉역 동도센트리움,분양,개별난방,4783320.0,3,426.0,동도건설,동도dnc,0336558523,강릉동도센트리움.apti.co.kr,주상복합,강원특별자치도 강릉시 강릉대로 337-5,위탁관리,혼합식,20230201,0336558524,474,42783.24,426.0,0.0,0.0,0.0,22134.564,23,23,3,3,25492,37.7660919375047,128.903377047083
A21011001,삼우골든아파트,5115011100,강원특별자치도,강릉시,포남동,,강원특별자치도 강릉시 포남동 898-17 삼우골든아파트,분양,개별난방,21815.38,3,173.0,삼우주택,삼우주택,0336464070,없음.,아파트,강원특별자치도 강릉시 용지각길20번길 8,위탁관리,계단식,19910412,0336464070,173,21198.31,0.0,101.0,50.0,22.0,16600.17,13,13,1,7,25548,37.7606689994542,128.906088610854
A21011002,포남1주공아파트,5115011100,강원특별자치도,강릉시,포남동,,강원특별자치도 강릉시 포남동 1065 포남1주공아파트,분양,개별난방,27997.35,18,640.0,0,0,0336510504,,아파트,강원특별자치도 강릉시 보래미상길 65,위탁관리,계단식,19811030,0336520604,640,27048.2,640.0,0.0,0.0,0.0,27044.86,5,5,0,0,25479,37.7750799885527,128.908820655502
A21011003,강릉포남LH1단지,5115011100,강원특별자치도,강릉시,포남동,,강원특별자치도 강릉시 포남동 1181 강릉포남LH1단지,임대,개별난방,21705.16,3,306.0,동우건설,LH,0336528661,,아파트,강원특별자치도 강릉시 경강로2301번길 6,위탁관리,복도식,20120529,0336528662,306,12666.0,306.0,0.0,0.0,0.0,12856.14,15,15,0,6,25569,37.7682492735972,128.913474862185
A21011201,대인4차아파트,5115011100,강원특별자치도,강릉시,포남동,,강원특별자치도 강릉시 포남동 422-3 대인4차아파트,분양,개별난방,17442.0,1,174.0,대인주택건설(합),명정건설(주),0336510410,,아파트,강원특별자치도 강릉시 강릉대로469번길 14-1,위탁관리,혼합식,19950630,0336510410,174,14099.18,85.0,51.0,38.0,0.0,11343.7,14,14,1,4,25480,37.7761787539594,128.913489308879
A21073701,청송아파트,5115011100,강원특별자치도,강릉시,포남동,,강원특별자치도 강릉시 포남동 1293-2 청송아파트,분양,개별난방,67676.0,3,540.0,"강릉주택(주),(주)대림주택 (주)삼우주택","강릉주택(주),(주)대림주택 (주)삼우주택",0336517661,,아파트,강원특별자치도 강릉시 하평길 41,위탁관리,계단식,19940630,0336513179,540,57110.4,0.0,540.0,0.0,0.0,45586.8,15,15,1,18,25567,37.7711683010093,128.913405756379
A21073702,일송아파트,5115011100,강원특별자치도,강릉시,포남동,,강원특별자치도 강릉시 포남동 1293-1 일송아파트,분양,개별난방,78235.414,6,795.0,"(주)삼우(강릉,대림)주택","(주)삼우(강릉,대림)주택",0336514060,,아파트,강원특별자치도 강릉시 하평3길 37,위탁관리,복도식,19950228,0336514666,800,66431.04,795.0,0.0,0.0,0.0,46964.625,15,15,1,12,25567,37.7717043861331,128.914758713058
A21073703,송정주공아파트,5115011100,강원특별자치도,강릉시,포남동,,강원특별자치도 강릉시 포남동 1293-4 송정주공아파트,임대,중앙난방,37429.58,5,623.0,한주건설,대한주택공사,0336522827,www.kohom.or.kr,아파트,강원특별자치도 강릉시 하평길 55,위탁관리,복도식,19950916,0336525827,623,36242.77,623.0,0.0,0.0,0.0,27438.43,15,15,0,0,25567,37.7704867975647,128.915358163241
A21093902,포남2주공아파트,5115011100,강원특별자치도,강릉시,포남동,,강원특별자치도 강릉시 포남동 1200 포남2주공아파트,분양,개별난방,20011.0,11,380.0,대한주택공사,대한주택공사,0336515984,포남2주공.apti.co.kr/apthome/default.asp,아파트,강원특별자치도 강릉시 산양큰길 37,위탁관리,계단식,19890813,0330000000,380,19603.7,380.0,0.0,0.0,0.0,15664.97,5,5,0,0,25482,37.781028530622,128.915781775617
A10021524,초당 유화2아차파트,5115011200,강원특별자치도,강릉시,초당동,,강원특별자치도 강릉시 초당동 181- 초당 유화2아차파트,분양,개별난방,25337.0,1,136.0,(주)유화주택건설,(주)유화주택건설,0336529552,,아파트,강원특별자치도 강릉시 연당길 94-6,위탁관리,계단식,19941122,0336529551,136,12613.0,59.0,77.0,0.0,0.0,8656.159,1,13,1,4,,37.7855072350749,128.914184941376
A10022200,초당세양청마루아파트,5115011200,강원특별자치도,강릉시,초당동,,강원특별자치도 강릉시 초당동 554- 초당세양청마루아파트,분양,개별난방,19245.0,3,142.0,세양건설산업주식회사,세양건설산업주식회사,0336510694,,,강원특별자치도 강릉시 연당길 61,위탁관리,계단식,20070320,,142,16321.19,0.0,112.0,30.0,0.0,13007.17,15,15,1,6,,37.7829052829543,128.915280765044
A10022226,이화해변아파트,5115011200,강원특별자치도,강릉시,초당동,,강원특별자치도 강릉시 초당동 135-1 이화해변아파트,분양,개별난방,9159.0,3,235.0,이화 건설,이화건설,0336537031,,,강원특별자치도 강릉시 초당원길 21,자치관리,복도식,19880322,0336537032,235,7050.0,235.0,0.0,0.0,0.0,7172.76,5,5,0,0,,37.7838594777908,128.916231596684
A10024955,초당유화1차아파트,5115011200,강원특별자치도,강릉시,초당동,,강원특별자치도 강릉시 초당동 182-2 초당유화1차아파트,분양,개별난방,7477.84,1,90.0,유화건설,유화건설,0336539687,,아파트,강원특별자치도 강릉시 연당길 94-3,위탁관리,복도식,19931001,0336539688,90,7476.147,90.0,0.0,0.0,0.0,4483.35,14,14,0,1,25469,37.7860698619427,128.913638274011
A21012001,유화3차아파트,5115011200,강원특별자치도,강릉시,초당동,,강원특별자치도 강릉시 초당동 155 유화3차아파트,분양,개별난방,13740.575,1,198.0,유화종합건설(주),유화종합건설(주),0336519872,,아파트,강원특별자치도 강릉시 연당길 82,위탁관리,복도식,19960615,0336519872,198,12436.38,198.0,0.0,0.0,0.0,9044.64,10,10,1,2,25469,37.7849240108776,128.914795994663
A21012002,초당동부아파트,5115011200,강원특별자치도,강릉시,초당동,,강원특별자치도 강릉시 초당동 149-1 초당동부아파트,분양,개별난방,23322.88,2,235.0,동부건설(주),(주)기인건설,0336533964,,아파트,강원특별자치도 강릉시 연당길 75,위탁관리,계단식,19971217,0336513964,235,22135.36,99.0,136.0,0.0,0.0,17481.44,18,18,1,7,25470,37.784035985707,128.913930186708
A21012003,초당현대아파트,5115011200,강원특별자치도,강릉시,초당동,,강원특별자치도 강릉시 초당동 128 초당현대아파트,분양,개별난방,29161.24,4,253.0,현대건설(주),(주)서울주택개발,0336537326,,아파트,강원특별자치도 강릉시 초당원길 26-2,위탁관리,혼합식,19950328,0336537327,253,25684.883,110.0,103.0,40.0,0.0,20094.6,10,10,1,10,25469,37.7837707861834,128.917994643359
A21012004,우성아파트,5115011200,강원특별자치도,강릉시,초당동,,강원특별자치도 강릉시 초당동 143 우성아파트,분양,개별난방,38706.0,5,339.0,(주)우성건설,(주)붕주주택,0336539345,,아파트,강원특별자치도 강릉시 연당길 67-15,위탁관리,계단식,19971231,0336539345,339,32743.42,133.0,206.0,0.0,0.0,25430.65,18,18,0,1,25470,37.7829356083677,128.91408022805
A21074501,강릉초당아트피아아파트,5115011200,강원특별자치도,강릉시,초당동,,강원특별자치도 강릉시 초당동 553 강릉초당아트피아아파트,혼합,개별난방,19554.365,1,267.0,강일건설(주),아트피아주택건설(주),0336551135,,아파트,강원특별자치도 강릉시 연당길 89,위탁관리,복도식,20050902,0336551136,267,19553.38,267.0,0.0,0.0,0.0,10993.8876,18,18,2,1,25470,37.7850999148899,128.913400883498
A10021926,강릉 코니스오션 송정아파트,5115011400,강원특별자치도,강릉시,송정동,,강원특별자치도 강릉시 송정동 1068- 강릉 코니스오션 송정아파트,분양,개별난방,0.0,1,136.0,이원종합건설,코니스개발주식회사,0336416016,,도시형 생활주택(아파트),강원특별자치도 강릉시 송정길 11,자치관리,복도식,20230622,0336516017,136,9475.958,136.0,0.0,0.0,0.0,4150.011,10,10,1,0,,37.77649777386,128.930409300556
A10022121,대림맨션아파트,5115011400,강원특별자치도,강릉시,송정동,,강원특별자치도 강릉시 송정동 940-23 대림맨션아파트,분양,개별난방,16139.0,1,130.0,대림주택,대림주택,0336523560,,아파트,강원특별자치도 강릉시 남강초교2길 44,자치관리(직영),계단식,19911023,0336513560,130,16062.54,0.0,104.0,0.0,26.0,12176.84,0,13,1,5,,37.7695237700255,128.920566573206
A10024767,신원아침도시아파트,5115011400,강원특별자치도,강릉시,송정동,,강원특별자치도 강릉시 송정동 1065 신원아침도시아파트,분양,개별난방,68149.0,8,477.0,신원종합개발,한국토지신탁,0336539790,신원아침도시아파트.apti.co.kr,아파트,강원특별자치도 강릉시 경강로 2498,위탁관리,계단식,20200429,0336539791,477,52969.887,0.0,403.0,74.0,0.0,81577.0701,18,18,1,17,25561,37.7734347220439,128.93275703571
A10025105,강릉아이파크,5115011400,강원특별자치도,강릉시,송정동,,강원특별자치도 강릉시 송정동 1064 강릉아이파크,분양,개별난방,71616.39,7,492.0,HDC현대산업개발,아시아신탁(주),0336539572,강릉아이파크.apti.co.kr,아파트,강원특별자치도 강릉시 경강로 2511,위탁관리,계단식,20191231,0336539573,492,71615.7,0.0,449.0,43.0,0.0,41806.71,20,20,1,16,25559,37.7750867847044,128.934467923778
A10025591,송정한신더휴아파트,5115011400,강원특별자치도,강릉시,송정동,,강원특별자치도 강릉시 송정동 1063 송정한신더휴아파트,분양,개별난방,49790.312,4,353.0,한신공영,(주)한국토지신탁,0336521437,,아파트,강원특별자치도 강릉시 경강로 2448,위탁관리,계단식,20190318,0336531437,353,48996.12,0.0,353.0,0.0,0.0,29993.8055,20,20,1,5,25561,37.7731914503385,128.926788143355
A21014001,신도브래뉴로얄카운티아파트,5115011400,강원특별자치도,강릉시,송정동,,강원특별자치도 강릉시 송정동 1061 신도브래뉴로얄카운티아파트,분양,개별난방,52044.312,4,229.0,신도종합건설(주),디벨코,0336550900,,아파트,강원특별자치도 강릉시 해안로 93-8,위탁관리,계단식,20070223,0336550910,229,40909.574,0.0,0.0,86.0,143.0,33138.429,15,15,1,8,25558,37.7784601973314,128.934069417467
A21014002,삼우은성아파트,5115011400,강원특별자치도,강릉시,송정동,,강원특별자치도 강릉시 송정동 940 삼우은성아파트,분양,개별난방,29968.027,2,270.0,삼우주택,삼우주택,0336524103,,아파트,강원특별자치도 강릉시 남강초교1길 57,위탁관리,계단식,19921015,0336534109,270,21122.7,0.0,270.0,0.0,0.0,21124.2,15,15,1,9,25563,37.7703182529415,128.921139001989
A21015001,한신휴플러스아파트,5115011500,강원특별자치도,강릉시,견소동,,강원특별자치도 강릉시 견소동 202 한신휴플러스아파트,분양,개별난방,60037.0,5,555.0,한신공영,세영주택,0336521214,,아파트,강원특별자치도 강릉시 경강로2539번길 8,위탁관리,혼합식,19971105,0336526687,555,48706.0,273.0,252.0,30.0,0.0,39091.49,15,15,1,17,25560,37.774400720249,128.938242988966
A21015002,송정해변신도브래뉴,5115011500,강원특별자치도,강릉시,견소동,,강원특별자치도 강릉시 견소동 289 송정해변신도브래뉴,분양,개별난방,82916.65,8,737.0,신도종합건설(주),신도종합건설,0336418641,송정해변신도브래뉴아파트.apti.co.kr,아파트,강원특별자치도 강릉시 경강로2539번길 22,위탁관리,계단식,20050701,0336418643,737,70695.805,300.0,437.0,0.0,0.0,55137.63,15,15,0,27,25560,37.7748100221074,128.939580609837
A10021194,내곡강부2차아파트,5115011600,강원특별자치도,강릉시,내곡동,,강원특별자치도 강릉시 내곡동 616- 내곡강부2차아파트,분양,개별난방,10872.0,1,230.0,(주) 강부주택,(주)강부주택,0336410548,,아파트,강원특별자치도 강릉시 관대길 63,자치관리,복도식,19880428,0336410548,230,10871.23,230.0,0.0,0.0,0.0,7669.05,1,5,1,0,,37.7408158371427,128.87743051117
A10022145,기산그린아파트,5115011600,강원특별자치도,강릉시,내곡동,,강원특별자치도 강릉시 내곡동 267- 기산그린아파트,분양,개별난방,16997.0,8,292.0,기산건설(주),한성(주),0336427071,,연립주택,강원특별자치도 강릉시 범일로 528,자치관리,복도식,19970422,0336417075,292,16341.6,292.0,0.0,0.0,0.0,10754.36,0,4,0,0,,37.734414486828,128.880945402604
A10022253,석미모닝파크2차아파트,5115011600,강원특별자치도,강릉시,내곡동,,강원특별자치도 강릉시 내곡동 757- 석미모닝파크2차아파트,분양,개별난방,16841.0,3,130.0,(주)석미건설,(주)석미건설,0336431455,,아파트,강원특별자치도 강릉시 남산초교길 49,위탁관리,계단식,20110929,0336411543,130,13583.57,1.0,129.0,0.0,0.0,10300.13,14,14,1,5,,37.7431358627692,128.891221292691
A10022785,강릉자이파인베뉴아파트,5115011600,강원특별자치도,강릉시,내곡동,,강원특별자치도 강릉시 내곡동 759 강릉자이파인베뉴아파트,분양,개별난방,151585.0,11,918.0,GS건설(주),성만개발(주),0338233335,,아파트,강원특별자치도 강릉시 동해대로 2768,위탁관리,계단식,20240130,0338233336,918,99198.695,0.0,867.0,48.0,3.0,75870.3303,27,27,3,28,25597,37.7433955046421,128.889855804838
A10023509,블루밍더베스트,5115011600,강원특별자치도,강릉시,내곡동,,강원특별자치도 강릉시 내곡동 758 블루밍더베스트,분양,개별난방,17467.389,4,238.0,벽산엔지니어링,강릉지역주택조합,0336559497,,아파트,강원특별자치도 강릉시 범일로579번길 29-6,위탁관리,복도식,20220524,0336559498,238,12398.0,234.0,4.0,0.0,0.0,12622.926,20,20,2,5,25601,37.7370522714585,128.878945624702
A21092501,삼익타워맨션,5115011600,강원특별자치도,강릉시,내곡동,,강원특별자치도 강릉시 내곡동 136 삼익타워맨션,분양,개별난방,30614.0,4,212.0,삼익건설,우형건설,0336460041,삼익타워맨션아파트.apti.co.kr,아파트,강원특별자치도 강릉시 남산초교길 65,위탁관리,계단식,19930630,0336470041,212,26180.9,0.0,128.0,84.0,0.0,21234.4,12,12,1,9,25596,37.7420605905695,128.890683892325
A21092502,남산삼익,5115011600,강원특별자치도,강릉시,내곡동,,강원특별자치도 강릉시 내곡동 127 남산삼익,분양,개별난방,27307.0,3,289.0,강릉시 교육청소속 교직원 직장주택조합 외 2개조합,강릉시 교육청소속 교직원 직장주택조합 외 2개조합,0336489067,cafe.daum.net/nssamick,아파트,강원특별자치도 강릉시 남부로125번길 39,위탁관리,혼합식,19930524,0336479067,289,26016.521,150.0,139.0,0.0,0.0,20040.74,10,10,0,10,25596,37.7439251648895,128.891839687561
A21092703,내곡주공,5115011600,강원특별자치도,강릉시,내곡동,,강원특별자치도 강릉시 내곡동 623 내곡주공,분양,개별난방,16832.0,6,300.0,대한주택공사,대한주택공사,0336438956,,아파트,강원특별자치도 강릉시 관대길16번길 6,자치관리,계단식,19890320,0336432956,300,15308.7,300.0,0.0,0.0,0.0,12213.6,5,5,0,0,25602,37.7412137669392,128.878943533873
A21092704,내곡현대,5115011600,강원특별자치도,강릉시,내곡동,,강원특별자치도 강릉시 내곡동 469 내곡현대,분양,개별난방,41097.18,5,428.0,현대건설,현대건설,0336417282,내곡현대.apti.co.kr,아파트,강원특별자치도 강릉시 범일로 645,위탁관리,계단식,19980212,0336477285,428,41097.09,176.0,252.0,0.0,0.0,31947.07,18,18,0,12,25603,37.7449444971381,128.883081995115
A21092705,내곡한라,5115011600,강원특별자치도,강릉시,내곡동,,강원특별자치도 강릉시 내곡동 476 내곡한라,분양,개별난방,75779.86,11,724.0,한라건설(주),한라건설(주),0336437530,,아파트,강원특별자치도 강릉시 강변로 114,위탁관리,계단식,19971110,0336437531,724,65112.66,434.0,290.0,0.0,0.0,50662.48,18,18,1,22,25603,37.7440935028024,128.881241344271
A10025574,강릉회산 한신더휴 아파트,5115011700,강원특별자치도,강릉시,회산동,,강원특별자치도 강릉시 회산동 610 강릉회산 한신더휴 아파트,분양,개별난방,45072.72,5,410.0,한신공영(주),(주)한국토지신탁,0336419707,강릉회산한신더휴.apti.co.kr,아파트,강원특별자치도 강릉시 회산로 313,위탁관리,계단식,20190314,0336419709,410,45072.72,0.0,410.0,0.0,0.0,34835.2958,20,20,1,9,25598,37.7386752737934,128.863188599132
A10025902,힐스테이트 강릉아파트,5115011700,강원특별자치도,강릉시,회산동,,강원특별자치도 강릉시 회산동 130 힐스테이트 강릉아파트,분양,개별난방,68462.49,7,555.0,현대엔지니어링(주),현대지역주택조합,0336553838,,아파트,강원특별자치도 강릉시 회산로383번길 37,위탁관리,계단식,20181026,0336553839,555,55142.887,123.0,432.0,0.0,0.0,41696.6507,20,20,1,16,25598,37.7412388295574,128.864270096382
A10027224,강릉서희스타힐스리버파크아파트,5115011700,강원특별자치도,강릉시,회산동,,강원특별자치도 강릉시 회산동 608 강릉서희스타힐스리버파크아파트,분양,개별난방,72489.266,6,700.0,서희건설,강릉회산지역주택조합,0336558846,강릉서희회산.apti.co.kr/,아파트,강원특별자치도 강릉시 회산로 344,위탁관리,계단식,20170523,0336558847,700,71630.766,220.0,480.0,0.0,0.0,52932.494,20,20,1,1,25599,37.7384052329925,128.865583497849
A10027327,강릉회산LH천년나무2단지,5115011700,강원특별자치도,강릉시,회산동,,강원특별자치도 강릉시 회산동 604 강릉회산LH천년나무2단지,임대,개별난방,40206.26,6,624.0,계룡건설,한국토지주택공사,0336417700,,아파트,강원특별자치도 강릉시 강변로 58,위탁관리,복도식,20170206,0336427070,624,40035.72,624.0,0.0,0.0,0.0,26281.64,15,15,0,13,25600,37.7427615888193,128.876581435762
A21017001,강릉회산LH,5115011700,강원특별자치도,강릉시,회산동,,강원특별자치도 강릉시 회산동 602 강릉회산LH,임대,개별난방,22665.68,5,307.0,태평양개발,한국토지주택공사,0336438563,,아파트,강원특별자치도 강릉시 강변로 94,위탁관리,계단식,20060512,0336438564,307,22665.68,307.0,0.0,0.0,0.0,16630.34,12,12,0,13,25603,37.743813138514,128.879379774837
A10021396,대림아파트,5115012100,강원특별자치도,강릉시,노암동,,강원특별자치도 강릉시 노암동 627-2 대림아파트,분양,개별난방,10750.0,4,180.0,대림건설,대림건설,0336413525,,아파트,강원특별자치도 강릉시 임영로25번길 13,자치관리,계단식,19890113,,180,10598.4,180.0,0.0,0.0,0.0,8697.6,1,5,0,0,,37.7441207619228,128.894417359144
A10021780,고합아파트,5115012100,강원특별자치도,강릉시,노암동,,강원특별자치도 강릉시 노암동 618-1 고합아파트,분양,개별난방,0.0,1,137.0,(주)고합엔지니어링,(주)고합엔지니어링,026432293,,아파트,강원특별자치도 강릉시 남부로125번길 23,자치관리,혼합식,19960215,026432293,137,7176.86,137.0,0.0,0.0,0.0,5281.2,1,10,1,0,,37.7436813139376,128.892596500923
A10023205,강릉노암2주공아파트,5115012100,강원특별자치도,강릉시,노암동,,강원특별자치도 강릉시 노암동 835 강릉노암2주공아파트,분양,개별난방,14568.0,7,240.0,신동아건설,0,0336487319,0,아파트,강원특별자치도 강릉시 노가니남길 25,자치관리,계단식,19841230,0336487319,244,14382.0,240.0,0.0,0.0,0.0,12931.68,5,5,0,0,25591,37.7452056058006,128.905403554583
A21070808,양우내안애아파트,5115012100,강원특별자치도,강릉시,노암동,,강원특별자치도 강릉시 노암동 844 양우내안애아파트,분양,개별난방,57769.566,10,456.0,양우건설(주),양우건설(주),0336412382,,아파트,강원특별자치도 강릉시 강변로 328-8,위탁관리,계단식,20090901,0336412383,456,57545.88,212.0,194.0,50.0,0.0,34724.0662,13,13,0,20,25589,37.7516691408632,128.903453397652
A21093001,노암현대아파트,5115012100,강원특별자치도,강릉시,노암동,,강원특별자치도 강릉시 노암동 245-5 노암현대아파트,분양,개별난방,30614.94,3,288.0,(주)현대산업개발,(주)현대산업개발,0336454148,https://cafe.daum.net/noamapt,아파트,강원특별자치도 강릉시 율곡로 2733,위탁관리,계단식,19920603,0336464148,288,30614.94,0.0,288.0,0.0,0.0,23720.58,10,10,1,15,25589,37.7507974590952,128.905205146592
A21093104,노암한라1차아파트,5115012100,강원특별자치도,강릉시,노암동,,강원특별자치도 강릉시 노암동 390 노암한라1차아파트,분양,개별난방,52297.0,6,459.0,한라건설,정주개발,0336413762,,아파트,강원특별자치도 강릉시 노암길42번길 28,위탁관리,계단식,19940531,0336433762,459,48100.68,169.0,181.0,85.0,24.0,38197.227,13,13,1,18,25592,37.7448356065543,128.901948051819
A21093203,남산현대아파트,5115012100,강원특별자치도,강릉시,노암동,,강원특별자치도 강릉시 노암동 610 남산현대아파트,분양,개별난방,34973.0,4,352.0,현대건설,현대건설,0336452135,,아파트,강원특별자치도 강릉시 남부로125번길 11,위탁관리,계단식,19981126,0336422135,352,31968.0,168.0,184.0,0.0,0.0,25691.28,14,14,0,13,25596,37.7427412702132,128.892344877743
A21093205,신화아파트,5115012100,강원특별자치도,강릉시,노암동,,강원특별자치도 강릉시 노암동 711 신화아파트,분양,개별난방,53630.74,7,493.0,신화건설,신화건설,0336414758,,아파트,강원특별자치도 강릉시 강변로 270,위탁관리,혼합식,19980318,0336444758,493,44962.188,215.0,278.0,0.0,0.0,35586.932,15,15,1,18,25587,37.7482988535008,128.897794229914
A21093206,노암3차한라아파트,5115012100,강원특별자치도,강릉시,노암동,,강원특별자치도 강릉시 노암동 605 노암3차한라아파트,분양,개별난방,45104.0,5,496.0,한라건설(주),한라건설(주),0336470496,,아파트,강원특별자치도 강릉시 남부로125번길 7,위탁관리,혼합식,20000414,0336474596,496,38634.902,330.0,166.0,0.0,0.0,29355.78,14,14,2,15,25596,37.7419429234498,128.892660104381
A10021319,삼우그린아파트,5115012500,강원특별자치도,강릉시,입암동,,강원특별자치도 강릉시 입암동 608-3 삼우그린아파트,분양,개별난방,7785.57,1,100.0,삼우주택,삼우주택,0336531334,,아파트,강원특별자치도 강릉시 강변로 458,위탁관리,복도식,19960816,0336531334,100,5650.19,100.0,0.0,0.0,0.0,5650.19,1,12,0,1,,37.7618634804704,128.912133248813
A10021814,녹원아파트,5115012500,강원특별자치도,강릉시,입암동,,강원특별자치도 강릉시 입암동 92-1 녹원아파트,분양,개별난방,12300.0,1,121.0,강릉주택,강릉주택,0336536361,,아파트,강원특별자치도 강릉시 월대산로 57,위탁관리,혼합식,19921210,0336536365,121,11258.611,52.0,69.0,0.0,0.0,8931.48,14,14,1,4,,37.7604408890763,128.916567405514
A10023499,강릉입암 천년가밸로채 아파트,5115012500,강원특별자치도,강릉시,입암동,,강원특별자치도 강릉시 입암동 713 강릉입암 천년가밸로채 아파트,임대,개별난방,33856.49,4,295.0,주식회사 새천년건설,(주) 아라마루,0336522235,,아파트,강원특별자치도 강릉시 성덕포남로104번길 23,위탁관리,계단식,20230927,0336522236,295,26316.469,140.0,155.0,0.0,0.0,26316.4696,15,15,1,11,25576,37.7639215621183,128.917485614364
A10025303,강변코아루오투리움,5115012500,강원특별자치도,강릉시,입암동,,강원특별자치도 강릉시 입암동 712 강변코아루오투리움,분양,개별난방,51004.312,7,427.0,세원건설,주) 한국토지신탁,0336535455,강변코아루오투리움.apti.co.kr,아파트,강원특별자치도 강릉시 월대산로 23,위탁관리,계단식,20190717,0336535456,427,41659.824,82.0,345.0,0.0,0.0,32237.102,15,15,1,15,25578,37.7605794184072,128.913010318651
A21025002,입암2주공아파트,5115012500,강원특별자치도,강릉시,입암동,,강원특별자치도 강릉시 입암동 49 입암2주공아파트,분양,개별난방,19680.14,7,380.0,대한주택공사,대한주택공사,0336523850,,아파트,강원특별자치도 강릉시 강변로 508,위탁관리,계단식,19901124,0336523851,380,19528.4,380.0,0.0,0.0,0.0,15594.6,5,5,1,0,25576,37.7640092499151,128.91532369554
A21025003,태평양아파트,5115012500,강원특별자치도,강릉시,입암동,,강원특별자치도 강릉시 입암동 506-5 태평양아파트,분양,개별난방,25681.12,2,460.0,태평양건설,합)대인주택건설,0336432612,,아파트,강원특별자치도 강릉시 강변로410번길 31-5,위탁관리,복도식,19981015,0336432618,460,16889.922,460.0,0.0,0.0,0.0,16889.922,14,14,1,4,25579,37.7565531760308,128.913167452301
A21025008,강릉금호어울림,5115012500,강원특별자치도,강릉시,입암동,,강원특별자치도 강릉시 입암동 321 강릉금호어울림,분양,개별난방,191083.45,15,1017.0,금호건설,대한토지신탁,0336559559,강릉금호어울림.apti.co.kr,아파트,강원특별자치도 강릉시 성덕로 328-15,위탁관리,계단식,20070829,0336559889,1017,140804.69,0.0,534.0,285.0,198.0,111604.35,15,15,1,36,25616,37.7536424482507,128.918924128583
A21074101,에버그린아파트,5115012500,강원특별자치도,강릉시,입암동,,강원특별자치도 강릉시 입암동 543-3 에버그린아파트,분양,개별난방,19636.9,2,218.0,삼성에버랜드건설,진명주택,0336515485,,아파트,강원특별자치도 강릉시 강변로440번길 30,위탁관리,복도식,20001129,0336535485,218,16911.748,218.0,0.0,0.0,0.0,13047.3,13,13,1,3,25578,37.7615947480179,128.914208630019
A21074102,강릉입암3주공아파트,5115012500,강원특별자치도,강릉시,입암동,,강원특별자치도 강릉시 입암동 49-9 강릉입암3주공아파트,임대,중앙난방,27049.66,4,596.0,한국토지주택공사,한국토지주택공사,0336536822,www.kohom.co.kr,아파트,강원특별자치도 강릉시 강변로 510,자치관리(직영),복도식,19941206,0336536820,600,25306.16,596.0,0.0,0.0,0.0,17191.62,15,15,0,8,25576,37.764676262251,128.916783969842
A21074103,강릉 더샵,5115012500,강원특별자치도,강릉시,입암동,,강원특별자치도 강릉시 입암동 671-34 강릉 더샵,분양,개별난방,118343.51,13,820.0,포스코건설,(주)메가에셋,0336474464,gangneungthesharp.postown.net,아파트,강원특별자치도 강릉시 입암로29번길 11,위탁관리,계단식,20140827,0336483556,820,90497.9,0.0,820.0,0.0,0.0,68730.08,13,13,1,33,25583,37.7488431673814,128.909240179881
A21093506,대우이안아파트,5115012500,강원특별자치도,강릉시,입암동,,강원특별자치도 강릉시 입암동 210 대우이안아파트,분양,개별난방,129805.0,17,914.0,(주)글로리아빌더,대우자동차판매(주)/건설부분,0336423278,kiapt.com,아파트,강원특별자치도 강릉시 성덕로 316-22,위탁관리,계단식,20060503,0336423279,914,87114.0,0.0,709.0,150.0,55.0,87114,15,15,1,31,25616,37.7557906283989,128.92049741043
A21093507,입암현대아파트,5115012500,강원특별자치도,강릉시,입암동,,강원특별자치도 강릉시 입암동 440 입암현대아파트,분양,개별난방,117750.0,17,1107.0,현대건설(주),중광건설,0336456164,,아파트,강원특별자치도 강릉시 용지로 19,위탁관리,계단식,19981126,0336454165,1107,102195.48,631.0,392.0,84.0,0.0,80362.088,14,14,0,40,25583,37.7529121575283,128.911741331842
A21093605,"입암4,5단지아파트",5115012500,강원특별자치도,강릉시,입암동,,"강원특별자치도 강릉시 입암동 685 입암4,5단지아파트",분양,중앙난방,63989.59,11,880.0,"우신건설,삼정건설",대한주택공사,0336531117,,아파트,강원특별자치도 강릉시 성덕포남로 89,위탁관리,혼합식,19961210,0336539117,880,63564.56,880.0,0.0,0.0,0.0,46770.36,15,15,1,20,25578,37.7609443973092,128.915479972464
A21093701,대인3차아파트,5115012500,강원특별자치도,강릉시,입암동,,강원특별자치도 강릉시 입암동 506-9 대인3차아파트,분양,개별난방,18692.78,1,210.0,대인주택건설(합),대인주택건설(합),0336476046,,아파트,강원특별자치도 강릉시 강변로410번길 27,위탁관리,복도식,19930727,0336476046,210,12533.85,210.0,0.0,0.0,0.0,12533.85,14,14,1,3,25579,37.7564942428552,128.91213092504
A21093804,입암1주공아파트,5115012500,강원특별자치도,강릉시,입암동,,강원특별자치도 강릉시 입암동 641 입암1주공아파트,분양,개별난방,23399.39,14,480.0,주택공사,주택공사,0336431180,ibamapt1@naver.com,아파트,강원특별자치도 강릉시 강변로 364,위탁관리,계단식,19861031,0336421180,490,22797.53,480.0,0.0,0.0,0.0,20206.35,5,5,0,0,25581,37.7548214427919,128.907698299057
A21093809,입암6주공아파트,5115012500,강원특별자치도,강릉시,입암동,,강원특별자치도 강릉시 입암동 709-1 입암6주공아파트,분양,개별난방,125713.03,20,1620.0,신화건설(주)외,대한주택공사,0336520998,blog.daum.net/6apt,아파트,강원특별자치도 강릉시 성덕포남로 39,위탁관리,혼합식,19980526,0336529133,1620,125153.87,1620.0,0.0,0.0,0.0,90464.04,15,15,1,42,25615,37.7587302527443,128.918755476737
A10022846,강릉유천행복주택,5115013100,강원특별자치도,강릉시,유천동,,강원특별자치도 강릉시 유천동 776-2 강릉유천행복주택,임대,개별난방,14502.85,1,196.0,지평건설(주),한국토지주택공사,026552006,,아파트,강원특별자치도 강릉시 사임당로 188,위탁관리,복도식,20231228,026552007,196,14502.849,196.0,0.0,0.0,0.0,5169.51,7,7,3,4,25458,37.761669624064,128.865969396208
A10024127,강릉유천 유승한내들더퍼스트,5115013100,강원특별자치도,강릉시,유천동,,강원특별자치도 강릉시 유천동 781 강릉유천 유승한내들더퍼스트,분양,개별난방,139475.67,5,788.0,유승종합건설,유승종합건설,0336557952,,아파트,강원특별자치도 강릉시 선수촌로 79-14,위탁관리,계단식,20210628,0336557953,788,94555.82,0.0,297.0,491.0,0.0,74219.9784,39,39,2,13,25458,37.7594349049589,128.86879351743
A10024808,더테라스아리스타,5115013100,강원특별자치도,강릉시,유천동,,강원특별자치도 강릉시 유천동 793 더테라스아리스타,분양,개별난방,18655.84,6,131.0,대양종합건설,주원개발,0336559930,아리스타.apti.co.kr/,연립주택,강원특별자치도 강릉시 위촌길 30,위탁관리,계단식,20200624,0336559931,131,18655.84,2.0,64.0,34.0,31.0,14403.6445,4,3,3,5,25456,37.7591019372048,128.863129453411
A10025893,엘에이치(LH)선수촌8단지,5115013100,강원특별자치도,강릉시,유천동,,강원특별자치도 강릉시 유천동 778 엘에이치(LH)선수촌8단지,혼합,개별난방,131016.0,9,922.0,신세계건설,LH한국주택토지공사,0336558241,www.lhycb2.co.kr,아파트,강원특별자치도 강릉시 선수촌로 113,위탁관리,계단식,20181116,0336558243,922,130736.42,0.0,922.0,0.0,0.0,71966.8,25,25,0,19,25458,37.7618820330679,128.868766257296
A10020942,강릉더리브퍼스티지아파트,5115013200,강원특별자치도,강릉시,지변동,,강원특별자치도 강릉시 지변동 729- 강릉더리브퍼스티지아파트,분양,개별난방,44420.406,2,176.0,SGC E&C,(주)쌍용개발,0336555551,,아파트,강원특별자치도 강릉시 경포로 33-9,위탁관리,계단식,20241129,0336555552,176,27537.45,0.0,0.0,165.0,11.0,22215.2881,25,25,2,6,,37.7726676972034,128.877782513966
A21032001,덕원아파트,5115013200,강원특별자치도,강릉시,지변동,,강원특별자치도 강릉시 지변동 334 덕원아파트,분양,개별난방,18007.275,1,237.0,덕원,덕원공영,0336430484,,아파트,강원특별자치도 강릉시 죽헌길85번길 25,위탁관리,복도식,19980228,0336430484,237,14340.492,237.0,0.0,0.0,0.0,10929.447,15,15,1,3,25455,37.7780510682507,128.873050520219
A21037001,경포현대아파트,5115013700,강원특별자치도,강릉시,저동,,강원특별자치도 강릉시 저동 4-4 경포현대아파트,분양,개별난방,40632.79,11,400.0,현대건설(주),경포국민주택재건축주택조합,0336447073,,아파트,강원특별자치도 강릉시 경포로463번안길 14,위탁관리,계단식,19960920,0336447088,400,35387.2,160.0,240.0,0.0,0.0,29945.2,5,5,1,0,25461,37.8019791403594,128.899778782767
A10024155,주문진 삼부르네상스,5115025021,강원특별자치도,강릉시,주문진읍,주문리,강원특별자치도 강릉시 주문진읍 주문리 1586 주문진 삼부르네상스,분양,개별난방,28961.02,3,214.0,삼부토건(주),한국토지신탁(주),0336629957,,아파트,강원특별자치도 강릉시 철둑길 45-11,위탁관리,계단식,20210831,0336629958,214,28961.02,21.0,193.0,0.0,0.0,15837.592,19,20,1,6,25415,37.8919412052037,128.823312228814
A10025691,주문진 풍림아이원하버뷰,5115025021,강원특별자치도,강릉시,주문진읍,주문리,강원특별자치도 강릉시 주문진읍 주문리 329-19 주문진 풍림아이원하버뷰,분양,개별난방,19305.01,2,177.0,신성건설,대한토지신탁,0338239010,,주상복합,강원특별자치도 강릉시 항구로 40,위탁관리,계단식,20190208,0338239020,183,15478.252,104.0,73.0,0.0,0.0,11239.76,20,20,1,4,25414,37.8930127427785,128.825973284592
A10026753,라일플로리스4차아파트,5115025021,강원특별자치도,강릉시,주문진읍,주문리,강원특별자치도 강릉시 주문진읍 주문리 61 라일플로리스4차아파트,분양,개별난방,14047.1045,1,266.0,라일건설(주),주)정인디앤씨,0336612191,,주상복합,강원특별자치도 강릉시 오리나루2길 25,위탁관리,복도식,20170801,0336612194,267,13971.222,266.0,0.0,0.0,0.0,7395.9269,15,15,1,0,25408,37.9000812393535,128.831252292635
A10020949,주문진삼부르네상스오션포레아파트,5115025022,강원특별자치도,강릉시,주문진읍,교항리,강원특별자치도 강릉시 주문진읍 교항리 1270- 주문진삼부르네상스오션포레아파트,분양,개별난방,31405.273,3,234.0,삼부토건주식회사,대한토지신탁(주),0338232005,,아파트,강원특별자치도 강릉시 장성로 15,위탁관리,계단식,20241230,0338232006,234,24151.43,0.0,234.0,0.0,0.0,18195.8416,20,20,0,0,,37.8893753268522,128.821295881169
A10022769,주문진벽산블루밍오션힐스,5115025022,강원특별자치도,강릉시,주문진읍,교항리,강원특별자치도 강릉시 주문진읍 교항리 1269 주문진벽산블루밍오션힐스,분양,개별난방+기타,14137.458,3,113.0,벽산엔지니어링주식회사,(주)무궁화신탁,0336627775,,아파트,강원특별자치도 강릉시 장성로 25,위탁관리,계단식,20210322,026627780,113,8815.629,42.0,65.0,6.0,0.0,8815.6286,15,15,1,3,25415,37.8887959801302,128.822926259177
A10024474,주문진서희스타힐스아파트,5115025022,강원특별자치도,강릉시,주문진읍,교항리,강원특별자치도 강릉시 주문진읍 교항리 21 주문진서희스타힐스아파트,분양,개별난방,45848.0,5,416.0,서희건설,아시아신탁(주),0336629978,,아파트,강원특별자치도 강릉시 연주로 281-21,위탁관리,계단식,20201211,0336629979,416,45730.74,233.0,183.0,0.0,0.0,27675.3366,20,20,1,10,25423,37.8763050908569,128.82512991582
A21080001,동방타워맨션,5115025022,강원특별자치도,강릉시,주문진읍,교항리,강원특별자치도 강릉시 주문진읍 교항리 18-6 동방타워맨션,분양,개별난방,15361.0,1,158.0,동방건설,동방건설,0336625817,,아파트,강원특별자치도 강릉시 매맥이아랫길 24,위탁관리,복도식,19940917,0336615817,158,14528.91,112.0,35.0,11.0,0.0,10225.048,15,15,0,2,25423,37.8759530145244,128.826740249581
A21080103,교항2주공아파트,5115025022,강원특별자치도,강릉시,주문진읍,교항리,강원특별자치도 강릉시 주문진읍 교항리 1256 교항2주공아파트,분양,개별난방+기타,32862.617,5,475.0,(주)한양,대한주택공사,0336617557,,아파트,강원특별자치도 강릉시 연주로 241-7,위탁관리,복도식,20000731,0336617558,475,32558.96,475.0,0.0,0.0,0.0,22762.09,15,15,0,10,25423,37.8747788100465,128.828049308974
A21080202,극동아파트,5115025022,강원특별자치도,강릉시,주문진읍,교항리,강원특별자치도 강릉시 주문진읍 교항리 240-11 극동아파트,분양,개별난방,21714.0,2,203.0,극동건설,동일주택,0336626079,,아파트,강원특별자치도 강릉시 웃사다리4길 20,자치관리,계단식,19911001,0336616079,203,18988.5,0.0,203.0,0.0,0.0,14821.02,15,15,1,7,25417,37.887658358737,128.82061920619
A21080304,우신그린피아,5115025022,강원특별자치도,강릉시,주문진읍,교항리,강원특별자치도 강릉시 주문진읍 교항리 1166-1 우신그린피아,분양,개별난방,35900.0,8,498.0,우신종합건설(주),길정종합건설(주),0336615255,,아파트,강원특별자치도 강릉시 보리골길 26,자치관리,계단식,19990909,0336614089,498,35835.12,498.0,0.0,0.0,0.0,27866.28,15,15,1,17,25422,37.8719851117846,128.824178491742
A10022877,호반베르디움 오션,5115036025,강원특별자치도,강릉시,사천면,사천진리,강원특별자치도 강릉시 사천면 사천진리 60 호반베르디움 오션,임대,개별난방,65537.445,5,414.0,호반건설,코니스,0336450972,,아파트,강원특별자치도 강릉시 진리해변길 37,위탁관리,복도식,20231020,0336450973,414,43298.22,90.0,324.0,0.0,0.0,32828.88,20,20,2,12,25435,37.8385907328899,128.872325208254
A10023437,플라주메종아파트(강릉),5115036025,강원특별자치도,강릉시,사천면,사천진리,강원특별자치도 강릉시 사천면 사천진리 911 플라주메종아파트(강릉),분양,개별난방,11042.168,1,165.0,부경산업개발(주),(주)한일티앤아이,0336441990,,아파트,강원특별자치도 강릉시 해안로 1022,위탁관리,복도식,20211228,0336441994,165,10971.96,165.0,0.0,0.0,0.0,5228.1309,13,13,1,2,25435,37.8405370756816,128.871514985477
A10022793,영진코아루휴티스디오션,5115037022,강원특별자치도,강릉시,연곡면,영진리,강원특별자치도 강릉시 연곡면 영진리 382 영진코아루휴티스디오션,분양,개별난방,26387.012,3,209.0,금강종합건설,영진코아루휴티스디오션아파트,0336629890,,아파트,강원특별자치도 강릉시 연주로 120,위탁관리,계단식,20231120,0336629891,209,26063.0,0.0,209.0,0.0,0.0,15409.696,25,25,1,5,25428,37.8669054019882,128.838559225832
A10025128,강릉영진코아루비치테라스,5115037022,강원특별자치도,강릉시,연곡면,영진리,강원특별자치도 강릉시 연곡면 영진리 381 강릉영진코아루비치테라스,분양,개별난방,23343.21,1,298.0,(주)웰크론한텍,한국토지신탁,0336626634,,아파트,강원특별자치도 강릉시 홍질목길 12,위탁관리,복도식,20191218,0336626635,298,21548.043,298.0,0.0,0.0,0.0,10439.9364,19,19,2,3,25430,37.8683947130481,128.843790646565
A21086101,연곡1단지부영아파트,5115037022,강원특별자치도,강릉시,연곡면,영진리,강원특별자치도 강릉시 연곡면 영진리 11 연곡1단지부영아파트,분양,개별난방,15176.912,2,173.0,부영,부영,0336619017,,아파트,강원특별자치도 강릉시 영진3길 38,위탁관리,계단식,20051226,0336619018,173,13510.781,173.0,0.0,0.0,0.0,10377.751,13,13,0,7,25430,37.8685869140366,128.84183101221
A21086102,삼우그린,5115037022,강원특별자치도,강릉시,연곡면,영진리,강원특별자치도 강릉시 연곡면 영진리 305-2 삼우그린,분양,개별난방,20321.91,1,346.0,동창주택건설(주),동창주택건설,0336616227,,아파트,강원특별자치도 강릉시 연주로 130,위탁관리,복도식,19991211,0336616207,346,20321.91,346.0,0.0,0.0,0.0,12212.64,15,15,1,4,25428,37.8678408778863,128.838705998795
A21086103,연곡2단지부영아파트,5115037022,강원특별자치도,강릉시,연곡면,영진리,강원특별자치도 강릉시 연곡면 영진리 12 연곡2단지부영아파트,분양,개별난방,44596.67,5,371.0,부영,부영,0336619027,,아파트,강원특별자치도 강릉시 영진3길 43,위탁관리,계단식,20051226,0336619028,371,32885.703,269.0,102.0,0.0,0.0,24795.5176,15,15,1,18,25429,37.8695779123274,128.841745233782
A21086104,연곡3단지부영,5115037022,강원특별자치도,강릉시,연곡면,영진리,강원특별자치도 강릉시 연곡면 영진리 380 연곡3단지부영,분양,개별난방,53578.484,6,356.0,동광주택산업(주),(주)부영,0336619037,,아파트,강원특별자치도 강릉시 영진3길 15,위탁관리,계단식,20081126,0336619038,356,41608.605,0.0,356.0,0.0,0.0,30229.9892,15,15,1,15,25429,37.8705256843893,128.840414598386
