kaptCode,kaptName,bjdCode,as1,as2,as3,as4,kaptAddr,codeSaleNm,codeHeatNm,kaptTarea,kaptDongCnt,kaptdaCnt,kaptBcompany,kaptAcompany,kaptTel,kaptUrl,codeAptNm,doroJuso,codeMgrNm,codeHallNm,kaptUsedate,kaptFax,hoCnt,kaptMarea,kaptMparea60,kaptMparea85,kaptMparea135,kaptMparea136,privArea,kaptTopFloor,ktownFlrNo,kaptBaseFloor,kaptdEcntp,zipcode,위도,경도
A20003001,한신휴플러스,5111010200,강원특별자치도,춘천시,요선동,,강원특별자치도 춘천시 요선동 200 한신휴플러스,분양,개별난방,50253.32,6,364.0,한신공영(주),요선지구 주택재건축조합,0332513727,,아파트,강원특별자치도 춘천시 서부대성로 34,위탁관리,계단식,20070730,0332533727,364,38945.992,18.0,288.0,58.0,0.0,32975.5947,15,15,0,12,24271,37.8837004587724,127.726487280144
A10027103,미도파파크타워,5111010800,강원특별자치도,춘천시,조양동,,강원특별자치도 춘천시 조양동 34 미도파파크타워,분양,개별난방,10770.0,1,99.0,미도파건설,미도파건설,0332433887,,주상복합,강원특별자치도 춘천시 금강로 68-9,자치관리,복도식,19960910,0332433887,99,2460.6,9.0,90.0,0.0,0.0,8135.55,14,14,3,0,24353,37.8785314177646,127.728564969368
A10023808,호수마을아파트,5111010900,강원특별자치도,춘천시,죽림동,,강원특별자치도 춘천시 죽림동 188 호수마을아파트,분양,개별난방,39734.45,1,135.0,경남기업,INF,0332525679,,주상복합,,자치관리,복도식,20020603,0332523937,135,15560.66,38.0,78.0,19.0,0.0,11093.28,16,16,0,3,,37.8770460084334,127.727610926918
A10023722,롯데캐슬위너클래스,5111011100,강원특별자치도,춘천시,약사동,,강원특별자치도 춘천시 약사동 156-1 롯데캐슬위너클래스,분양,지역난방,123397.0,7,873.0,롯데건설,약사촉진3구역제개발정비사업조합,0332431118,https://롯데캐슬위너클래스.apti.co.kr/aptHome/,아파트,강원특별자치도 춘천시 방송길 41,위탁관리,계단식,20240603,0332436667,873,87311.195,255.0,618.0,0.0,0.0,64679.3496,27,27,2,21,24362,37.8719750931743,127.720981418038
A10024074,모아엘가센텀뷰아파트,5111011100,강원특별자치도,춘천시,약사동,,강원특별자치도 춘천시 약사동 77 모아엘가센텀뷰아파트,분양,지역난방,76388.6,5,567.0,혜림건설,약사촉진5구역 주택재건축정비사업조합,0332510567,https://moacentum.com/,아파트,강원특별자치도 춘천시 공지로 400,위탁관리,계단식,20220308,0332560568,567,53670.54,276.0,291.0,0.0,0.0,39835.5019,34,34,3,10,24357,37.8732806462766,127.724047385418
A10025340,코아루웰라움아파트,5111011200,강원특별자치도,춘천시,효자동,,강원특별자치도 춘천시 효자동 823 코아루웰라움아파트,분양,개별난방,20356.436,3,155.0,동서건설,한국토지신탁,0332623328,,아파트,강원특별자치도 춘천시 공지로218번길 26,위탁관리,계단식,20190710,0332623329,155,14625.36,0.0,155.0,0.0,0.0,11196.3325,20,20,2,6,24345,37.8641052238028,127.741357919817
A20009203,동보아파트,5111011200,강원특별자치도,춘천시,효자동,,강원특별자치도 춘천시 효자동 821 동보아파트,분양,개별난방,36529.0,3,687.0,동보건설,동보건설,0332625441,,아파트,강원특별자치도 춘천시 공지로200번길 13,위탁관리,복도식,19990519,0332625442,687,32036.691,687.0,0.0,0.0,0.0,21164.04,13,13,1,8,24343,37.863656118117,127.740382929209
A20009301,일성1차아파트,5111011200,강원특별자치도,춘천시,효자동,,강원특별자치도 춘천시 효자동 819 일성1차아파트,분양,개별난방,21505.0,3,199.0,일성건설,일성건설,0332515335,,아파트,강원특별자치도 춘천시 두하길 22,위탁관리,계단식,19950527,0332515336,199,19271.16,93.0,91.0,15.0,0.0,15175.68,15,15,0,8,24295,37.8760705475911,127.742420067077
A20082901,현진에버빌3차아파트,5111011200,강원특별자치도,춘천시,효자동,,강원특별자치도 춘천시 효자동 462-3 현진에버빌3차아파트,분양,개별난방,99897.26,10,641.0,현진건설,효일재건축,0332543465,hyunjinevervill3.co.kr,아파트,강원특별자치도 춘천시 춘천로 120,위탁관리,계단식,20141030,0332573465,641,74763.98,0.0,523.0,118.0,0.0,57215.018,20,20,2,17,24335,37.874445315838,127.730618404645
A20094802,춘천효자주공8차,5111011200,강원특별자치도,춘천시,효자동,,강원특별자치도 춘천시 효자동 333 춘천효자주공8차,임대,개별난방,31551.0,12,610.0,한국토지주택공사,한국토지주택공사,0332613892,www.kohom.or.kr,아파트,강원특별자치도 춘천시 공지로 234-16,위탁관리,계단식,19910503,0332623891,610,29427.16,610.0,0.0,0.0,0.0,22850.7,5,5,1,0,24344,37.8639481601474,127.739055681651
A20095301,내안애 양우아파트,5111011200,강원특별자치도,춘천시,효자동,,강원특별자치도 춘천시 효자동 701 내안애 양우아파트,분양,개별난방,44800.664,5,295.0,양우건설(주),양우건설(주),0332551488,,아파트,강원특별자치도 춘천시 공지로317번길 11,위탁관리,계단식,20050930,0332551480,295,33406.98,0.0,295.0,0.0,0.0,25070.28,15,15,1,11,24371,37.8672222922508,127.730093741866
A10020396,더샵 소양스타리버아파트,5111011400,강원특별자치도,춘천시,소양로2가,,강원특별자치도 춘천시 소양로2가 7-2 더샵 소양스타리버아파트,분양,지역난방,156017.45,11,1039.0,포스코이앤씨,춘천소양촉진2구역 재건축정비사업소,0338180205,,아파트,강원특별자치도 춘천시 모수물길 57,위탁관리,혼합식,20250929,0338180206,1039,100162.69,0.0,405.0,592.0,42.0,100162.69,26,0,3,0,,37.8864435505361,127.725649385515
A20011201,소양현대아파트,5111011400,강원특별자치도,춘천시,소양로2가,,강원특별자치도 춘천시 소양로2가 1 소양현대아파트,분양,개별난방,71956.99,7,635.0,현대개발,재건축조합,0332536389,,아파트,강원특별자치도 춘천시 모수물길 60,위탁관리,계단식,19981119,0332526389,635,59277.74,293.0,312.0,30.0,0.0,46916.68,15,15,1,23,24267,37.888915269733,127.726463944792
A20011202,e편한세상춘천,5111011400,강원특별자치도,춘천시,소양로2가,,강원특별자치도 춘천시 소양로2가 183 e편한세상춘천,분양,개별난방,216467.0,13,1431.0,(주)삼호건설,춘천 소양로주택재건축정비사업조합,0332517511,cceapt.com,아파트,강원특별자치도 춘천시 서부대성로 33,위탁관리,계단식,20140425,0332517513,1431,164630.12,0.0,1123.0,308.0,0.0,128073.662,18,18,3,0,24269,37.885415228641,127.725430360692
A10022782,파밀리에리버파크,5111011700,강원특별자치도,춘천시,근화동,,강원특별자치도 춘천시 근화동 815 파밀리에리버파크,분양,개별난방,49653.58,2,320.0,신동아,근화지역주택조합,0332410410,,아파트,강원특별자치도 춘천시 중앙로194번길 11,위탁관리,계단식,20240202,0332410510,320,33212.793,107.0,213.0,0.0,0.0,24495.7742,42,42,3,0,24246,37.8743701376237,127.71352690709
A20093101,청와아파트,5111011700,강원특별자치도,춘천시,근화동,,강원특별자치도 춘천시 근화동 742-1 청와아파트,분양,개별난방,19065.3,2,260.0,(주)삼원,(주)삼원,0332545806,,아파트,강원특별자치도 춘천시 중앙로190번길 79,자치관리,혼합식,19910527,0332545809,260,18901.191,140.0,120.0,0.0,0.0,14770.4,15,15,0,6,24245,37.8803588153176,127.713867142294
A20093103,신성근화미소지움,5111011700,강원특별자치도,춘천시,근화동,,강원특별자치도 춘천시 근화동 279-8 신성근화미소지움,분양,개별난방,159867.19,12,1092.0,신성건설(주),근화주공재건축정비조합,0332414664,,아파트,강원특별자치도 춘천시 근화길15번길 26,위탁관리,계단식,20071218,0332416996,1092,118865.37,520.0,320.0,252.0,0.0,89042.99,15,15,2,40,24361,37.8718729459828,127.718930569269
A10023269,우두 이지더원 2차 아파트,5111011800,강원특별자치도,춘천시,우두동,,강원특별자치도 춘천시 우두동 1087 우두 이지더원 2차 아파트,임대,지역난방,61845.68,6,402.0,라인건설,(주)라인앤프라임,0332440500,,아파트,강원특별자치도 춘천시 우두1길 140,위탁관리,계단식,20230412,0332440501,402,41224.82,0.0,402.0,0.0,0.0,30638.3898,25,25,1,12,24221,37.9108474570609,127.737685191779
A10023965,춘천우두이지더원시그니처,5111011800,강원특별자치도,춘천시,우두동,,강원특별자치도 춘천시 우두동 1089 춘천우두이지더원시그니처,분양,지역난방,135329.6,10,916.0,(주)라인건설,(주)라인앤프라임,0332449353,,아파트,강원특별자치도 춘천시 우두1길 70,위탁관리,계단식,20211221,0332449355,916,76051.3,0.0,916.0,0.0,0.0,76051.2948,26,26,1,20,24221,37.9082916915122,127.736955243436
A10024323,춘천우두LH천년나무3단지아파트,5111011800,강원특별자치도,춘천시,우두동,,강원특별자치도 춘천시 우두동 1088 춘천우두LH천년나무3단지아파트,임대,지역난방,35881.39,3,492.0,주)KR산업,한국토지주택공사,0332550553,,아파트,강원특별자치도 춘천시 우두1길 40,위탁관리,복도식,20210329,0332510553,492,35672.555,492.0,0.0,0.0,0.0,18873.12,20,20,1,9,24221,37.9088228143482,127.737554904254
A10024596,춘천파크에뷰아파트,5111011800,강원특별자치도,춘천시,우두동,,강원특별자치도 춘천시 우두동 1085 춘천파크에뷰아파트,분양,지역난방,140571.0,9,979.0,(주)한진중공업,한국토지주택공사,0332413677,춘천파크에뷰.apti.co.kr/aptHome/,아파트,강원특별자치도 춘천시 우두1길 129,위탁관리,계단식,20200911,0332423677,979,140562.98,0.0,979.0,0.0,0.0,80656.63,25,25,1,25,24221,37.9107464113314,127.735260387754
A10026590,우두LH 천년나무1단지,5111011800,강원특별자치도,춘천시,우두동,,강원특별자치도 춘천시 우두동 927 우두LH 천년나무1단지,임대,지역난방,29717.44,3,482.0,풍림산업(주) 외2,한국토지주택공사,0332512631,,아파트,강원특별자치도 춘천시 우두로 130,위탁관리,복도식,20171208,0332512639,482,29560.354,482.0,0.0,0.0,0.0,16187.04,18,18,1,6,24221,37.9115924257719,127.737355467594
A20015004,강변코아루,5111011800,강원특별자치도,춘천시,우두동,,강원특별자치도 춘천시 우두동 1082 강변코아루,분양,개별난방,142097.27,17,803.0,이테크건설,한국토지신탁,0332570023,,아파트,강원특별자치도 춘천시 새청말길 26,위탁관리,계단식,20070221,0332570029,803,111345.58,0.0,521.0,130.0,152.0,81958.316,14,14,1,37,24229,37.8968054867893,127.735678093473
A20015005,동부아파트,5111011800,강원특별자치도,춘천시,우두동,,강원특별자치도 춘천시 우두동 1068-1 동부아파트,분양,개별난방,82678.0,8,854.0,동부건설주식회사,동부건설주식회사,0332550652,https://춘천동부..apti.co.kr,아파트,강원특별자치도 춘천시 충열로 32,위탁관리,계단식,19941129,0332550654,854,76655.2,464.0,390.0,0.0,0.0,60958.086,15,15,1,30,24230,37.8986032365295,127.733101367031
A20077901,두미르,5111011800,강원특별자치도,춘천시,우두동,,강원특별자치도 춘천시 우두동 742-1 두미르,사택 및 관사 등,개별난방,66103.0,7,428.0,두산건설,국방부,0332410983,,아파트,강원특별자치도 춘천시 영서로 2793,위탁관리,계단식,20030707,0332410984,428,38392.0,0.0,428.0,0.0,0.0,35428.93,12,12,1,19,24236,37.9016811907374,127.728962664035
A20093903,롯데인벤스우두파크아파트,5111011800,강원특별자치도,춘천시,우두동,,강원특별자치도 춘천시 우두동 1080 롯데인벤스우두파크아파트,분양,개별난방,126904.0,16,704.0,롯데기공,롯데기공,0332572750,,아파트,강원특별자치도 춘천시 충열로 29,위탁관리,계단식,20060228,0332572751,704,96669.26,0.0,356.0,278.0,70.0,74369.42,15,15,1,26,24225,37.9005265842536,127.731428059815
A20094001,삼성아파트,5111011800,강원특별자치도,춘천시,우두동,,강원특별자치도 춘천시 우두동 1068 삼성아파트,분양,개별난방,30791.004,3,228.0,삼성건설,삼성건설,0332440050,,아파트,강원특별자치도 춘천시 충열로 30,위탁관리,계단식,19940530,0332510083,228,28365.936,0.0,0.0,228.0,0.0,23235.48,15,15,1,8,24230,37.8983012698031,127.730518200398
A20014001,사농현대아파트,5111011900,강원특별자치도,춘천시,사농동,,강원특별자치도 춘천시 사농동 158 사농현대아파트,분양,개별난방,87716.0,12,810.0,고려산업개발,고려산업개발,0332551740,,아파트,강원특별자치도 춘천시 영서로 2920,위탁관리,계단식,20020927,0332551739,810,83286.9,180.0,510.0,120.0,0.0,60578.7,15,15,0,27,24224,37.9124293200543,127.723781385392
A20071303,춘천롯데캐슬더퍼스트아파트1단지,5111011900,강원특별자치도,춘천시,사농동,,강원특별자치도 춘천시 사농동 809 춘천롯데캐슬더퍼스트아파트1단지,분양,개별난방,49855.46,4,306.0,롯데건설(주),다올부동산,0332512266,cafe.daum.net/cclottecastle1stapt,아파트,강원특별자치도 춘천시 마장길 58,위탁관리,계단식,20081127,0332562269,306,36991.16,0.0,221.0,85.0,0.0,28964.92,15,15,2,12,24222,37.9084075683445,127.729780986586
A20071304,춘천롯데캐슬더퍼스트아파트2단지,5111011900,강원특별자치도,춘천시,사농동,,강원특별자치도 춘천시 사농동 810 춘천롯데캐슬더퍼스트아파트2단지,분양,개별난방,51748.69,4,363.0,롯데건설,다올부동산,0332512267,cafe.daum.net/cclottecastle1stapt,아파트,강원특별자치도 춘천시 마장길 60,위탁관리,계단식,20081127,0332512269,363,39934.79,0.0,363.0,0.0,0.0,30849.07,15,15,1,13,24222,37.9091737170003,127.730318105364
A20071305,뉴시티코아루,5111011900,강원특별자치도,춘천시,사농동,,강원특별자치도 춘천시 사농동 820 뉴시티코아루,분양,개별난방,64524.92,8,463.0,금강종합건설,한국토지신탁,0332519889,뉴시티코아루.apti.co.kr,아파트,강원특별자치도 춘천시 영서로 2922,위탁관리,계단식,20130524,0332519885,463,51671.01,0.0,463.0,0.0,0.0,38978.2342,15,15,1,0,24223,37.9116285817226,127.724995630277
A10020558,세경1차아파트,5111012000,강원특별자치도,춘천시,후평동,,강원특별자치도 춘천시 후평동 67-12 세경1차아파트,분양,개별난방,9807.8,4,190.0,세경건설,세경건설,0332547193,,아파트,강원특별자치도 춘천시 백령로 202,자치관리,계단식,19841212,0332417195,190,9807.8,190.0,0.0,0.0,0.0,9807.8,1,5,0,0,,37.8773458856879,127.748880667779
A10021862,봉의아파트,5111012000,강원특별자치도,춘천시,후평동,,강원특별자치도 춘천시 후평동 542-3 봉의아파트,분양,개별난방,10026.0,6,200.0,주택공사,주택공사,0332545029,,아파트,강원특별자치도 춘천시 후석로441번길 40,자치관리,계단식,19751216,0332545028,200,9800.0,200.0,0.0,0.0,0.0,8310.21,0,5,0,0,,37.8861165544295,127.742702804369
A10022016,후평 대우아파트,5111012000,강원특별자치도,춘천시,후평동,,강원특별자치도 춘천시 후평동 867- 후평 대우아파트,분양,개별난방,27130.0,12,260.0,대우건설,대우건설,0332575453,,아파트,강원특별자치도 춘천시 후만로126번길 31,위탁관리,계단식,19911102,0332565453,260,25022.4,0.0,260.0,0.0,0.0,21167.62,5,5,1,0,,37.8771069749439,127.758601628628
A10022214,세경2차 아파트,5111012000,강원특별자치도,춘천시,후평동,,강원특별자치도 춘천시 후평동 81-1 세경2차 아파트,분양,개별난방,12366.0,4,200.0,세경건설,세경건설,0332578950,,아파트,강원특별자치도 춘천시 후석로326번길 36-7,자치관리(직영),계단식,19860424,0332578950,200,12000.0,200.0,0.0,0.0,0.0,11052.74,5,5,0,0,,37.8803973731426,127.753139157886
A10022275,청실아파트,5111012000,강원특별자치도,춘천시,후평동,,강원특별자치도 춘천시 후평동 885- 청실아파트,분양,개별난방,10520.0,4,140.0,배원건설,청실아파트,0332573205,,아파트,강원특별자치도 춘천시 세실로 187,자치관리,계단식,19911010,,140,10068.42,0.0,140.0,0.0,0.0,10068.42,5,5,1,0,,37.8740285708854,127.757989273661
A10022818,춘천후평행복주택,5111012000,강원특별자치도,춘천시,후평동,,강원특별자치도 춘천시 후평동 333-13 춘천후평행복주택,임대,개별난방,13093.531,1,212.0,(주)개성건설,한국토지주택공사,0332510145,,아파트,강원특별자치도 춘천시 삭주로145번길 15,위탁관리,복도식,20231221,0332520145,212,13093.531,212.0,0.0,0.0,0.0,6029.36,15,15,1,3,24232,37.8870371715886,127.745858392248
A10025356,춘천후평우미린뉴시티,5111012000,강원특별자치도,춘천시,후평동,,강원특별자치도 춘천시 후평동 43 춘천후평우미린뉴시티,분양,개별난방,253972.08,11,1745.0,우미건설(주),후평제3아파트 주택재건축정비사업조합,0332449661,ccnewcity.com,아파트,강원특별자치도 춘천시 보안길 36,위탁관리,계단식,20210208,0332449663,1745,179948.45,215.0,1530.0,0.0,0.0,179948.46,31,31,2,36,24303,37.8777149683472,127.753178222076
A10025964,춘천일성트루엘더퍼스트 아파트,5111012000,강원특별자치도,춘천시,후평동,,강원특별자치도 춘천시 후평동 910 춘천일성트루엘더퍼스트 아파트,분양,개별난방,159509.0,12,1123.0,일성건설(주),후평제2아파트주택재건축정비사업조합,0332559727,truel.apti.co.kr,아파트,강원특별자치도 춘천시 백령로 215,위탁관리,계단식,20181231,0332559720,1123,113415.71,199.0,919.0,0.0,5.0,84415.132,20,20,2,39,24279,37.8771214730778,127.745856482059
A10027237,금호빌리지,5111012000,강원특별자치도,춘천시,후평동,,강원특별자치도 춘천시 후평동 866 금호빌리지,분양,개별난방,34757.84,16,276.0,(주)금호건설,(주)금호건설,0332565365,,연립주택,강원특별자치도 춘천시 후만로 119,위탁관리,계단식,19920803,0332576365,276,31806.17,0.0,84.0,184.0,8.0,27541.24,4,4,1,0,24301,37.8784335838483,127.756362656251
A20016002,춘천 포스코 더샵,5111012000,강원특별자치도,춘천시,후평동,,강원특별자치도 춘천시 후평동 904 춘천 포스코 더샵,분양,개별난방,299093.0,12,1792.0,포스코건설(주),후평1단지재건축정비사업조합,0332523652,www.thesharp.or.kr,아파트,강원특별자치도 춘천시 후석로 325,자치관리,계단식,20080627,0332523600,1792,173573.61,292.0,957.0,181.0,362.0,173573.6138,25,25,3,40,24278,37.8801532343528,127.749084593942
A20016003,초록지붕 8차 아파트,5111012000,강원특별자치도,춘천시,후평동,,강원특별자치도 춘천시 후평동 908 초록지붕 8차 아파트,분양,개별난방,44741.87,3,278.0,세경건설(주),세경건설(주),0332418933,,아파트,강원특별자치도 춘천시 세실로 260,위탁관리,계단식,20101203,0332418934,278,29701.09,0.0,278.0,0.0,0.0,23561.8743,15,15,2,9,24301,37.8796857704042,127.755508992119
A20016101,동산아파트,5111012000,강원특별자치도,춘천시,후평동,,강원특별자치도 춘천시 후평동 575-4 동산아파트,분양,개별난방,15963.0,2,194.0,동산토건,동산토건,0332554835,,아파트,강원특별자치도 춘천시 후석로441번길 7,위탁관리(직영+위탁),혼합식,19900426,0332554835,194,12536.84,67.0,127.0,0.0,0.0,11969.65,10,10,0,7,24251,37.8881199184084,127.742321871201
A20016103,극동아파트,5111012000,강원특별자치도,춘천시,후평동,,강원특별자치도 춘천시 후평동 595 극동아파트,분양,개별난방,47770.89,5,460.0,(주)극동,(주)극동,0332525551,,아파트,강원특별자치도 춘천시 후석로 459,위탁관리,계단식,19971023,0332525554,460,43061.2,280.0,180.0,0.0,0.0,32049.96,18,18,2,13,24250,37.8894694953426,127.740808012375
A20016304,초록지붕6차,5111012000,강원특별자치도,춘천시,후평동,,강원특별자치도 춘천시 후평동 903 초록지붕6차,분양,개별난방,33241.75,2,299.0,세경건설(주),세경건설(주),0332510700,,아파트,강원특별자치도 춘천시 세실로 261,위탁관리,혼합식,20040103,0332442990,299,33011.62,0.0,299.0,0.0,0.0,25148.393,15,15,0,10,24302,37.8799237225912,127.754269967409
A20070701,에리트,5111012000,강원특별자치도,춘천시,후평동,,강원특별자치도 춘천시 후평동 529-4 에리트,분양,개별난방,6000.0,8,260.0,에리트,에리트주택,0332533023,,아파트,강원특별자치도 춘천시 삭주로 89-7,자치관리,계단식,19810127,0332533023,260,5710.0,40.0,220.0,0.0,0.0,17061.1,5,5,0,0,24253,37.8848499469443,127.740542226489
A20075405,한신아파트,5111012000,강원특별자치도,춘천시,후평동,,강원특별자치도 춘천시 후평동 864 한신아파트,분양,개별난방,60945.0,5,560.0,(주)한신공영,(주)한신공영,0332565112,,아파트,강원특별자치도 춘천시 부평길 7,자치관리,계단식,19910119,0332565102,560,49734.5,0.0,470.0,90.0,0.0,49734.5,15,15,1,19,24284,37.8731444917167,127.750521708251
A20075503,후평주공6단지,5111012000,강원특별자치도,춘천시,후평동,,강원특별자치도 춘천시 후평동 481 후평주공6단지,분양,개별난방,25025.23,10,360.0,LH공사,LH공사,0332560257,,아파트,강원특별자치도 춘천시 후만로 37,자치관리,계단식,19890820,0332410258,371,24752.082,360.0,0.0,0.0,0.0,19679.4,5,5,0,0,24281,37.8749189560431,127.748867462809
A20075504,후평주공7단지,5111012000,강원특별자치도,춘천시,후평동,,강원특별자치도 춘천시 후평동 477 후평주공7단지,분양,개별난방,23958.0,14,460.0,LH주택공사,LH주택공사,0332515136,,아파트,강원특별자치도 춘천시 후만로 56,자치관리,계단식,19890820,0332515137,460,19117.5,460.0,0.0,0.0,0.0,19117.5,5,5,0,0,24285,37.8744480425082,127.749589078629
A20075806,후평현대2차,5111012000,강원특별자치도,춘천시,후평동,,강원특별자치도 춘천시 후평동 427 후평현대2차,분양,개별난방,43714.0,4,433.0,현대산업개발,현대산업개발,0332529015,,아파트,강원특별자치도 춘천시 후석로326번길 13,자치관리,계단식,19900514,0332529010,433,43207.996,0.0,433.0,0.0,0.0,35243.846,15,15,0,15,24300,37.8808592009626,127.751177307568
A20075807,후평현대3차아파트,5111012000,강원특별자치도,춘천시,후평동,,강원특별자치도 춘천시 후평동 87 후평현대3차아파트,분양,개별난방,45508.0,5,440.0,(주)현대산업개발,(주)현대산업개발,0332566604,,아파트,강원특별자치도 춘천시 후석로326번길 31,위탁관리,계단식,19901027,0332566605,440,45039.336,0.0,440.0,0.0,0.0,36283.76,15,15,0,15,24300,37.8817878118171,127.753147634527
A20075909,주공석사3지구아파트,5111012000,강원특별자치도,춘천시,후평동,,강원특별자치도 춘천시 후평동 899 주공석사3지구아파트,임대,중앙난방,31639.0,4,686.0,한국중공업,한국토지주택공사,0332419370,www.kohom.co.kr,아파트,강원특별자치도 춘천시 후석로228번길 47,위탁관리,복도식,19931218,0332569370,686,29321.37,686.0,0.0,0.0,0.0,20010.42,15,15,0,9,24309,37.8709016695891,127.758122257799
A20095802,후평현대5차아파트,5111012000,강원특별자치도,춘천시,후평동,,강원특별자치도 춘천시 후평동 902 후평현대5차아파트,분양,개별난방,30461.58,2,305.0,현대건설,청천개발,0332430866,,아파트,강원특별자치도 춘천시 후만로24번길 13,자치관리,혼합식,19960618,0332510727,305,27569.312,219.0,86.0,0.0,0.0,20420.75,15,15,0,7,24285,37.8737433487013,127.750435495268
A20095806,후평주공5단지,5111012000,강원특별자치도,춘천시,후평동,,강원특별자치도 춘천시 후평동 481 후평주공5단지,분양,개별난방,30779.3,13,590.0,한국토지주택공사,한국토지주택공사,0332555182,후평주공5단지.apti.co.kr,아파트,강원특별자치도 춘천시 후만로 15,자치관리,계단식,19890430,0332515182,600,29583.37,590.0,0.0,0.0,0.0,24632.4,5,5,0,0,24288,37.8736243656936,127.746590671623
A20095904,후평현대1차,5111012000,강원특별자치도,춘천시,후평동,,강원특별자치도 춘천시 후평동 845 후평현대1차,분양,개별난방,37270.445,3,343.0,현대산업개발,현대산업개발,0332554235,,아파트,강원특별자치도 춘천시 삭주로 113,자치관리,계단식,19881215,0332554211,343,36855.207,0.0,287.0,56.0,0.0,30261.15,15,15,0,12,24253,37.8852377357985,127.743866977497
A20095905,세경3차,5111012000,강원특별자치도,춘천시,후평동,,강원특별자치도 춘천시 후평동 845-1 세경3차,분양,개별난방,38123.0,2,540.0,세경건설 주식회사,세경건설 주식회사,0332559721,,아파트,강원특별자치도 춘천시 삭주로 125,위탁관리,복도식,19910813,0332557770,540,35937.0,540.0,0.0,0.0,0.0,26827.2,15,15,0,4,24253,37.8859114628225,127.744919222876
A20096210,후평주공4단지,5111012000,강원특별자치도,춘천시,후평동,,강원특별자치도 춘천시 후평동 808-1 후평주공4단지,분양,개별난방,41551.33,29,708.0,대한주택공사,대한주택공사,0332533545,,아파트,강원특별자치도 춘천시 후만로98번길 9,위탁관리,계단식,19851019,0332533546,708,39309.6,708.0,0.0,0.0,0.0,37038.24,5,5,0,0,24306,37.8761538934543,127.75579843766
A20096305,동아아파트,5111012000,강원특별자치도,춘천시,후평동,,강원특별자치도 춘천시 후평동 893 동아아파트,분양,개별난방,61431.39,5,390.0,동아건설,동아건설,0332414637,,아파트,강원특별자치도 춘천시 서부대성로 327,자치관리,계단식,19950624,0332414638,390,45720.0,0.0,0.0,390.0,0.0,45720,15,15,0,13,24314,37.8715554035739,127.752924799084
A20096308,세경4차아파트,5111012000,강원특별자치도,춘천시,후평동,,강원특별자치도 춘천시 후평동 885-1 세경4차아파트,분양,개별난방,37374.4,12,560.0,세경산업(주),세경산업(주),0332565947,,아파트,강원특별자치도 춘천시 세실로 173,위탁관리,계단식,19940812,0332548930,560,35557.2,560.0,0.0,0.0,0.0,28702.8,5,5,1,0,24310,37.8719221189791,127.758015538504
A20096312,석사2지구아파트,5111012000,강원특별자치도,춘천시,후평동,,강원특별자치도 춘천시 후평동 899 석사2지구아파트,분양,중앙난방,97010.17,14,1309.0,주택공사,주택공사,0332419694,,아파트,강원특별자치도 춘천시 후석로228번길 24,위탁관리,복도식,19940531,0332519694,1309,97010.17,1309.0,0.0,0.0,0.0,70823.11,15,15,0,17,24311,37.8720104727335,127.756002164489
A10020285,춘천 삼부르네상스 더 테라스,5111012100,강원특별자치도,춘천시,온의동,,강원특별자치도 춘천시 온의동 602- 춘천 삼부르네상스 더 테라스,분양,개별난방,12917.706,5,99.0,삼부토건,봄내산업개발,0332419955,,연립주택,강원특별자치도 춘천시 안마산로 10,위탁관리,기타,20241209,0332419944,99,11693.968,0.0,54.0,18.0,27.0,10544.319,4,3,1,30,,37.8579007552146,127.718042705395
A10023861,센트럴타워푸르지오아파트,5111012100,강원특별자치도,춘천시,온의동,,강원특별자치도 춘천시 온의동 601 센트럴타워푸르지오아파트,분양,개별난방,193256.03,6,1175.0,(주)대우건설,(주)대우건설,0332446563,https://towerprugio.aptstory.com,아파트,강원특별자치도 춘천시 방송길 77,위탁관리,계단식,20220328,0332446564,1175,135908.12,0.0,1083.0,92.0,0.0,101267.6638,49,49,6,23,24363,37.8694788164144,127.72047703505
A10024151,춘천센트럴파크푸르지오,5111012100,강원특별자치도,춘천시,온의동,,강원특별자치도 춘천시 온의동 44-1 춘천센트럴파크푸르지오,분양,개별난방,243655.0,14,1556.0,대우건설,코리아신탁,0332551556,,아파트,강원특별자치도 춘천시 스포츠타운길 501,위탁관리,계단식,20210827,0332561556,1556,168415.75,108.0,1390.0,58.0,0.0,129101.8274,32,32,2,42,24430,37.8678513045965,127.708971673821
A10027820,롯데캐슬 스카이클래스,5111012100,강원특별자치도,춘천시,온의동,,강원특별자치도 춘천시 온의동 590 롯데캐슬 스카이클래스,분양,개별난방,185340.11,7,993.0,롯데건설(주),"롯데쇼핑(주), 롯데건설(주)",0332448651,http://cafe.daum.net/skyclass2016,아파트,강원특별자치도 춘천시 방송길 86,위탁관리,계단식,20151119,0332448653,993,127473.28,0.0,496.0,459.0,38.0,96384.323,39,39,3,21,24364,37.8678524886479,127.718894343794
A20093702,금호3차아파트,5111012100,강원특별자치도,춘천시,온의동,,강원특별자치도 춘천시 온의동 571 금호3차아파트,분양,개별난방,25344.49,3,250.0,춘천제2연합주택조합,(주)금호건설,0332565332,,아파트,강원특별자치도 춘천시 영서로 2319,자치관리,계단식,19941020,0332535334,250,22717.09,125.0,115.0,10.0,0.0,18602.85,15,15,1,9,24433,37.8664283965303,127.716453730704
A20093704,한주2차아파트,5111012100,강원특별자치도,춘천시,온의동,,강원특별자치도 춘천시 온의동 572 한주2차아파트,분양,개별난방,28826.77,3,297.0,한주개발,한주개발,0332545333,,아파트,강원특별자치도 춘천시 스포츠타운길 528-12,자치관리,계단식,19950429,0332540095,297,27501.83,120.0,177.0,0.0,0.0,21807.195,15,15,1,10,24433,37.8677792812404,127.71443298141
A20093705,금호1차아파트,5111012100,강원특별자치도,춘천시,온의동,,강원특별자치도 춘천시 온의동 65-10 금호1차아파트,분양,개별난방,47540.05,6,480.0,금호건설,금호,0332567105,,아파트,강원특별자치도 춘천시 스포츠타운길 535,자치관리,계단식,19901106,0332411546,480,38374.2,0.0,480.0,0.0,0.0,38374.2,15,15,1,16,24429,37.8704928935412,127.713956959728
A20093706,럭키아파트,5111012100,강원특별자치도,춘천시,온의동,,강원특별자치도 춘천시 온의동 510 럭키아파트,분양,개별난방,59056.64,4,544.0,LG건설,LG건설,0332511188,,아파트,강원특별자치도 춘천시 영서로 2317,위탁관리,계단식,19930121,0332511533,544,55493.5,22.0,522.0,0.0,0.0,45486.41,15,15,0,19,24434,37.8654448390049,127.716233171468
A20093801,온의마젤란21,5111012100,강원특별자치도,춘천시,온의동,,강원특별자치도 춘천시 온의동 573 온의마젤란21,분양,개별난방,33208.51,4,233.0,유진기업,이츠원,0332522866,,아파트,강원특별자치도 춘천시 영서로 2329,위탁관리,계단식,20071016,0332522867,233,27200.123,0.0,233.0,0.0,0.0,19701.769,15,15,2,7,24433,37.8671908235606,127.716547825177
A20093803,보배아파트,5111012100,강원특별자치도,춘천시,온의동,,강원특별자치도 춘천시 온의동 509 보배아파트,분양,개별난방,34193.58,3,262.0,벽산건설(주),(주)보배개발,0332555166,,아파트,강원특별자치도 춘천시 스포츠타운길 529-15,위탁관리,계단식,19920917,0332555165,262,32548.76,0.0,182.0,80.0,0.0,25548.28,14,14,1,10,24429,37.8695010641101,127.713985574931
A10025205,e편한세상 춘천 한숲시티아파트,5111012300,강원특별자치도,춘천시,퇴계동,,강원특별자치도 춘천시 퇴계동 1240 e편한세상 춘천 한숲시티아파트,분양,개별난방,433816.0,18,2835.0,대림산업,(주)생보부동산신탁,0332416890,cafe.naver.com/ephcity2835,아파트,강원특별자치도 춘천시 안마산로 133,위탁관리,계단식,20191031,0332416893,2835,308035.5,292.0,2117.0,426.0,0.0,234457.6486,35,35,2,48,24448,37.85600920406,127.729830868105
A10026173,퇴계세영리첼아파트,5111012300,강원특별자치도,춘천시,퇴계동,,강원특별자치도 춘천시 퇴계동 1235 퇴계세영리첼아파트,분양,개별난방,23000.0,1,168.0,세영종합건설주식회사,세영종합건설주식회사,0332640951,,아파트,강원특별자치도 춘천시 김유정로 1864,위탁관리,계단식,20180516,0332640952,168,16380.538,0.0,168.0,0.0,0.0,24458.784,24,24,1,4,24422,37.8530453154364,127.735419807617
A20017001,퇴계현진아파트,5111012300,강원특별자치도,춘천시,퇴계동,,강원특별자치도 춘천시 퇴계동 916-1 퇴계현진아파트,분양,개별난방,19850.76,2,195.0,현진종합건설(주),현진종합건설(주),0332517385,,아파트,강원특별자치도 춘천시 춘주로 150,자치관리,계단식,19941129,0332513108,195,15244.164,195.0,0.0,0.0,0.0,11690.055,13,13,1,8,24452,37.8582318617846,127.725067949506
A20017003,유승한내들아파트,5111012300,강원특별자치도,춘천시,퇴계동,,강원특별자치도 춘천시 퇴계동 1041 유승한내들아파트,분양,개별난방,46326.957,6,292.0,(주)유승종합건설,(주)유승종합건설,0332576565,,아파트,강원특별자치도 춘천시 퇴계로 108,위탁관리,계단식,20060831,0332576564,292,36209.04,0.0,204.0,88.0,0.0,27598.0748,15,15,1,10,24377,37.8616410437652,127.731047894192
A20017004,일성2차아파트,5111012300,강원특별자치도,춘천시,퇴계동,,강원특별자치도 춘천시 퇴계동 1139 일성2차아파트,분양,개별난방,32574.9,4,296.0,일성종합건설주식회사,일성종합건설주식회사,0332535338,,아파트,강원특별자치도 춘천시 우묵길78번길 25,자치관리,계단식,19961129,0332535336,296,21073.34,145.0,151.0,0.0,0.0,21073.837,17,17,1,5,24367,37.8663506526505,127.726873877659
A20017005,퇴계동중앙하이츠빌2단지,5111012300,강원특별자치도,춘천시,퇴계동,,강원특별자치도 춘천시 퇴계동 1048 퇴계동중앙하이츠빌2단지,분양,개별난방,41451.246,4,297.0,(주)중앙건설,(주)명문건설,0332567751,,아파트,강원특별자치도 춘천시 영서로2141번길 25,자치관리,계단식,20070726,0332567762,297,41451.17,0.0,208.0,89.0,0.0,26352.974,15,15,1,10,24432,37.8558834329593,127.736126708382
A20017006,퇴계주공8차아파트,5111012300,강원특별자치도,춘천시,퇴계동,,강원특별자치도 춘천시 퇴계동 1036 퇴계주공8차아파트,임대,개별난방,27624.0,6,372.0,중원건설,한국토지주택공사,0332579888,,아파트,강원특별자치도 춘천시 승지골길16번길 48,위탁관리,계단식,20050715,0332579885,372,27624.0,372.0,0.0,0.0,0.0,19939.56,15,15,0,13,24418,37.84826042597,127.746463915928
A20017008,중앙하이츠빌1단지아파트 입주자대표회의,5111012300,강원특별자치도,춘천시,퇴계동,,강원특별자치도 춘천시 퇴계동 1043 중앙하이츠빌1단지아파트 입주자대표회의,분양,개별난방,59911.09,7,420.0,중앙건설,모아건설,0332524422,,아파트,강원특별자치도 춘천시 영서로2141번길 33,자치관리,계단식,20061027,0332544422,420,51540.754,0.0,290.0,130.0,0.0,40251.681,15,15,1,14,24432,37.8554725341577,127.736066376245
A20017009,퇴계주공9차아파트,5111012300,강원특별자치도,춘천시,퇴계동,,강원특별자치도 춘천시 퇴계동 1024 퇴계주공9차아파트,임대,개별난방,34231.0,7,434.0,(주)서광건설,한국토지주택공사,0332560040,,아파트,강원특별자치도 춘천시 안마산로 244,위탁관리,계단식,20060630,0332560047,434,34216.0,434.0,0.0,0.0,0.0,23370.76,15,15,0,16,24425,37.8475385425239,127.738987868653
A20017012,퇴계(1)주공아파트,5111012300,강원특별자치도,춘천시,퇴계동,,강원특별자치도 춘천시 퇴계동 967 퇴계(1)주공아파트,분양,개별난방,52011.18,8,572.0,대한주택공사,대한주택공사,0332550650,,아파트,강원특별자치도 춘천시 퇴계로 167,위탁관리,복도식,20000918,0332550651,572,51882.117,572.0,0.0,0.0,0.0,28434.12,18,18,0,12,24379,37.8593865446498,127.736671765992
A20017019,춘천뜨란채아파트,5111012300,강원특별자치도,춘천시,퇴계동,,강원특별자치도 춘천시 퇴계동 1031 춘천뜨란채아파트,분양,개별난방,82923.484,11,714.0,"한울건설, 금호건설",대한주택공사,0332520021,,아파트,강원특별자치도 춘천시 승지골길16번길 47,위탁관리,계단식,20060425,0332520023,714,82462.79,0.0,714.0,0.0,0.0,60645.06,15,15,0,25,24419,37.8490017712533,127.745117743389
A20017023,퇴계주공7단지아파트,5111012300,강원특별자치도,춘천시,퇴계동,,강원특별자치도 춘천시 퇴계동 1025 퇴계주공7단지아파트,임대,개별난방,73783.0,11,1175.0,(주)효성,한국토지주택공사,0332577895,,아파트,강원특별자치도 춘천시 승지골길16번길 14,위탁관리,복도식,20041019,0332577897,1175,73782.33,1175.0,0.0,0.0,0.0,48890.83,15,15,1,11,24426,37.8474901565185,127.742654905626
A20075121,퇴계금호2차아파트,5111012300,강원특별자치도,춘천시,퇴계동,,강원특별자치도 춘천시 퇴계동 945 퇴계금호2차아파트,분양,개별난방,99072.0,8,864.0,광주고속,금호건설,0332615334,,아파트,강원특별자치도 춘천시 안마산로 214,위탁관리,계단식,19931214,0332623238,864,91792.16,330.0,294.0,240.0,0.0,74254.05,15,15,0,30,24424,37.849969074308,127.736573394731
A20075322,퇴계현대2차아파트,5111012300,강원특별자치도,춘천시,퇴계동,,강원특별자치도 춘천시 퇴계동 916 퇴계현대2차아파트,분양,중앙난방,92486.13,9,1049.0,현대산업개발(주),현대산업개발(주),0332422156,,아파트,강원특별자치도 춘천시 행촌로 14,자치관리,혼합식,19941214,0332422157,1049,78473.21,1049.0,0.0,0.0,0.0,58961.34,15,15,2,32,24453,37.8577683337127,127.722825658913
A20076024,퇴계주공2차아파트,5111012300,강원특별자치도,춘천시,퇴계동,,강원특별자치도 춘천시 퇴계동 983 퇴계주공2차아파트,분양,개별난방,111657.63,17,1303.0,대한주택공사,대한주택공사,0332632321,퇴계주공2단지.apti.co.kr,아파트,강원특별자치도 춘천시 퇴계로 168,위탁관리,혼합식,19990819,0332632322,1303,99426.0,1303.0,0.0,0.0,0.0,73383.85,18,18,0,32,24378,37.8583575018498,127.73514339275
A20094302,쌍용스윗닷홈아파트,5111012300,강원특별자치도,춘천시,퇴계동,,강원특별자치도 춘천시 퇴계동 1040 쌍용스윗닷홈아파트,분양,개별난방,49591.586,6,255.0,쌍용건설,쌍용건설,0332553305,www.sapt.kr,아파트,강원특별자치도 춘천시 춘주로 176-22,자치관리,계단식,20050530,0332563335,255,38492.637,0.0,90.0,136.0,29.0,29168.339,23,23,1,7,24449,37.857725817976,127.72974757092
A20094307,퇴계우성아파트,5111012300,강원특별자치도,춘천시,퇴계동,,강원특별자치도 춘천시 퇴계동 430 퇴계우성아파트,분양,개별난방,52313.0,7,381.0,우성건설,우성건설,0332445470,,아파트,강원특별자치도 춘천시 국사봉길 7,위탁관리,계단식,19990930,0332445471,381,46984.37,0.0,249.0,64.0,68.0,36953.781,18,18,0,11,24446,37.8594100681586,127.730698931973
A20094318,퇴계이안,5111012300,강원특별자치도,춘천시,퇴계동,,강원특별자치도 춘천시 퇴계동 1052 퇴계이안,분양,개별난방,116494.34,12,703.0,대우자판,(주)더 굿,0332560031,,아파트,강원특별자치도 춘천시 영서로 2169,위탁관리,계단식,20070809,0332560032,703,88025.1,42.0,437.0,179.0,45.0,68427.4194,23,23,2,17,24447,37.8582726485246,127.731220071151
A20094319,중앙하이츠빌3단지,5111012300,강원특별자치도,춘천시,퇴계동,,강원특별자치도 춘천시 퇴계동 1133 중앙하이츠빌3단지,분양,개별난방,40249.32,7,327.0,(주)중앙건설,(주)명문건설,0332633380,,아파트,강원특별자치도 춘천시 지석로 10,자치관리,계단식,20080901,0332633390,327,40014.836,0.0,120.0,207.0,0.0,32332.7973,15,15,1,11,24422,37.8530386096037,127.736982303792
A20094320,휴먼시아남춘천2단지,5111012300,강원특별자치도,춘천시,퇴계동,,강원특별자치도 춘천시 퇴계동 1131 휴먼시아남춘천2단지,분양,개별난방,51832.125,5,356.0,(주)서희건설,한국토지주택공사,0332615876,,아파트,강원특별자치도 춘천시 퇴계로 128,위탁관리,계단식,20100719,0332635876,356,40393.67,0.0,356.0,0.0,0.0,30245.2,15,15,1,12,24377,37.8601154266658,127.733261099054
A20094321,휴먼시아남춘천1단지,5111012300,강원특별자치도,춘천시,퇴계동,,강원특별자치도 춘천시 퇴계동 1097 휴먼시아남춘천1단지,분양,개별난방,106679.96,10,470.0,성지건설,한국토지주택공사,0332412356,,아파트,강원특별자치도 춘천시 남춘천새길 11,위탁관리,계단식,20110831,0332412357,470,68570.1,0.0,0.0,470.0,0.0,55453.48,15,15,2,18,24375,37.8623216671471,127.733298526985
A20094511,한주1차아파트,5111012300,강원특별자치도,춘천시,퇴계동,,강원특별자치도 춘천시 퇴계동 944 한주1차아파트,분양,중앙난방,59960.06,7,554.0,낙원개발(주),낙원개발(주),0332615333,http://퇴계한주.apti.co.kr,아파트,강원특별자치도 춘천시 안마산로 217,위탁관리,계단식,19930730,0332625340,554,59960.06,224.0,210.0,120.0,0.0,47297.28,15,15,1,19,24421,37.8502638719869,127.73880055532
A20094520,퇴계주공6차아파트,5111012300,강원특별자치도,춘천시,퇴계동,,강원특별자치도 춘천시 퇴계동 1015 퇴계주공6차아파트,분양,개별난방,68299.0,8,838.0,중흥건설(주),대한주택공사,0332531585,,아파트,강원특별자치도 춘천시 지석로 64,위탁관리,계단식,20020502,0332531586,838,68043.24,838.0,0.0,0.0,0.0,50186.05,15,15,1,28,24420,37.8504907531295,127.742749085246
A20094615,퇴계현대1차,5111012300,강원특별자치도,춘천시,퇴계동,,강원특별자치도 춘천시 퇴계동 916-2 퇴계현대1차,분양,개별난방,65280.59,7,600.0,(주)고려산업개발,(주)고려산업개발,0332528577,,아파트,강원특별자치도 춘천시 춘주로 162,자치관리,계단식,19940419,0332518577,600,58371.0,210.0,390.0,0.0,0.0,45733.5,15,15,0,20,24452,37.8576489850626,127.726408318991
A20094616,한성한진아파트,5111012300,강원특별자치도,춘천시,퇴계동,,강원특별자치도 춘천시 퇴계동 917 한성한진아파트,분양,개별난방,68151.0,10,600.0,한성한진종합건설,한성한진종합건설,0332424692,,아파트,강원특별자치도 춘천시 행촌로 11,위탁관리,계단식,19950427,0332564692,600,59900.76,120.0,480.0,0.0,0.0,47888.4,15,15,1,20,24454,37.8588384160227,127.722010903495
A20094617,그린타운아파트,5111012300,강원특별자치도,춘천시,퇴계동,,강원특별자치도 춘천시 퇴계동 916-3 그린타운아파트,분양,중앙난방,90941.0,8,620.0,삼익건설. 코오롱건설,삼익건설. 코오롱건설,0332579752,,아파트,강원특별자치도 춘천시 춘주로 174,위탁관리,계단식,19941121,0332430582,620,84054.14,0.0,0.0,620.0,0.0,69748.2,15,15,0,21,24450,37.8578624878477,127.726878463985
A10022302,세경5차아파트,5111012400,강원특별자치도,춘천시,석사동,,강원특별자치도 춘천시 석사동 694- 세경5차아파트,분양,개별난방,17939.0,6,270.0,세경건설,세경건설,0332610776,,아파트,,자치관리,계단식,19991130,,270,17887.23,270.0,0.0,0.0,0.0,13211.1,5,5,0,0,,37.8623468027043,127.737280335213
A20018014,현진에버빌2차아파트,5111012400,강원특별자치도,춘천시,석사동,,강원특별자치도 춘천시 석사동 873 현진에버빌2차아파트,분양,개별난방,111153.0,13,606.0,(주)현진,(주)현진,0332541400,,아파트,강원특별자치도 춘천시 지석로 67,위탁관리,계단식,20050512,0332541403,606,87102.04,0.0,160.0,358.0,88.0,65501.64,15,15,1,0,24414,37.8527601352033,127.742560058365
A20018016,현진에버빌1차아파트,5111012400,강원특별자치도,춘천시,석사동,,강원특별자치도 춘천시 석사동 893 현진에버빌1차아파트,분양,개별난방,110252.94,11,720.0,(주)현진종합건설,(주)현진종합건설,0332566611,,아파트,강원특별자치도 춘천시 지석로 97,위탁관리,계단식,20040728,0332566622,720,90429.836,0.0,600.0,90.0,30.0,65748.84,15,15,1,24,24415,37.8507184875507,127.746712645056
A20093301,신우아파트,5111012400,강원특별자치도,춘천시,석사동,,강원특별자치도 춘천시 석사동 682-1 신우아파트,분양,개별난방,24013.0,3,196.0,신우건설,신우건설,0332628455,,아파트,강원특별자치도 춘천시 공지로 111,자치관리,계단식,19941214,0332628485,196,20842.8,0.0,148.0,48.0,0.0,17362.2,12,12,0,10,24389,37.8566455711051,127.745670677974
A20093302,삼익1차아파트,5111012400,강원특별자치도,춘천시,석사동,,강원특별자치도 춘천시 석사동 283-15 삼익1차아파트,사택 및 관사 등,개별난방,22106.26,2,210.0,(주)삼익세라믹,강원은행주택조합,0332617344,,아파트,강원특별자치도 춘천시 춘천순환로 42,위탁관리,계단식,19900913,0332617671,210,20727.281,0.0,210.0,0.0,0.0,17667.15,15,15,1,7,24395,37.8546857141914,127.748703975697
A20093304,삼익2차아파트,5111012400,강원특별자치도,춘천시,석사동,,강원특별자치도 춘천시 석사동 114-5 삼익2차아파트,분양,개별난방,26601.0,2,256.0,(주)삼익세라믹,(주)삼익세라믹,0332620219,,아파트,강원특별자치도 춘천시 공지로 69-9,자치관리(직영),계단식,19911223,0332620422,256,20602.19,0.0,256.0,0.0,0.0,20602.19,15,15,0,9,24396,37.8532208214436,127.750511698618
A20093307,석사극동아파트,5111012400,강원특별자치도,춘천시,석사동,,강원특별자치도 춘천시 석사동 115-10 석사극동아파트,분양,개별난방,42042.0,3,348.0,극동건설(주),극동건설(주),0332625978,,아파트,강원특별자치도 춘천시 공지로 43,자치관리,계단식,19920330,0332645978,348,38261.28,0.0,288.0,0.0,60.0,31689.06,15,15,0,12,24397,37.8510500606875,127.752524535552
A20093606,석사아파트,5111012400,강원특별자치도,춘천시,석사동,,강원특별자치도 춘천시 석사동 694-1 석사아파트,분양,개별난방,20306.0,10,340.0,대한주택공사,대한주택공사,0332624389,,아파트,강원특별자치도 춘천시 효석로67번길 23,자치관리,계단식,19910914,0332624389,340,19107.422,340.0,0.0,0.0,0.0,16019.5,5,5,0,0,24381,37.861720727203,127.738476385097
A20093608,청구아파트,5111012400,강원특별자치도,춘천시,석사동,,강원특별자치도 춘천시 석사동 727-6 청구아파트,분양,개별난방,41855.47,5,438.0,청구,청구,0332629293,,아파트,강원특별자치도 춘천시 서부대성로 332,위탁관리,계단식,19970909,0332619345,438,35653.2,438.0,0.0,0.0,0.0,26203.65,18,18,1,6,24316,37.8690330163677,127.75408744182
A20093609,퇴계주공3차아파트,5111012400,강원특별자치도,춘천시,석사동,,강원특별자치도 춘천시 석사동 820 퇴계주공3차아파트,분양,개별난방,56345.86,7,456.0,대한주택공사,대한주택공사,0332629153,,아파트,강원특별자치도 춘천시 퇴계로 220-19,자치관리,계단식,19991112,0332629154,456,38690.28,0.0,456.0,0.0,0.0,38690.28,18,18,1,15,24392,37.8550284494062,127.742697348292
A20093610,석사두산아파트,5111012400,강원특별자치도,춘천시,석사동,,강원특별자치도 춘천시 석사동 727-4 석사두산아파트,분양,개별난방,46827.79,6,498.0,(주)두산건설,(주)두산건설,0332610729,,아파트,강원특별자치도 춘천시 후석로186번길 25,자치관리,계단식,19970729,0332640829,498,39511.32,498.0,0.0,0.0,0.0,29865.06,16,16,1,17,24321,37.8676459325268,127.754750071116
A20093611,석사3지구 부영아파트,5111012400,강원특별자치도,춘천시,석사동,,강원특별자치도 춘천시 석사동 727-2 석사3지구 부영아파트,분양,개별난방,44280.89,5,515.0,(주)동광주택,(주)동광주택,0332616980,,아파트,강원특별자치도 춘천시 우석로101번길 83,위탁관리,복도식,19980430,0332616981,515,41855.695,515.0,0.0,0.0,0.0,30245.04,15,15,1,8,24317,37.8690616511418,127.755031587715
A20093612,진흥,5111012400,강원특별자치도,춘천시,석사동,,강원특별자치도 춘천시 석사동 727-5 진흥,분양,개별난방,51093.45,5,563.0,진흥기업(주),진흥기업(주),0332617030,xn--ec6b82w.apti.co.kr/aptHome/,아파트,강원특별자치도 춘천시 후석로186번길 9,위탁관리,계단식,19970625,0332617029,563,43277.81,563.0,0.0,0.0,0.0,33301.45,15,15,1,0,24322,37.8679125267667,127.752975804024
A20093613,그랜드아파트,5111012400,강원특별자치도,춘천시,석사동,,강원특별자치도 춘천시 석사동 722-2 그랜드아파트,분양,중앙난방,68174.13,7,565.0,그랜드종합건설,그랜드종합건설,0332620545,,아파트,강원특별자치도 춘천시 우석로101번길 20,위탁관리,계단식,19981127,0332635665,565,59266.234,0.0,565.0,0.0,0.0,45484.51,17,17,0,19,24319,37.867159104674,127.756863806878
A20093615,석사대우아파트,5111012400,강원특별자치도,춘천시,석사동,,강원특별자치도 춘천시 석사동 721-2 석사대우아파트,분양,개별난방,120744.66,10,643.0,대우,대우,0332615954,석사대우.apti.co.kr,아파트,강원특별자치도 춘천시 우석로101번길 86,자치관리,계단식,19981128,0332625954,643,94688.98,0.0,0.0,553.0,90.0,78587.52,15,15,2,22,24318,37.8687931209264,127.757718338375
A20093617,석사현대아파트,5111012400,강원특별자치도,춘천시,석사동,,강원특별자치도 춘천시 석사동 813 석사현대아파트,분양,개별난방,89541.17,8,560.0,현대건설/현대산업개발,현대건설,0332625688,,아파트,강원특별자치도 춘천시 퇴계로 220-20,위탁관리,계단식,19981208,0332639955,560,64477.22,0.0,0.0,530.0,30.0,64477.518,15,15,1,19,24391,37.8554979536838,127.740776402799
A20093618,퇴계주공4차아파트,5111012400,강원특별자치도,춘천시,석사동,,강원특별자치도 춘천시 석사동 822 퇴계주공4차아파트,분양,개별난방,88819.766,13,1010.0,대한주택공사,대한주택공사,0332623122,,아파트,강원특별자치도 춘천시 퇴계로 242,위탁관리,혼합식,19981228,0332621232,1010,88149.57,1010.0,0.0,0.0,0.0,59862.3,18,18,1,29,24393,37.8555430142851,127.744616464456
A20093619,휴먼타운,5111012400,강원특별자치도,춘천시,석사동,,강원특별자치도 춘천시 석사동 866 휴먼타운,분양,개별난방,139892.03,21,1110.0,대한주택관리공사,대한주택관리공사,0332555486,humantown.apti.co.kr,아파트,강원특별자치도 춘천시 지석로 29,위탁관리,계단식,20020515,0332555487,1110,115819.586,0.0,1109.0,1.0,0.0,93547.58,15,15,1,37,24413,37.8536791329272,127.73844115362
A20097203,신도브래뉴아파트,5111012400,강원특별자치도,춘천시,석사동,,강원특별자치도 춘천시 석사동 971 신도브래뉴아파트,분양,개별난방,37245.73,4,234.0,신도종합건설,에이플러스,0332575378,,아파트,강원특별자치도 춘천시 공지로 69-10,자치관리,계단식,20071026,0332575379,234,29915.895,0.0,156.0,78.0,0.0,23249.7174,14,14,1,9,24395,37.853633621819,127.750187620371
A10024650,춘천파크자이 아파트,5111012500,강원특별자치도,춘천시,삼천동,,강원특별자치도 춘천시 삼천동 44-10 춘천파크자이 아파트,분양,개별난방,149410.69,7,965.0,GS건설,하나자산투자신탁,0332530997,ccp.xisnd.com,아파트,강원특별자치도 춘천시 스포츠타운길 460,위탁관리,계단식,20201211,0332530988,965,100047.78,0.0,886.0,76.0,3.0,77321.3044,30,30,3,22,24472,37.866490641473,127.70775615629
A20022001,칠전대우1차아파트,5111012600,강원특별자치도,춘천시,칠전동,,강원특별자치도 춘천시 칠전동 529-1 칠전대우1차아파트,분양,개별난방,45053.0,7,494.0,(주) 대우,(주)대우,0332515077,,아파트,강원특별자치도 춘천시 옛경춘로 492,위탁관리,계단식,19991115,0332515088,494,38399.223,494.0,0.0,0.0,0.0,29599.62,15,15,1,17,24458,37.8422914131218,127.711021913138
A20022002,칠전대우2차아파트,5111012600,강원특별자치도,춘천시,칠전동,,강원특별자치도 춘천시 칠전동 585-1 칠전대우2차아파트,분양,개별난방,73687.0,9,614.0,대우건설,대우건설,0332528041,,아파트,강원특별자치도 춘천시 칠전서길 15-2,자치관리,계단식,20020429,0332528042,614,67263.37,0.0,614.0,0.0,0.0,50185.7762,15,15,1,21,24458,37.8406132230886,127.711322874843
A20076301,춘천칠전부영,5111012600,강원특별자치도,춘천시,칠전동,,강원특별자치도 춘천시 칠전동 529-2 춘천칠전부영,분양,개별난방,49276.156,5,369.0,부영주택,부영주택,0332642284,,아파트,강원특별자치도 춘천시 칠전서길 45,자치관리(직영),계단식,20120918,0332642285,369,32652.773,369.0,0.0,0.0,0.0,22117.1589,18,18,2,12,24458,37.8433609510085,127.712089433697
A20082101,소양강양우내안애아파트,5111025022,강원특별자치도,춘천시,신북읍,천전리,강원특별자치도 춘천시 신북읍 천전리 1352 소양강양우내안애아파트,분양,개별난방,37610.293,2,409.0,양우건설(주),(주)케이개발,0332417864,내안애양우.apti.co.kr,아파트,강원특별자치도 춘천시 신샘밭로 733,위탁관리,복도식,20121106,0332427864,409,30594.465,235.0,174.0,0.0,0.0,21298.5841,17,17,2,5,24204,37.9317726136427,127.791019797036
A20082401,해강아파트,5111025022,강원특별자치도,춘천시,신북읍,천전리,강원특별자치도 춘천시 신북읍 천전리 1351 해강아파트,분양,개별난방,35399.38,2,424.0,(주)해강,(주)해강,0332410413,,아파트,강원특별자치도 춘천시 상천2길 52,위탁관리,혼합식,19971115,0332415649,424,30222.217,424.0,0.0,0.0,0.0,21805.44,20,20,2,9,24204,37.9323268195474,127.788058329928
A20078201,한일유앤아이,5111031022,강원특별자치도,춘천시,동면,만천리,강원특별자치도 춘천시 동면 만천리 971 한일유앤아이,분양,개별난방,98512.04,7,573.0,한일건설,한일건설,0332555338,,아파트,강원특별자치도 춘천시 만천로 107,위탁관리,계단식,20060207,0332555339,573,73626.96,0.0,348.0,165.0,60.0,58341.8715,15,15,2,0,24216,37.8799326081792,127.76317962008
A20078202,만천LH아파트,5111031022,강원특별자치도,춘천시,동면,만천리,강원특별자치도 춘천시 동면 만천리 976 만천LH아파트,임대,개별난방,55744.996,9,747.0,남양건설,한국토지주택공사,0332512635,,아파트,강원특별자치도 춘천시 후석로326번길 96,위탁관리,복도식,20091021,0332512636,747,55247.73,747.0,0.0,0.0,0.0,33204.12,15,15,1,16,24215,37.8831804519244,127.759097127212
A20078203,kcc스위첸아파트,5111031022,강원특별자치도,춘천시,동면,만천리,강원특별자치도 춘천시 동면 만천리 984 kcc스위첸아파트,분양,개별난방,64031.37,9,384.0,kcc건설,군인공제회,0332522268,동면kcc스위첸.apti.co.kr/,아파트,강원특별자치도 춘천시 만천로 69,위탁관리,계단식,20091130,0332522269,384,48585.4,0.0,242.0,142.0,0.0,37885.014,15,15,2,11,24217,37.8786909719595,127.764522928609
A20085201,대동다숲,5111031022,강원특별자치도,춘천시,동면,만천리,강원특별자치도 춘천시 동면 만천리 973 대동다숲,분양,개별난방,43946.0,5,287.0,(주)대동종합건설,KB부동산신탁 주식회사,0332528484,춘천대동다숲.apti.co.kr,아파트,강원특별자치도 춘천시 후석로326번길 63,위탁관리,계단식,20080509,0332448485,287,35757.58,0.0,228.0,59.0,0.0,27253.9839,15,15,3,0,24216,37.8835828449513,127.755421721413
A10027896,춘천 장학 부영 사랑으로 아파트,5111031023,강원특별자치도,춘천시,동면,장학리,강원특별자치도 춘천시 동면 장학리 993 춘천 장학 부영 사랑으로 아파트,혼합,개별난방,64340.473,7,370.0,(주)부영주택,(주)부영주택,0332517738,,아파트,강원특별자치도 춘천시 소양강로 104,위탁관리,계단식,20150902,0332517739,370,44351.242,0.0,330.0,0.0,40.0,33772.925,16,16,1,14,24209,37.8969066515651,127.75321480451
A20078204,춘천아이파크,5111031023,강원특별자치도,춘천시,동면,장학리,강원특별자치도 춘천시 동면 장학리 985 춘천아이파크,분양,개별난방,75021.5,7,493.0,현대산업개발(주),현대산업개발(주),0332565691,,아파트,강원특별자치도 춘천시 만천로 242,자치관리,계단식,20121212,0332565695,493,58941.37,0.0,403.0,90.0,0.0,45011.8788,15,15,1,0,24214,37.8910903206132,127.755610747435
A20078205,장학LH1단지,5111031023,강원특별자치도,춘천시,동면,장학리,강원특별자치도 춘천시 동면 장학리 989 장학LH1단지,임대,개별난방,78534.13,9,1037.0,(주)효성,한국토지주택공사,0332548520,,아파트,강원특별자치도 춘천시 소양강로 100,위탁관리,복도식,20140528,0332448520,1037,42064.36,1037.0,0.0,0.0,0.0,42064.36,15,15,1,19,24209,37.8957035349755,127.751653519981
A20078206,장학LH해온채,5111031023,강원특별자치도,춘천시,동면,장학리,강원특별자치도 춘천시 동면 장학리 988 장학LH해온채,분양,개별난방,85711.0,10,560.0,삼환기업,한국토지주택공사,0332430560,,아파트,강원특별자치도 춘천시 소양강로 102,위탁관리,계단식,20140722,0332440560,560,62566.07,0.0,560.0,0.0,0.0,47545.8,18,18,1,20,24209,37.897614945385,127.752343632017
A20085202,춘천두산위브아파트,5111031023,강원특별자치도,춘천시,동면,장학리,강원특별자치도 춘천시 동면 장학리 981 춘천두산위브아파트,분양,개별난방,95658.45,8,677.0,두산건설,두산건설,0332572644,두산위브.apti.co.kr,아파트,강원특별자치도 춘천시 삭주로 231,위탁관리,계단식,20081230,0332572645,677,60231.59,0.0,594.0,82.0,1.0,60236.31,15,15,1,26,24214,37.8884562340497,127.755730244614
A10026459,춘천 거두2 행복주택,5111039021,강원특별자치도,춘천시,동내면,거두리,강원특별자치도 춘천시 동내면 거두리 1135 춘천 거두2 행복주택,임대,개별난방,28178.55,3,480.0,남양건설(주),한국토지주택공사,0332632356,,아파트,강원특별자치도 춘천시 거두택지길 70,위탁관리,복도식,20180213,0332632357,480,28178.547,480.0,0.0,0.0,0.0,12274.48,18,18,0,9,24399,37.8547857449582,127.759419783468
A10027702,춘천거두 호반베르디움 에코아파트,5111039021,강원특별자치도,춘천시,동내면,거두리,강원특별자치도 춘천시 동내면 거두리 1138 춘천거두 호반베르디움 에코아파트,임대,개별난방,51765.94,6,345.0,(주)포부스건설,(주)포부스주택,0332628830,춘천호반에코.com/,아파트,강원특별자치도 춘천시 거두택지길 10,위탁관리,계단식,20151221,0332628835,345,33144.13,171.0,174.0,0.0,0.0,24989.7774,18,18,2,0,24405,37.8528384510931,127.752588959303
A20077101,호반베르디움아파트,5111039021,강원특별자치도,춘천시,동내면,거두리,강원특별자치도 춘천시 동내면 거두리 1065 호반베르디움아파트,분양,개별난방,75364.914,7,420.0,"호반건설,호반베르디움",호반베르디움,0332621065,춘천호반베르디움.apti.co.kr,아파트,강원특별자치도 춘천시 외솔길19번길 80-7,자치관리,계단식,20090724,0332621035,420,41153.617,0.0,310.0,110.0,0.0,41153.6168,18,18,2,14,24401,37.8585114572821,127.758930867065
A20077102,현대성우오스타아파트,5111039021,강원특별자치도,춘천시,동내면,거두리,강원특별자치도 춘천시 동내면 거두리 1038 현대성우오스타아파트,분양,개별난방,48421.69,5,308.0,성우종합건설,성우종합건설,0332613533,,아파트,강원특별자치도 춘천시 춘천순환로 93,위탁관리,계단식,20090819,0332613534,308,34904.0,0.0,308.0,0.0,0.0,26170.16,18,18,2,10,24401,37.8571662159297,127.754411961049
A20077103,"거두부영1,2단지",5111039021,강원특별자치도,춘천시,동내면,거두리,"강원특별자치도 춘천시 동내면 거두리 939-1 거두부영1,2단지",분양,개별난방,72425.0,6,554.0,부영주택,부영주택,0332562322,,아파트,강원특별자치도 춘천시 춘천순환로94번길 12,위탁관리,계단식,20030425,0332412366,554,59305.7,0.0,554.0,0.0,0.0,47076.8702,18,18,1,19,24403,37.855039810052,127.75357183159
A20088103,초록지붕아파트,5111039021,강원특별자치도,춘천시,동내면,거두리,강원특별자치도 춘천시 동내면 거두리 936 초록지붕아파트,분양,개별난방,40619.71,4,297.0,세경건설,세경산업,0332579842,https://xn--3o2bm9g89l7id.apti.co.kr/aptHome/subpage/?cate_code=AAGF,아파트,강원특별자치도 춘천시 거두택지길 7,위탁관리,계단식,20061026,0332579843,297,31822.422,0.0,297.0,0.0,0.0,25074.3735,18,18,1,10,24404,37.8530840228751,127.751957886307
A20088104,거두주공임대,5111039021,강원특별자치도,춘천시,동내면,거두리,강원특별자치도 춘천시 동내면 거두리 1137 거두주공임대,임대,개별난방,29546.959,5,375.0,섬강종합건설,한국토지주택공사,0332521853,,아파트,강원특별자치도 춘천시 거두택지길 88,위탁관리,복도식,20090330,0332521854,375,29405.504,375.0,0.0,0.0,0.0,16894.59,14,14,0,10,24399,37.8567747243516,127.760398203759
A20088105,거두부영3차,5111039021,강원특별자치도,춘천시,동내면,거두리,강원특별자치도 춘천시 동내면 거두리 939-2 거두부영3차,분양,개별난방,31015.578,4,314.0,주)부영주택,주)부영주택,0332556375,---------,아파트,강원특별자치도 춘천시 춘천순환로94번길 12,위탁관리,계단식,20030425,0332556374,314,24363.354,314.0,0.0,0.0,0.0,18789.8856,15,15,1,0,24403,37.855039810052,127.75357183159
A20088102,신촌산수빌아파트,5111039022,강원특별자치도,춘천시,동내면,신촌리,강원특별자치도 춘천시 동내면 신촌리 401 신촌산수빌아파트,혼합,개별난방,23845.0,3,265.0,(주)대양,강원도개발공사,0332539823,춘천산수빌.apti.co.kr,아파트,강원특별자치도 춘천시 향군길 23,위탁관리,혼합식,20050729,0332539824,265,20558.94,265.0,0.0,0.0,0.0,14488.2102,15,15,1,8,24407,37.8476571690879,127.765020759997
A10020408,마루힐포레스트,5111039025,강원특별자치도,춘천시,동내면,학곡리,강원특별자치도 춘천시 동내면 학곡리 858- 마루힐포레스트,임대,개별난방,139934.53,8,1114.0,중해건설,"(주)중해마루힐, (주)제일개발",0332646255,,아파트,강원특별자치도 춘천시 학곡지구길 16,자치관리(직영),계단식,20250925,0332646254,1114,137806.11,0.0,1114.0,0.0,0.0,94422.5108,35,35,4,22,,37.8432704575796,127.75806549985
A10020697,춘천모아엘가비스타,5111039025,강원특별자치도,춘천시,동내면,학곡리,강원특별자치도 춘천시 동내면 학곡리 859- 춘천모아엘가비스타,임대,개별난방,140499.77,6,784.0,혜림건설,MS글로벌주식회사,0332648039,,아파트,강원특별자치도 춘천시 학곡지구길 22,위탁관리,계단식,20241217,0332648040,784,87123.68,0.0,784.0,0.0,0.0,66584.6976,29,29,3,5,,37.8424478596328,127.756250939359
A10021792,학곡지구 모아엘가 그랑데,5111039025,강원특별자치도,춘천시,동내면,학곡리,강원특별자치도 춘천시 동내면 학곡리 860- 학곡지구 모아엘가 그랑데,분양,개별난방,87305.41,7,762.0,"혜림건설주식회사, 모아건설산업(주)",한아건설 주식회사,0332622201,,아파트,강원특별자치도 춘천시 학곡지구길 52,위탁관리,계단식,20241021,0332622202,762,87305.04,0.0,742.0,20.0,0.0,64967.3388,29,29,3,17,,37.8401543638336,127.756192871057
A20088201,신아3차아파트,5111039025,강원특별자치도,춘천시,동내면,학곡리,강원특별자치도 춘천시 동내면 학곡리 255-34 신아3차아파트,혼합,개별난방,12508.0,1,184.0,신아건설,신아건설,033-262-9778,,아파트,강원특별자치도 춘천시 학곡서1길 19,위탁관리,복도식,19981201,0332620728,184,11736.06,184.0,0.0,0.0,0.0,8267.74,11,11,1,2,24408,37.8333230113304,127.759023985337
