kaptCode,kaptName,bjdCode,as1,as2,as3,as4,kaptAddr,codeSaleNm,codeHeatNm,kaptTarea,kaptDongCnt,kaptdaCnt,kaptBcompany,kaptAcompany,kaptTel,kaptUrl,codeAptNm,doroJuso,codeMgrNm,codeHallNm,kaptUsedate,kaptFax,hoCnt,kaptMarea,kaptMparea60,kaptMparea85,kaptMparea135,kaptMparea136,privArea,kaptTopFloor,ktownFlrNo,kaptBaseFloor,kaptdEcntp,zipcode,위도,경도
A42685701,안산고잔주공그린빌10단지,4127110200,경기도,안산상록구,이동,,경기도 안산상록구 이동 664 안산고잔주공그린빌10단지,분양,지역난방,32072.518,5,267.0,삼협건설(주),대한토지주택공사,0315068010,,아파트,경기도 안산시 상록구 안산천남1로 100,위탁관리,계단식,20030310,0315069010,267,31977.295,0.0,267.0,0.0,0.0,21825.97,15,15,1,11,15491,37.310951350192,126.843807504905
A42685702,안산고잔푸르지오2차,4127110200,경기도,안산상록구,이동,,경기도 안산상록구 이동 664-1 안산고잔푸르지오2차,분양,지역난방,78376.31,9,443.0,주) 대우건설,주)대우건설,0314385688,안산고잔푸르지오2차.ma-um.co.kr,아파트,경기도 안산시 상록구 안산천남1로 70,위탁관리,계단식,20011205,0314385689,443,61391.605,0.0,0.0,393.0,50.0,47232.1414,25,25,1,13,15491,37.3081196736907,126.84319735346
A10020657,푸른마을3단지아파트,4127110300,경기도,안산상록구,사동,,경기도 안산상록구 사동 1538-1 푸른마을3단지아파트,분양,지역난방,10704.0,3,106.0,lh,lh,0314195177,,아파트,경기도 안산시 상록구 삼리로 86,위탁관리,혼합식,20000503,0314195133,106,8167.02,106.0,0.0,0.0,0.0,6080.74,1,13,0,0,,37.3041827884445,126.849376463596
A10024584,그랑시티자이2차아파트,4127110300,경기도,안산상록구,사동,,경기도 안산상록구 사동 1639 그랑시티자이2차아파트,분양,지역난방,478397.88,11,2872.0,GS건설,케이비부동산신탁(주),0315021457,grancxi2.aptner.co.kr,아파트,경기도 안산시 상록구 해양5로 17,위탁관리,계단식,20201029,0315021458,2872,348068.34,178.0,2026.0,658.0,10.0,250432.7745,49,49,2,60,15596,37.280484653644,126.830041907712
A10025014,그랑시티자이아파트,4127110300,경기도,안산상록구,사동,,경기도 안산상록구 사동 1639-7 그랑시티자이아파트,분양,지역난방,600370.4,14,3728.0,GS건설(주),케이비부동산신탁(주),0315021844,grancxi1.xisnd.co.kr,아파트,경기도 안산시 상록구 해양4로 31,위탁관리,계단식,20200218,0315021845,3728,438974.16,276.0,2988.0,456.0,8.0,314900.0415,49,49,2,80,15596,37.2809028032773,126.828775903546
A10025108,e-편한세상 상록아파트,4127110300,경기도,안산상록구,사동,,경기도 안산상록구 사동 1423 e-편한세상 상록아파트,분양,개별난방,102101.42,4,559.0,대림건설,대한토지신탁(주),0315021243,,주상복합,경기도 안산시 상록구 항가울로 28,위탁관리,기타,20191224,0315021244,559,62889.906,86.0,473.0,0.0,0.0,41314.142,46,46,5,5,15629,37.2846219757028,126.848086280328
A42617204,상록타운선경,4127110300,경기도,안산상록구,사동,,경기도 안산상록구 사동 1345 상록타운선경,분양,개별난방,84459.31,12,550.0,선경건설(주),선경건설,0314069637,상록타운선경.apti.co.kr/,아파트,경기도 안산시 상록구 감골2로 58,위탁관리,계단식,19940728,0314083965,550,71228.234,40.0,284.0,140.0,86.0,57292.04,22,22,1,14,15621,37.2913647205356,126.849150641948
A42617206,본오2차,4127110300,경기도,안산상록구,사동,,경기도 안산상록구 사동 1505 본오2차,분양,개별난방,42598.0,4,585.0,대아건설,안산시 도시개발사업소,0314095031,안산본오2차.apti.co.kr,아파트,경기도 안산시 상록구 선진로 114,위탁관리,복도식,19940818,0314188285,585,38871.26,585.0,0.0,0.0,0.0,26939.25,15,15,1,8,15631,37.2809097314952,126.854057890592
A42617209,본오1차,4127110300,경기도,안산상록구,사동,,경기도 안산상록구 사동 1506 본오1차,분양,개별난방,61853.69,6,1000.0,대아공사,안산시청,0314077076,안산본오1차아파트.apti.co.kr,아파트,경기도 안산시 상록구 선진로 108,위탁관리,복도식,19921116,0314084603,1000,56198.6,1000.0,0.0,0.0,0.0,40320,15,15,0,12,15631,37.2802655821606,126.853841507661
A42673901,안산고잔1,4127110300,경기도,안산상록구,사동,,경기도 안산상록구 사동 1534 안산고잔1,임대,지역난방,43608.18,8,489.0,(주)삼호,한국토지주택공사,0314376334,www.kohom.or.kr,아파트,경기도 안산시 상록구 용하공원로 39,위탁관리,복도식,20000120,0314376335,489,43465.51,489.0,0.0,0.0,0.0,24048.94,15,15,0,2,15500,37.3063088253508,126.853067399065
A42682401,상록수현대1차,4127110300,경기도,안산상록구,사동,,경기도 안산상록구 사동 1345-2 상록수현대1차,분양,개별난방,71831.016,11,478.0,(주)동원개발,(주)동원개발,0314182264,wwww.상록수현대1차.apti.co.kr,아파트,경기도 안산시 상록구 감골1로 43,위탁관리,계단식,19941031,0314172151,478,49622.36,30.0,240.0,126.0,82.0,49622.51,21,21,0,13,15622,37.2894520520426,126.850328433984
A42682402,신우아파트,4127110300,경기도,안산상록구,사동,,경기도 안산상록구 사동 1344-1 신우아파트,분양,개별난방,78739.06,11,502.0,신우종합건설(주),(주)위성,0314183502,안산신우.apti.co.kr/,아파트,경기도 안산시 상록구 감골로 83,위탁관리,계단식,19941010,0314072245,502,64144.0,30.0,248.0,140.0,84.0,51461.34,21,21,1,12,15623,37.2883052307807,126.855049985066
A42682403,상록수현대2차아파트,4127110300,경기도,안산상록구,사동,,경기도 안산상록구 사동 1343 상록수현대2차아파트,분양,개별난방,71913.32,11,520.0,현대건설(주),동원개발(주),0314183948,상록수현대2차.apti.co.kr,아파트,경기도 안산시 상록구 감골2로 12,위탁관리,계단식,19950202,0314081980,524,60287.28,30.0,360.0,130.0,0.0,48775.35,23,23,0,14,15620,37.2915410120981,126.856063730571
A42682405,예누림아파트,4127110300,경기도,안산상록구,사동,,경기도 안산상록구 사동 1344 예누림아파트,분양,개별난방,97923.555,14,576.0,(주)욱일주택,(주)욱일주택,0314090324,상록수욱일.apti.co.kr,아파트,경기도 안산시 상록구 감골2로 11,위탁관리,계단식,19940514,0314167540,576,78530.72,40.0,268.0,180.0,88.0,64324.96,22,22,1,14,15623,37.2903463538573,126.853952716137
A42682407,상록수요진,4127110300,경기도,안산상록구,사동,,경기도 안산상록구 사동 1345-1 상록수요진,분양,개별난방,99581.51,15,598.0,요진산업(주),요진산업(주),0314180663,https://상록수요진.apti.co.kr/aptHome/,아파트,경기도 안산시 상록구 감골2로 47,위탁관리,계단식,19940831,0314185884,598,83336.805,30.0,276.0,144.0,148.0,68228.12,24,24,1,15,15622,37.2903699570606,126.850414129154
A42682408,상록수타운 월드아파트,4127110300,경기도,안산상록구,사동,,경기도 안산상록구 사동 1346 상록수타운 월드아파트,분양,개별난방,113443.51,14,626.0,월드건설,무림건축,0314084442,사동월드.apti.co.kr,아파트,경기도 안산시 상록구 감골로 59,위탁관리,계단식,19931023,0314084443,626,79185.664,50.0,330.0,90.0,156.0,63888.32,24,24,0,15,15624,37.2878231035094,126.855211947176
A42689401,푸른마을주공2단지,4127110300,경기도,안산상록구,사동,,경기도 안산상록구 사동 1532 푸른마을주공2단지,분양,지역난방,31552.24,6,231.0,한국토지주택공사,고려개발,0314195176,푸른마을주공2단지.ma-um.co.kr,아파트,경기도 안산시 상록구 중보로 16,위탁관리,계단식,20000503,0314175177,231,19556.83,0.0,231.0,0.0,0.0,19556.83,14,14,1,11,15500,37.3053935814448,126.848656092967
A42689402,푸른마을주공4단지,4127110300,경기도,안산상록구,사동,,경기도 안산상록구 사동 1537 푸른마을주공4단지,분양,지역난방,31184.518,6,327.0,고려개발,대한주택공사,0314195178,푸른마을주공4단지.ma-um.co.kr,아파트,경기도 안산시 상록구 용하공원로 7,위탁관리,혼합식,20000503,0314195168,327,18599.232,327.0,0.0,0.0,0.0,18594.62,15,15,0,12,15503,37.3039264332209,126.850077658936
A42689405,늘푸른아파트,4127110300,경기도,안산상록구,사동,,경기도 안산상록구 사동 1533 늘푸른아파트,분양,지역난방,99062.0,10,674.0,금강주택,금강주택,0315015777,,아파트,경기도 안산시 상록구 중보로 22,위탁관리,계단식,19991119,0315015776,674,83343.16,0.0,392.0,228.0,54.0,64277.944,15,15,0,24,15500,37.3059280319081,126.850536157989
A42689406,푸른마을고잔주공5단지아파트,4127110300,경기도,안산상록구,사동,,경기도 안산상록구 사동 1536 푸른마을고잔주공5단지아파트,분양,지역난방,124211.195,21,1343.0,대한주택공사,대한주택공사,0314195353,푸른마을5단지.apti.co.kr/,아파트,경기도 안산시 상록구 광덕4로 460,위탁관리,혼합식,20000506,0314195354,1343,124211.195,1343.0,0.0,0.0,0.0,74416.57,15,15,1,44,15502,37.3030821777497,126.855818292931
A42690101,상록마을삼보,4127110300,경기도,안산상록구,사동,,경기도 안산상록구 사동 1514 상록마을삼보,분양,지역난방,53385.0,7,352.0,삼보토건(주),삼보토건(주),0315011465,,아파트,경기도 안산시 상록구 삼리로 23,위탁관리,계단식,19991125,0315061465,352,34260.2,0.0,196.0,116.0,40.0,34262.586,15,15,1,13,15498,37.3066412764347,126.842669589918
A42690102,안산고잔6차푸르지오,4127110300,경기도,안산상록구,사동,,경기도 안산상록구 사동 1512 안산고잔6차푸르지오,분양,지역난방,282472.0,23,1790.0,(주)대우건설,대우건설/대원,0315019802,ansanprugio6.com,아파트,경기도 안산시 상록구 해양1로 11,위탁관리,계단식,20050721,0315019804,1790,225992.64,0.0,0.0,1654.0,136.0,180729.995,24,24,1,0,15594,37.2949243656642,126.82579702858
A42690103,안산푸르지오9차아파트,4127110300,경기도,안산상록구,사동,,경기도 안산상록구 사동 1511 안산푸르지오9차아파트,분양,지역난방,119380.43,10,705.0,대우건설,대원주택,0314379898,,아파트,경기도 안산시 상록구 해양로 16,위탁관리,계단식,20070920,0314379878,705,96725.07,0.0,0.0,667.0,38.0,78888.5224,24,24,1,17,15595,37.2942862156639,126.819696156145
A42690104,안산고잔7차푸르지오,4127110300,경기도,안산상록구,사동,,경기도 안산상록구 사동 1510 안산고잔7차푸르지오,분양,지역난방,220726.03,18,1312.0,(주)대원주택,(주)대우건설,0315020064,www.ak7p.com,아파트,경기도 안산시 상록구 해양1로 30,위탁관리,계단식,20051209,0315034965,1327,170043.38,0.0,0.0,1168.0,144.0,140852.88,24,24,1,29,15593,37.2948280428944,126.816668255733
A42690105,숲속마을요진,4127110300,경기도,안산상록구,사동,,경기도 안산상록구 사동 1553 숲속마을요진,분양,지역난방,75948.19,8,554.0,요진건설,요진건설,0315023006,,아파트,경기도 안산시 상록구 삼리로 24,위탁관리,계단식,19991130,0315023007,554,67384.08,0.0,320.0,174.0,60.0,53455.3,15,15,0,20,15505,37.3035972278196,126.839720935028
A42618201,신안1단지,4127110400,경기도,안산상록구,본오동,,경기도 안산상록구 본오동 871 신안1단지,분양,개별난방,299843.0,25,2132.0,신안건설,신안건설,0314098330,shinan1apt.co.kr,아파트,경기도 안산시 상록구 반석로 44,위탁관리,혼합식,19930610,0314098331,2132,280505.16,0.0,1570.0,0.0,562.0,208110.52,20,20,0,55,15541,37.2950159022939,126.864573500919
A42672901,상록수한양,4127110400,경기도,안산상록구,본오동,,경기도 안산상록구 본오동 880 상록수한양,분양,지역난방,223795.84,35,2222.0,(주)한양,(주)한양,0314074794,상록수한양.apti.co.kr,아파트,경기도 안산시 상록구 반석로 8,위탁관리,혼합식,19901204,0315074794,2222,199093.38,960.0,990.0,136.0,136.0,160171.837,17,17,0,40,15540,37.2958013927277,126.861046604999
A42681501,본오주공아파트,4127110400,경기도,안산상록구,본오동,,경기도 안산상록구 본오동 879 본오주공아파트,분양,지역난방,40338.85,11,519.0,대한주택공사,대한주택공사,0314186647,본오주공.ma-um.co.kr,아파트,경기도 안산시 상록구 본삼로 8,위탁관리,혼합식,19960813,0315066647,519,37874.0,519.0,0.0,0.0,0.0,29069.21,15,15,1,8,15539,37.3001037828512,126.861612225283
A42681502,태영,4127110400,경기도,안산상록구,본오동,,경기도 안산상록구 본오동 879-15 태영,분양,지역난방,73078.66,11,672.0,(주)태영건설,(주)태영건설,0314072067,태영.ma-um.co.kr,아파트,경기도 안산시 상록구 충장로 198,위탁관리,계단식,19910719,0314060285,672,71208.695,0.0,552.0,60.0,60.0,57915.48,15,15,0,13,15539,37.2994337291522,126.860500793887
A42681503,신안2단지,4127110400,경기도,안산상록구,본오동,,경기도 안산상록구 본오동 879-16 신안2단지,분양,개별난방,111253.06,9,776.0,신안종합건설,신안종합건설,0314097167,http://인스빌신안2단지.apti.co.kr,아파트,경기도 안산시 상록구 반석로 9,위탁관리,혼합식,19930525,0315067167,776,109488.0,0.0,492.0,0.0,284.0,83709,22,22,1,18,15539,37.2981464878241,126.861557162179
A42681504,안산월드1단지,4127110400,경기도,안산상록구,본오동,,경기도 안산상록구 본오동 872 안산월드1단지,분양,개별난방,64638.5,28,1070.0,월드건설,월드건설,0314070952,본오월드1단지.ma-um.co.kr,아파트,경기도 안산시 상록구 본삼로 48,위탁관리,계단식,19881217,0314088084,1070,64638.5,1010.0,60.0,0.0,0.0,48065.4,5,5,1,0,15538,37.3005718461078,126.864314386059
A42681505,상림 우성,4127110400,경기도,안산상록구,본오동,,경기도 안산상록구 본오동 872-20 상림 우성,분양,지역난방,106710.0,15,1080.0,(주) 상림주택,(주)상림주택,0314075219,상림우성.ma-um.co.kr,아파트,경기도 안산시 상록구 본오로 145,위탁관리,계단식,19900329,0314155159,1080,80426.1,390.0,600.0,90.0,0.0,80426.1,15,15,0,23,15538,37.2974318583854,126.86513174411
A10021316,신우연립,4127110800,경기도,안산상록구,성포동,,경기도 안산상록구 성포동 585-4 신우연립,분양,개별난방,12200000.0,5,112.0,55882635340,55882635340,0314144422,,연립주택,경기도 안산시 상록구 충장로 446,자치관리,계단식,19920130,05089202562,112,11934120.0,8.0,104.0,0.0,0.0,9233.7,1,4,0,0,,37.3184178670312,126.850585437839
A10026018,안산파크푸르지오 아파트,4127110800,경기도,안산상록구,성포동,,경기도 안산상록구 성포동 747 안산파크푸르지오 아파트,분양,지역난방,185727.88,8,1129.0,대우건설,대우건설,0314877883,aspp.aptner.com,아파트,경기도 안산시 상록구 화랑로 534,위탁관리,계단식,20180921,0314877884,1129,124216.58,123.0,973.0,33.0,0.0,90460.3669,35,35,2,22,15298,37.3197236803391,126.847366387629
A42683701,성포현대1차,4127110800,경기도,안산상록구,성포동,,경기도 안산상록구 성포동 592-2 성포현대1차,분양,개별난방,32836.0,10,570.0,현대건설(주),안산주택건설,0314835819,,아파트,경기도 안산시 상록구 성포로 31,자치관리,계단식,19890325,0315065819,571,28306.69,570.0,0.0,0.0,0.0,21516.6,5,5,1,0,15290,37.3242814101328,126.8453824952
A42683703,성포주공4단지,4127110800,경기도,안산상록구,성포동,,경기도 안산상록구 성포동 588 성포주공4단지,분양,지역난방,81262.08,8,780.0,주공,주공,0314829463,http://성포주공4단지.apti.co.kr,아파트,경기도 안산시 상록구 화랑로 510,위탁관리,복도식,19851109,0314017881,780,81136.29,0.0,729.0,51.0,0.0,61211.7,15,15,0,13,15297,37.3201607362607,126.843749639007
A42683704,성포주공10단지,4127110800,경기도,안산상록구,성포동,,경기도 안산상록구 성포동 584 성포주공10단지,분양,지역난방,1237596030.0,15,1380.0,대한주택공사,대한주택공사,0314821805,성포주공10단지.apti.co.kr,아파트,경기도 안산시 상록구 화랑로 527,위탁관리,혼합식,19870601,0314821852,1380,123671.1,0.0,1380.0,0.0,0.0,93200.7,15,15,1,23,15295,37.3220353733885,126.847859033286
A42683705,성포예술인,4127110800,경기도,안산상록구,성포동,,경기도 안산상록구 성포동 583 성포예술인,분양,지역난방,151373.64,13,1485.0,삼익건설(주),(주)예술인주택,0314825065,www.art-apt.com,아파트,경기도 안산시 상록구 화랑로 495,위탁관리,혼합식,19851227,0314840117,1485,150824.88,3.0,1482.0,0.0,0.0,112547.58,20,20,1,25,15296,37.3226938945479,126.843541651156
A42683706,성포선경,4127110800,경기도,안산상록구,성포동,,경기도 안산상록구 성포동 592 성포선경,분양,지역난방,200536.16,21,1768.0,sk건설,sk,0314030045,skapt.or.kr,아파트,경기도 안산시 상록구 예술광장1로 131,위탁관리,혼합식,19901227,0314850123,1768,200536.16,80.0,1254.0,330.0,104.0,164890.7,22,22,0,51,15290,37.3247838814763,126.842284380936
A42683707,성포주공11단지,4127110800,경기도,안산상록구,성포동,,경기도 안산상록구 성포동 591 성포주공11단지,분양,지역난방,149623.78,33,1975.0,대한주택공사,한보외,0314800930,http://www.sungpo11.com/,아파트,경기도 안산시 상록구 충장로 533,위탁관리,혼합식,19941118,0314870974,1975,146710.0,1975.0,0.0,0.0,0.0,112515.24,15,15,0,17,15292,37.3248899056088,126.848398794967
A10021238,라성연립,4127110900,경기도,안산상록구,월피동,,경기도 안산상록구 월피동 443- 라성연립,분양,개별난방,14655000.0,7,160.0,라성건설,라성건설,0314138727,,연립주택,경기도 안산시 상록구 부루지길 6,자치관리,계단식,19920728,,160,9156.0,152.0,8.0,0.0,0.0,9156.12,1,4,0,0,,37.3284751980052,126.850520955927
A10021414,부원빌라,4127110900,경기도,안산상록구,월피동,,경기도 안산상록구 월피동 443-1 부원빌라,분양,개별난방,7990.14,9,132.0,(주)대한스크린인쇄협동조합,(주)대한스크린인쇄협통조합,0314144924,,연립주택,경기도 안산시 상록구 부루지길 16,자치관리,계단식,19900115,07040662666,132,7120.32,132.0,0.0,0.0,0.0,5450.22,3,3,0,0,,37.3276743221533,126.852067195247
A42685302,월피주공3단지,4127110900,경기도,안산상록구,월피동,,경기도 안산상록구 월피동 446 월피주공3단지,분양,지역난방,46804.37,24,660.0,대한주택공사,대한주택공사,0314807588,,아파트,경기도 안산시 상록구 안산천동로 146,위탁관리,계단식,19951121,0314145928,660,46422.53,660.0,0.0,0.0,0.0,37153.78,5,5,0,0,15289,37.3301224531502,126.843203090308
A42685303,안산현대2차아파트,4127110900,경기도,안산상록구,월피동,,경기도 안산상록구 월피동 448 안산현대2차아파트,분양,지역난방,85251.0,18,770.0,(주)안산개발,(주)안산개발,0314862308,월피현대2차.ma-um.co.kr,아파트,경기도 안산시 상록구 안산천동로1길 29,위탁관리,계단식,19890701,0314822890,770,80094.84,0.0,590.0,180.0,0.0,64192.05,15,15,0,12,15284,37.3300912930792,126.849671609438
A42685304,월피주공1단지,4127110900,경기도,안산상록구,월피동,,경기도 안산상록구 월피동 444 월피주공1단지,분양,중앙난방,52139.25,14,860.0,대한주택공사,(주)한보,0315038703,,아파트,경기도 안산시 상록구 충장로 565,위탁관리,계단식,19930518,0315038801,860,50124.21,860.0,0.0,0.0,0.0,37585.74,15,15,0,6,15287,37.3280489413027,126.849047321018
A42685305,월피주공2단지,4127110900,경기도,안산상록구,월피동,,경기도 안산상록구 월피동 446 월피주공2단지,분양,중앙난방,63153.29,8,870.0,LH공사,LH공사,0314103714,월피주공2단지.ma-um.co.kr,아파트,경기도 안산시 상록구 안산천동로 146,위탁관리,복도식,19940620,0314870324,870,60696.19,870.0,0.0,0.0,0.0,43299.9,15,15,0,12,15289,37.3301224531502,126.843203090308
A42685306,월피한양,4127110900,경기도,안산상록구,월피동,,경기도 안산상록구 월피동 447 월피한양,분양,지역난방,127845.73,23,1362.0,(주)한양,(주)한양,0314852032,월피한양.apti.co.kr,아파트,경기도 안산시 상록구 안산천동로1길 9,위탁관리,혼합식,19900208,0314852033,1362,121320.27,244.0,1006.0,112.0,0.0,96750.58,20,20,0,24,15285,37.3323569234842,126.849307819711
A42620001,팔곡마을주공,4127111000,경기도,안산상록구,팔곡일동,,경기도 안산상록구 팔곡일동 681 팔곡마을주공,임대,개별난방,34308.96,8,496.0,한국토지주택공사,한국토지주택공사,0315098008,https://palkog.apti.co.kr/aptHome/,아파트,경기도 안산시 상록구 정동1길 3,위탁관리,복도식,20051206,0315098009,496,34156.12,496.0,0.0,0.0,0.0,20144.02,13,13,0,10,15526,37.297721002695,126.887461617154
A10020325,신동아종건 블루아,4127111100,경기도,안산상록구,건건동,,경기도 안산상록구 건건동 536-40 신동아종건 블루아,분양,개별난방,7811.41,1,165.0,신동아종합,신동아종합,0314372924,,도시형 생활주택(아파트),경기도 안산시 상록구 건건로 119-9,위탁관리,복도식,20130424,0314376896,165,2897.05,165.0,0.0,0.0,0.0,2897.05,7,7,1,3,,37.3113318195408,126.904085798213
A10020563,반월역 동문디이스트아파트,4127111100,경기도,안산상록구,건건동,,경기도 안산상록구 건건동 995- 반월역 동문디이스트아파트,분양,개별난방,21491.816,2,133.0,동문건설,안산산호연립주택재건축정비사업조합,0314061005,,아파트,경기도 안산시 상록구 건건1길 16,위탁관리,혼합식,20241108,0314061007,133,12509.24,46.0,87.0,0.0,0.0,9050.5819,130,13,2,7,,37.30204673151,126.902749607856
A10020802,반월역두산위브더센트럴,4127111100,경기도,안산상록구,건건동,,경기도 안산상록구 건건동 894-10 반월역두산위브더센트럴,혼합,개별난방,95853.45,7,725.0,두산건설,인정프린스아파트주택재건축정비사업조합,0313654674,,아파트,경기도 안산시 상록구 건지미길 28,위탁관리,계단식,20250228,0313654675,725,64168.473,440.0,285.0,0.0,0.0,48280.8137,34,34,3,13,,37.3014019443445,126.906659115951
A10024858,영무예다음아파트,4127111100,경기도,안산상록구,건건동,,경기도 안산상록구 건건동 994 영무예다음아파트,분양,개별난방,48580.133,6,390.0,(주)영무토건,건건동1구역 주택재건축정비사업,0313648368,,아파트,경기도 안산시 상록구 건건로 82,위탁관리,계단식,20200612,0313648369,390,32499.557,335.0,55.0,0.0,0.0,24038.4357,22,22,3,0,15521,37.3087465560369,126.904179211443
A42621002,건건서해아파트,4127111100,경기도,안산상록구,건건동,,경기도 안산상록구 건건동 665 건건서해아파트,분양,개별난방,83627.46,7,682.0,서해건설,서해건설,0314380567,건건서해아파트.ma-um.co.kr,아파트,경기도 안산시 상록구 건건5길 10,위탁관리,계단식,19980930,0314380568,682,70118.66,222.0,384.0,76.0,0.0,54480.46,21,21,2,18,15521,37.3058550079396,126.904692615592
A42621003,건건이편한세상,4127111100,경기도,안산상록구,건건동,,경기도 안산상록구 건건동 987 건건이편한세상,분양,개별난방,222461.9,19,1886.0,대림산업(주),대림산업(주),0315995900,ggdaelim.com/,아파트,경기도 안산시 상록구 건건8길 10,위탁관리,계단식,20060929,0315995902,1886,136060.9,740.0,1146.0,0.0,0.0,136060.9136,30,30,1,42,15521,37.3111878017893,126.905614391732
A42622001,사사동현대아파트,4127111200,경기도,안산상록구,사사동,,경기도 안산상록구 사사동 413 사사동현대아파트,분양,개별난방,54292.125,9,491.0,(주)신라산업개발,(주)성웅,0315021785,사사현대.ma-um.co.kr,아파트,경기도 안산시 상록구 양지마을1길 81,위탁관리,계단식,20020429,0315021786,491,46032.83,152.0,339.0,0.0,0.0,32901.8595,19,19,1,15,15524,37.2949705831464,126.916124617784
A10021461,건양타워아파트,4127111400,경기도,안산상록구,장상동,,경기도 안산상록구 장상동 18-5 건양타워아파트,분양,개별난방,12800.0,1,128.0,건양건축,건양,0314846533,,아파트,경기도 안산시 상록구 청룡길 25,자치관리,복도식,19950721,,128,10404.9,119.0,9.0,0.0,0.0,7868.1,1,16,1,2,,37.359371478867,126.872944471339
