kaptCode,kaptName,bjdCode,as1,as2,as3,as4,kaptAddr,codeSaleNm,codeHeatNm,kaptTarea,kaptDongCnt,kaptdaCnt,kaptBcompany,kaptAcompany,kaptTel,kaptUrl,codeAptNm,doroJuso,codeMgrNm,codeHallNm,kaptUsedate,kaptFax,hoCnt,kaptMarea,kaptMparea60,kaptMparea85,kaptMparea135,kaptMparea136,privArea,kaptTopFloor,ktownFlrNo,kaptBaseFloor,kaptdEcntp,zipcode,위도,경도
A10021239,삼한아파트,4167010200,경기도,여주시,홍문동,,경기도 여주시 홍문동 8-1 삼한아파트,혼합,개별난방,32000.0,4,156.0,삼한건설,삼한건설,0318853630,,아파트,경기도 여주시 세종로 135,자치관리,계단식,19911130,0220987099,156,13377.48,4.0,140.0,12.0,0.0,12482.52,5,5,1,0,,37.2861968600523,127.636404267998
A46970717,홍문현대,4167010200,경기도,여주시,홍문동,,경기도 여주시 홍문동 181 홍문현대,분양,개별난방,71019.55,6,673.0,(주)아주종합건설,현대건설,0318864823,,아파트,경기도 여주시 세종로 61,위탁관리,계단식,19960530,0318864824,673,64487.035,383.0,254.0,36.0,0.0,48398.18,23,23,0,1,12631,37.2922978317693,127.63696405121
A46971915,여주동원아파트,4167010200,경기도,여주시,홍문동,,경기도 여주시 홍문동 353 여주동원아파트,분양,개별난방,43690.89,7,504.0,동원개발주식회사,동원개발주식회사,0318810183,여주동원.apti.co.kr/,아파트,경기도 여주시 세종로 173-69,위탁관리,계단식,20010525,0318810184,504,37145.36,504.0,0.0,0.0,0.0,26919.006,18,18,1,15,12633,37.2835053618254,127.641138508719
A46972008,상우1차,4167010200,경기도,여주시,홍문동,,경기도 여주시 홍문동 377-1 상우1차,분양,개별난방,34557.62,2,336.0,상우종합건설,상우종합건설,0318851318,,아파트,경기도 여주시 세종로 173-65,위탁관리,혼합식,19930605,0318861951,336,33859.36,128.0,160.0,48.0,0.0,27114.96,16,16,1,8,12633,37.2834183688154,127.638997193689
A46970606,하리현대아파트,4167010700,경기도,여주시,하동,,경기도 여주시 하동 123 하리현대아파트,분양,개별난방,28961.223,4,305.0,현대산업개발 주식회사,현대산업개발 주식회사,0318863485,,아파트,경기도 여주시 청심로 79,위탁관리,계단식,19951202,0318863487,305,26159.031,201.0,104.0,0.0,0.0,20892.825,19,19,0,4,12619,37.3005240925694,127.629568519535
A10022724,여주역센트레빌트리니체아파트,4167010800,경기도,여주시,교동,,경기도 여주시 교동 673 여주역센트레빌트리니체아파트,분양,개별난방,57569.785,6,404.0,(주)동부건설,여주교동향교마을 지역주택조합,0318857587,,아파트,경기도 여주시 향교로 92,위탁관리(직영+위탁),계단식,20240228,0318857588,404,39360.668,0.0,404.0,0.0,0.0,39360.6677,20,20,2,12,12644,37.287157296261,127.624693456568
A10023206,여주역휴먼빌아트라움,4167010800,경기도,여주시,교동,,경기도 여주시 교동 412 여주역휴먼빌아트라움,분양,개별난방,98787.42,8,640.0,일신건영,일신건영,0318835505,yeojuvill.aptner.com,아파트,경기도 여주시 교동로 120,위탁관리,계단식,20230526,0318835507,640,65719.95,216.0,424.0,0.0,0.0,48997.424,19,19,0,22,12650,37.2795216691073,127.627942697348
A10023246,여주역 LH 3단지,4167010800,경기도,여주시,교동,,경기도 여주시 교동 194 여주역 LH 3단지,임대,개별난방,60439.0,7,705.0,GS건설,LH공사,0318856105,,아파트,,위탁관리,혼합식,20230428,0318856106,705,60160.24,705.0,0.0,0.0,0.0,27008.06,18,18,1,15,12632,37.285268254213,127.628836751575
A10023274,여주역 우남퍼스트빌,4167010800,경기도,여주시,교동,,경기도 여주시 교동  여주역 우남퍼스트빌,분양,개별난방,89492.914,8,602.0,(주)우남건설,(주)우남건설,0318847701,여주역우남퍼스트빌.apti.co.kr,아파트,경기도 여주시 교동로 115,위탁관리,계단식,20230414,0318847702,602,58926.57,320.0,176.0,106.0,0.0,44724.3778,18,18,2,0,12650,37.280072744182,127.630382282733
A10023660,여주역 금호어울림 베르티스,4167010800,경기도,여주시,교동,,경기도 여주시 교동 572 여주역 금호어울림 베르티스,분양,개별난방,89981.15,7,605.0,(주)금호건설,하일건설(주),0318852203,,아파트,경기도 여주시 세종로 230,위탁관리,계단식,20220826,0318852206,605,68759.53,0.0,578.0,22.0,5.0,51951.0976,27,27,1,0,12652,37.2765696334587,127.634365485179
A10023945,여주역 푸르지오클라테르 아파트,4167010800,경기도,여주시,교동,,경기도 여주시 교동 531 여주역 푸르지오클라테르 아파트,분양,개별난방,87291.0,8,551.0,(주)대우건설,(주)성진,0318869006,여주역푸르지오클라테르.apti.co.kr,아파트,경기도 여주시 세종로 220,위탁관리,계단식,20211229,0318869007,551,61937.07,0.0,551.0,0.0,0.0,46816.4725,20,20,2,16,12652,37.2778984117128,127.634510025138
A46971407,삼성명가타운,4167010800,경기도,여주시,교동,,경기도 여주시 교동 28 삼성명가타운,분양,개별난방,36790.46,6,316.0,삼성중공업,대한주택ENG(주),0318839121,여주삼성.apti.co.kr/,아파트,경기도 여주시 세종로 255,위탁관리,계단식,20010830,0318839120,316,36787.22,0.0,286.0,30.0,0.0,27733.796,15,15,0,11,12651,37.2751751113283,127.639173756818
A46980109,여주교리강남아파트,4167010800,경기도,여주시,교동,,경기도 여주시 교동 81 여주교리강남아파트,분양,개별난방,35586.44,4,378.0,(주)강남건영,(주)강남건영,0318814004,monday4004@hanmail.net,아파트,경기도 여주시 세종로 254-6,위탁관리,계단식,19981022,0318814005,378,31773.348,198.0,180.0,0.0,0.0,27158.76,15,15,1,0,12652,37.2753548120877,127.635182994869
A46980112,예일세띠앙,4167010800,경기도,여주시,교동,,경기도 여주시 교동 127 예일세띠앙,분양,개별난방,59375.38,8,472.0,예일건설(주),예일산업개발(주),0318836281,예일세띠앙.ma-um.co.kr,아파트,경기도 여주시 세종로 204-22,위탁관리,계단식,20060127,0318836280,472,52679.383,0.0,367.0,105.0,0.0,42148.883,15,15,1,18,12650,37.2808085566207,127.632571321086
A46980116,여주호반리젠시빌,4167010800,경기도,여주시,교동,,경기도 여주시 교동 81-2 여주호반리젠시빌,분양,개별난방,58118.0,7,549.0,리젠시빌,리젠시빌,0318840024,,아파트,경기도 여주시 세종로 254-16,위탁관리,계단식,20031018,0318847803,549,51715.77,0.0,549.0,0.0,0.0,42823.4858,15,15,0,20,12652,37.2745414056224,127.633982254725
A46971605,두풍리치빌,4167010900,경기도,여주시,월송동,,경기도 여주시 월송동 380-5 두풍리치빌,분양,개별난방,32227.0,4,280.0,두풍종합건설(주),두풍종합건설(주),0318812597,,아파트,경기도 여주시 여주남로 61,위탁관리,계단식,20030909,0318812598,280,31528.56,0.0,280.0,0.0,0.0,23733.836,14,14,1,10,12645,37.2822427890894,127.615414307701
A46971711,한성,4167010900,경기도,여주시,월송동,,경기도 여주시 월송동 127-9 한성,분양,개별난방,38499.844,6,420.0,주식회사한성,주식회사한성,0318866071,42053,아파트,경기도 여주시 우암로 190,위탁관리,계단식,20000327,0318848651,420,31767.54,420.0,0.0,0.0,0.0,25197.9,15,15,1,14,12644,37.2880112062478,127.618756532483
A46972210,보광그랑베르아파트,4167010900,경기도,여주시,월송동,,경기도 여주시 월송동 388-29 보광그랑베르아파트,분양,개별난방,37543.0,8,384.0,(주)보광종합건설,(주)보광종합건설,0318820964,보광그랑베르.ma-um.co.kr,아파트,경기도 여주시 여주남로 58-31,위탁관리,계단식,20050905,0318820965,384,33250.08,0.0,384.0,0.0,0.0,26553.984,12,12,1,16,12645,37.2824909455291,127.609455749297
A10021130,인창아파트,4167011500,경기도,여주시,점봉동,,경기도 여주시 점봉동 114- 인창아파트,분양,,0.0,1,118.0,,,0318841003,,아파트,경기도 여주시 세종로517번길 7-20,,,19911121,,0,0.0,0.0,118.0,0.0,0.0,9940.32,1,12,0,0,,37.2560256326838,127.64949698415
A46971819,여주부영,4167011500,경기도,여주시,점봉동,,경기도 여주시 점봉동 430-6 여주부영,분양,개별난방,62579.87,6,810.0,(주)부영,(주)부영,0318813490,,아파트,경기도 여주시 세종로 394-10,위탁관리,복도식,20001024,0318813491,810,52012.395,810.0,0.0,0.0,0.0,34845.285,15,15,1,6,12653,37.2643809746745,127.638309609444
A46980117,세종그랑시아,4167011500,경기도,여주시,점봉동,,경기도 여주시 점봉동 291-1 세종그랑시아,분양,개별난방,25288.438,5,244.0,성문산업개발,세종건설,0318844090,여주세종그랑시.apti.co.kr,아파트,경기도 여주시 농산로 27,위탁관리,계단식,20060406,0318844002,244,24198.36,0.0,244.0,0.0,0.0,18222.7984,14,14,0,9,12653,37.2567284471768,127.639513617603
A46980202,정광휴레나,4167011700,경기도,여주시,멱곡동,,경기도 여주시 멱곡동 376-8 정광휴레나,분양,개별난방,26785.002,4,225.0,정광건설,정광건설,0318812811,,아파트,경기도 여주시 점곡길 10-3,위탁관리,계단식,20081031,0318812812,225,22849.586,82.0,143.0,0.0,0.0,17060.127,15,15,0,8,12659,37.2458198780672,127.652231672974
A46972114,영진리버빌아파트,4167011800,경기도,여주시,연양동,,경기도 여주시 연양동 348-4 영진리버빌아파트,분양,개별난방,63904.68,6,498.0,영진씨엔아이(주),영진씨엔아이(주),0318838778,영진리버빌.ma-um.co.kr,아파트,경기도 여주시 강변유원지길 22-35,위탁관리,계단식,20060324,0318838703,498,63079.65,0.0,498.0,0.0,0.0,42225.4254,15,15,1,17,12634,37.2897991810724,127.660912515739
A10021475,여주월드타워,4167012000,경기도,여주시,천송동,,경기도 여주시 천송동 515-1 여주월드타워,분양,개별난방,0.0,1,119.0,신한종합건설,굿월드하우징,0318835456,,도시형 생활주택(주상복합),경기도 여주시 여양로 212,위탁관리(직영+위탁),복도식,20171020,0318835457,120,5725.71,118.0,1.0,0.0,0.0,2290.4308,15,15,2,1,,37.3017932264417,127.650223892375
A10022533,서해스카이팰리스,4167012000,경기도,여주시,천송동,,경기도 여주시 천송동 591-7 서해스카이팰리스,분양,개별난방,35139.0,1,174.0,(주)서해종합건설,(주)호영개발,0318854930,,주상복합,경기도 여주시 여양로233번길 5-26,위탁관리,계단식,20240430,0318854931,194,21710.598,0.0,136.0,38.0,0.0,15375.4549,38,38,5,4,,37.3021133030855,127.648279655077
A10025265,여주kcc스위첸,4167012000,경기도,여주시,천송동,,경기도 여주시 천송동 599 여주kcc스위첸,분양,개별난방,63993.0,3,388.0,주)케이씨씨건설,주) 한국토지신탁,0318837664,,주상복합,경기도 여주시 강변북로 2,위탁관리,계단식,20190924,0318837665,388,45365.137,0.0,386.0,0.0,2.0,33076.9984,49,49,2,6,12639,37.3015353104502,127.649329278719
A46980119,여주성일우리미,4167012100,경기도,여주시,오학동,,경기도 여주시 오학동 401 여주성일우리미,분양,개별난방,50830.76,5,200.0,성일건설(주),성일종합건설(주),0318852910,,아파트,경기도 여주시 학동2길 42,자치관리,기타,20091030,0318852911,200,34056.0,0.0,0.0,109.0,91.0,27959.74,15,15,2,10,12639,37.3060373824842,127.643251821142
A46980120,여주신도브래뉴,4167012100,경기도,여주시,오학동,,경기도 여주시 오학동 361 여주신도브래뉴,분양,개별난방,47174.54,6,321.0,(주)신도종합건설,made C&D,0318811573,,아파트,경기도 여주시 학동2길 12,위탁관리,복도식,20091030,0318811574,321,47174.54,0.0,56.0,209.0,56.0,38902.108,15,15,1,12,12639,37.3037984639554,127.64496841246
A46980122,오드카운티,4167012100,경기도,여주시,오학동,,경기도 여주시 오학동 408 오드카운티,분양,개별난방,78767.445,11,600.0,동광종합토건(주),동광종합토건(주),0318869544,htti://여주오드카운티.apti.co.kr,아파트,경기도 여주시 도예로 83-36,위탁관리,계단식,20140312,0318869543,600,56086.83,284.0,316.0,0.0,0.0,41842.0878,15,15,2,24,12637,37.3122834254662,127.641759820561
A46985513,여주현진에버빌,4167012100,경기도,여주시,오학동,,경기도 여주시 오학동 100-5 여주현진에버빌,분양,개별난방,42738.94,2,495.0,현진에버빌(주),현진에버빌(주),0318868118,,아파트,경기도 여주시 여양로 341-10,위탁관리,복도식,19980219,0318864183,495,33140.504,495.0,0.0,0.0,0.0,26115.255,20,20,1,6,12637,37.3131690486996,127.643665556769
A10024518,여주 아이파크,4167012200,경기도,여주시,현암동,,경기도 여주시 현암동 695 여주 아이파크,분양,개별난방,79422.625,6,526.0,현대산업개발,케이엘개발,0318852818,여주아이파크.apti.co.kr,아파트,경기도 여주시 현암로 20,위탁관리,계단식,20201127,0318862818,526,61521.48,0.0,526.0,0.0,0.0,44700.7624,23,23,2,13,12638,37.3118357050454,127.635063277012
A46980118,이안여주강변,4167012200,경기도,여주시,현암동,,경기도 여주시 현암동 195 이안여주강변,분양,개별난방,90059.85,7,586.0,대우산업개발,명실상부,0318834701,yeojuiaan.apti.co.kr/,아파트,경기도 여주시 도예로 40,위탁관리,계단식,20090805,0318834801,586,54679.23,0.0,486.0,100.0,0.0,54679.23,25,25,1,0,12639,37.3062188531572,127.641241973184
A46980123,e편한세상여주,4167012200,경기도,여주시,현암동,,경기도 여주시 현암동 684 e편한세상여주,분양,개별난방,32706.0,5,299.0,(주)삼호,kb부동산신탁,0318816066,,아파트,경기도 여주시 도예로 83-60,자치관리,계단식,20140820,0318816016,299,32587.535,0.0,299.0,0.0,0.0,25278.3408,15,15,1,9,12637,37.3131055839599,127.639483705243
A46985618,여주벽산,4167012200,경기도,여주시,현암동,,경기도 여주시 현암동 188-1 여주벽산,분양,개별난방,46459.0,2,682.0,벽산건설,늘푸른주택,0318864658,여주벽산.apti.co.kr,아파트,경기도 여주시 도예로 35,위탁관리,복도식,19971105,0318864659,682,33469.15,682.0,0.0,0.0,0.0,25588.64,18,18,2,8,12637,37.3074275489023,127.640214489727
A46988101,굿모닝타워아파트,4167025021,경기도,여주시,가남읍,태평리,경기도 여주시 가남읍 태평리 268-3 굿모닝타워아파트,분양,개별난방,15406.337,1,185.0,굿모닝건설,굿모닝건설,0318840180,굿모닝아파트.ma-um.co.kr,아파트,경기도 여주시 일신로 29,자치관리,복도식,20080630,0318840183,185,15103.4,185.0,0.0,0.0,0.0,10432.3165,17,17,1,2,12662,37.2138610511395,127.542115162675
A46971001,"가남현진에버빌1,2단지",4167025023,경기도,여주시,가남읍,신해리,"경기도 여주시 가남읍 신해리 620-8 가남현진에버빌1,2단지",분양,개별난방,95418.51,13,1067.0,현진종합건설,현진에버빌,0318846084,,아파트,경기도 여주시 경충대로 1472-23,위탁관리,혼합식,20001121,0318833306,1067,82221.93,697.0,370.0,0.0,0.0,58601.191,17,17,1,26,12655,37.2178809757196,127.534135758746
A46988502,동남아파트,4167025023,경기도,여주시,가남읍,신해리,경기도 여주시 가남읍 신해리 620-17 동남아파트,분양,개별난방,37477.85,4,480.0,동남주택개발주식회사,동남주택개발주식회사,0318829928,여주동남아파트.apti.co.kr/apHome,아파트,경기도 여주시 경충대로 1472-34,위탁관리,복도식,19971213,0318829802,480,28688.928,480.0,0.0,0.0,0.0,28689.6,10,10,1,8,12655,37.2185444460171,127.535783681538
A46988203,세광리치타운,4167025027,경기도,여주시,가남읍,심석리,경기도 여주시 가남읍 심석리 118 세광리치타운,분양,개별난방,65081.72,8,678.0,동명건설,동명건설,0318810263,sekwang1387@daum.net,아파트,경기도 여주시 경충대로 1162-20,위탁관리,복도식,19990724,0318810304,678,53791.844,678.0,0.0,0.0,0.0,39825.72,15,15,1,11,12661,37.1974320021746,127.553229878402
