kaptCode,kaptName,bjdCode,as1,as2,as3,as4,kaptAddr,codeSaleNm,codeHeatNm,kaptTarea,kaptDongCnt,kaptdaCnt,kaptBcompany,kaptAcompany,kaptTel,kaptUrl,codeAptNm,doroJuso,codeMgrNm,codeHallNm,kaptUsedate,kaptFax,hoCnt,kaptMarea,kaptMparea60,kaptMparea85,kaptMparea135,kaptMparea136,privArea,kaptTopFloor,ktownFlrNo,kaptBaseFloor,kaptdEcntp,zipcode,위도,경도
A10020553,힐스테이트 소사역아파트,4119410100,경기도,부천소사구,소사본동,,경기도 부천소사구 소사본동 65-2 힐스테이트 소사역아파트,분양,개별난방,111605.195,4,629.0,현대엔지니어링,(주)엠케이개발,0323434502,,주상복합,경기도 부천시 소사구 경인옛로 37,위탁관리,계단식,20250627,0323434503,629,71468.02,0.0,629.0,0.0,0.0,53048.8297,49,49,6,10,,37.4816616139654,126.795997639138
A10021536,현대프라힐스소사역더프라임,4119410100,경기도,부천소사구,소사본동,,경기도 부천소사구 소사본동 70-6 현대프라힐스소사역더프라임,분양,개별난방,21259.0,2,160.0,현대아산,한송건설산업,0323499970,,주상복합,경기도 부천시 소사구 경인로348번길 12,위탁관리,기타,20240628,0323499971,160,16204.313,0.0,160.0,0.0,0.0,11911.738,29,29,5,2,,37.481771739706,126.794192305646
A10022436,소새울역신일해피트리아파트,4119410100,경기도,부천소사구,소사본동,,경기도 부천소사구 소사본동 427 소새울역신일해피트리아파트,분양,개별난방,15368.0,2,118.0,(주)신일,로얄연립가로주택정비사업조합,07073577121,,아파트,경기도 부천시 소사구 소사로134번길 14,위탁관리,계단식,20211119,07073577121,119,15159.94,90.0,28.0,0.0,0.0,6972.48,15,15,2,0,,37.4701871101786,126.79700168748
A10022807,소사역 한라비발디 프레스티지,4119410100,경기도,부천소사구,소사본동,,경기도 부천소사구 소사본동 70-12 소사역 한라비발디 프레스티지,분양,개별난방,28187.4,2,166.0,HL디앤아이한라(주),HL디앤아이한라(주),0323417781,,주상복합,경기도 부천시 소사구 경인로348번길 15,위탁관리,계단식,20240115,0323417782,166,11874.3,0.0,166.0,0.0,0.0,11874.3,36,36,5,3,14704,37.4817441910187,126.794515625209
A10023377,부천소사현진에버빌아파트,4119410100,경기도,부천소사구,소사본동,,경기도 부천소사구 소사본동 212-4 부천소사현진에버빌아파트,분양,개별난방,24039.082,4,170.0,"현진에버빌(주),(주)미동이앤씨",신한자산신탁(주),0327107626,,아파트,경기도 부천시 소사구 호현로 385,위탁관리,계단식,20230213,0327107627,170,14776.307,48.0,115.0,7.0,0.0,11711.9367,19,19,2,8,14757,37.4717056812348,126.791063189631
A10024871,부천한신더휴메트로,4119410100,경기도,부천소사구,소사본동,,경기도 부천소사구 소사본동 70-16 부천한신더휴메트로,분양,개별난방,41551.992,2,299.0,한신공영(주),한국자산신탁(주),0323427285,,주상복합,경기도 부천시 경인옛로 25,위탁관리,계단식,20200429,0323427286,299,41551.91,223.0,76.0,0.0,0.0,18302.222,41,41,6,4,14704,37.4818347927871,126.794907702402
A42223002,소사주공3단지,4119410100,경기도,부천소사구,소사본동,,경기도 부천소사구 소사본동 407-1 소사주공3단지,분양,개별난방+기타,31735.0,4,348.0,양우건설,한국토지주택공사 인천지역본부,0323422692,,아파트,경기도 부천시 소사동로 100,위탁관리,계단식,20060608,0323422693,348,20688.6,348.0,0.0,0.0,0.0,20688.6,20,20,1,10,14776,37.4736716724124,126.804972785405
A42223003,부천소사역푸르지오,4119410100,경기도,부천소사구,소사본동,,경기도 부천소사구 소사본동 133-12 부천소사역푸르지오,분양,개별난방,131821.1,9,797.0,대우건설,골드c&d,0323461197,소사역prugio.apti.co.kr,아파트,경기도 부천시 소삼로 47,위탁관리,계단식,20121105,0323461198,798,89151.664,166.0,462.0,169.0,0.0,69959.556,30,30,2,19,14694,37.4798214720907,126.797350757508
A42270606,소사양우,4119410100,경기도,부천소사구,소사본동,,경기도 부천소사구 소사본동 323 소사양우,분양,개별난방,25866.246,3,244.0,양우건설,양우지역조합,0323513500,소사양우아파트.ma-um.co.kr,아파트,경기도 부천시 소사로126번길 18,자치관리,계단식,20030822,0323513509,244,25812.76,0.0,244.0,0.0,0.0,20685.53,23,23,1,0,14770,37.4699791915308,126.797915307693
A42270607,소사풍림,4119410100,경기도,부천소사구,소사본동,,경기도 부천소사구 소사본동 401-7 소사풍림,분양,개별난방,87023.0,7,714.0,풍림산업(주),풍림산업(주),0323466612,풍림아파트.ma-um.co.kr,아파트,경기도 부천시 소사로78번길 42,위탁관리,계단식,19960916,0323466613,714,78097.32,0.0,714.0,0.0,0.0,60525.78,19,19,0,20,14774,37.4645300477695,126.802003340112
A42270608,소새울역중흥S클래스,4119410100,경기도,부천소사구,소사본동,,경기도 부천소사구 소사본동 411-1 소새울역중흥S클래스,분양,개별난방,139246.38,14,1104.0,"남영,LIG.신동아",LH공사,0323423165,WWW.sosatranche4.kr,아파트,경기도 부천시 소사구 소사동로72번길 32,위탁관리,계단식,20060630,0323423167,1104,118581.484,0.0,1104.0,0.0,0.0,91468.62,20,20,0,28,14772,37.472298117563,126.802767176182
A42270609,소사주공2단지,4119410100,경기도,부천소사구,소사본동,,경기도 부천소사구 소사본동 408-1 소사주공2단지,임대,개별난방,45582.055,7,557.0,진흥기업,LH,0323515472,,아파트,경기도 부천시 은성로 110-1,위탁관리,혼합식,20060608,0322035472,557,28896.75,557.0,0.0,0.0,0.0,28896.75,20,20,1,14,14764,37.4743887373735,126.802880612011
A42270610,소사SK-VIEW,4119410100,경기도,부천소사구,소사본동,,경기도 부천소사구 소사본동 135 소사SK-VIEW,분양,개별난방,162564.36,14,1172.0,에스케이건설,조합,0323412734,sosaview.net,아파트,경기도 부천시 소삼로 62,위탁관리,계단식,20040629,0322551172,1172,126463.375,0.0,1172.0,0.0,0.0,99598.3492,20,20,2,30,14700,37.4768194115592,126.801013350755
A42270611,소새울KCC스위첸,4119410100,경기도,부천소사구,소사본동,,경기도 부천소사구 소사본동 424 소새울KCC스위첸,혼합,개별난방,38328.0,4,226.0,KCC건설,백동단지재건축조합,0323483366,,아파트,경기도 부천시 은성로67번길 12,위탁관리,계단식,20120917,0323483367,226,27141.66,30.0,110.0,86.0,0.0,21387.86,15,15,2,8,14700,37.4755049089934,126.798819094947
A42274201,세영타워메카아파트,4119410100,경기도,부천소사구,소사본동,,경기도 부천소사구 소사본동 78 세영타워메카아파트,분양,개별난방,25840.4,1,154.0,(주)고은건설,대풍시장재건축조합,0323400661,,주상복합,경기도 부천시 소사로247번길 19,자치관리,복도식,20090105,0323400660,154,22829.94,0.0,121.0,33.0,0.0,12523.357,14,14,4,2,14705,37.4802367073839,126.794303922447
A42280701,부천성지,4119410100,경기도,부천소사구,소사본동,,경기도 부천소사구 소사본동 91-68 부천성지,분양,개별난방,24551.885,3,264.0,성지건설(주),성지건설(주),0323475735,,아파트,경기도 부천시 경인로324번길 38,위탁관리,계단식,19880123,0323475734,264,23484.168,24.0,240.0,0.0,0.0,18684.96,12,12,0,11,14754,37.4810965154498,126.79003905537
A42281104,부천한신,4119410100,경기도,부천소사구,소사본동,,경기도 부천소사구 소사본동 277-12 부천한신,분양,개별난방,85735.37,9,916.0,한신공영,한신공영,0323462970,www.bchanshinapt.co.kr,아파트,경기도 부천시 소사로170번길 81,자치관리,혼합식,19840924,0323488239,916,84871.44,168.0,748.0,0.0,0.0,61698.16,13,13,0,14,14763,37.4748700905446,126.801126709344
A42281201,소새울역청구아파트,4119410100,경기도,부천소사구,소사본동,,경기도 부천소사구 소사본동 400-7 소새울역청구아파트,분양,개별난방,37263.0,3,202.0,(주)청구주택,(주)청구주택,0323475626,,아파트,경기도 부천시 소사로102번길 47,위탁관리,계단식,19950316,0323425626,202,31795.521,0.0,0.0,202.0,0.0,26380.38,15,15,0,7,14771,37.4691264311693,126.800433486384
A42281203,소사두산삼성,4119410100,경기도,부천소사구,소사본동,,경기도 부천소사구 소사본동 403 소사두산삼성,분양,지역난방,97542.0,10,524.0,두산 삼성,두산 삼성,0323487087,,아파트,경기도 부천시 소사로78번길 81,위탁관리,계단식,19950325,0323488436,524,80471.08,0.0,0.0,524.0,0.0,67011.48,15,15,1,18,14774,37.4670093293606,126.801235592148
A42281205,소사주공,4119410100,경기도,부천소사구,소사본동,,경기도 부천소사구 소사본동 400-8 소사주공,분양,지역난방,93175.71,14,1210.0,"삼익,화인",주택공사,0322148334,소사주공.apti.co.kr,아파트,경기도 부천시 소사로102번길 67,위탁관리,복도식,19951107,0322143418,1210,93175.71,1210.0,0.0,0.0,0.0,67299.37,15,15,0,15,14771,37.46929657362,126.801307875183
A10022229,태경삼익아파트,4119410200,경기도,부천소사구,심곡본동,,경기도 부천소사구 심곡본동 562-115 태경삼익아파트,분양,개별난방,0.0,2,128.0,삼익건설,삼익건설,0326135690,,,경기도 부천시 소사구 성주로 226-1,자치관리,복도식,19850429,0326125690,128,12614.4,40.0,88.0,0.0,0.0,9127.2,12,10,0,2,,37.4779399707216,126.781711464706
A10026019,e편한세상부천심곡아파트,4119410200,경기도,부천소사구,심곡본동,,경기도 부천소사구 심곡본동 801 e편한세상부천심곡아파트,분양,개별난방,49178.81,6,354.0,고려개발(주),심곡본1-1구역주택재건축정비사업조합,0326687874,,아파트,경기도 부천시 성주로 158,위탁관리,계단식,20180920,0326687875,354,33360.01,171.0,183.0,0.0,0.0,24812.02,19,19,3,0,14747,37.4787481213379,126.773356548967
A42271201,부천심곡동양파라곤,4119410200,경기도,부천소사구,심곡본동,,경기도 부천소사구 심곡본동 560-9 부천심곡동양파라곤,분양,개별난방,17563.4,2,60.0,동양건설(주),,0326128026,,주상복합,,기타,계단식,,0326128027,60,10809.52,0.0,0.0,0.0,60.0,9079.56,19,19,0,4,,37.4835969072051,126.775156817059
A42282303,부천극동아파트,4119410200,경기도,부천소사구,심곡본동,,경기도 부천소사구 심곡본동 566-1 부천극동아파트,분양,개별난방,45886.93,6,495.0,극동건설,극동건설,0326577938,https://xn--3i0bl5i09icwp.apti.co.kr/aptHome/,아파트,경기도 부천시 성주로 226,자치관리,복도식,19800429,0322177938,495,45057.867,0.0,220.0,275.0,0.0,41071.28,10,10,0,11,14749,37.4773944971865,126.781904793172
A42284002,부천롯데아파트,4119410200,경기도,부천소사구,심곡본동,,경기도 부천소사구 심곡본동 617-11 부천롯데아파트,분양,개별난방,47675.31,5,463.0,롯데건설,롯데건설,0326520116,cafe.daum.net/bucheonlotte,아파트,경기도 부천시 심곡로67번길 74,위탁관리,혼합식,19841109,0326516379,463,46617.02,0.0,427.0,0.0,36.0,35441.11,13,13,1,13,14749,37.4756145654284,126.780062798365
A10023362,부천일루미스테이트,4119410300,경기도,부천소사구,범박동,,경기도 부천소사구 범박동 327 부천일루미스테이트,혼합,지역난방,556958.0,37,3724.0,"현대건설, 코오롱건설, 두산건설","계수,범박지구 주택정비사업 조합",0327107644,,아파트,경기도 부천시 범안로 180,위탁관리,혼합식,20230228,0327107645,3724,352655.1,1959.0,1765.0,0.0,0.0,521608.04,29,29,4,95,14775,37.4664272472094,126.807974362203
A42275101,범박파밀리에포레스트,4119410300,경기도,부천소사구,범박동,,경기도 부천소사구 범박동 234-1 범박파밀리에포레스트,분양,개별난방,104312.63,12,672.0,신동아건설,대한토지주택공사,0323519968,범박파밀리에포레스트.apti.co.kr/,아파트,경기도 부천시 양지남로68번길 25,위탁관리,계단식,20110321,0323519969,672,74075.74,0.0,672.0,0.0,0.0,56233.32,15,15,2,28,14788,37.4674650194098,126.814109238075
A42280401,부천범박힐스테이트2단지,4119410300,경기도,부천소사구,범박동,,경기도 부천소사구 범박동 153-2 부천범박힐스테이트2단지,분양,개별난방,70340.66,5,490.0,현대건설,부천범박지역주택조합,0323411685,부천범박힐스테이트2단지.ma-um.co.kr,아파트,경기도 부천시 범안로 80,위탁관리,계단식,20040625,0323411684,490,53668.8,0.0,390.0,100.0,0.0,41614.6,25,25,0,10,14776,37.4750927438162,126.807888093157
A42280402,부천범박힐스테이트6단지,4119410300,경기도,부천소사구,범박동,,경기도 부천소사구 범박동 150-2 부천범박힐스테이트6단지,분양,개별난방,86344.72,9,669.0,현대건설,기양건설산업(주),0323516600,범박현대홈타운6단지.www.bh6town.com,아파트,경기도 부천시 은성로 172-17,위탁관리,계단식,20030627,0323516601,669,67148.6,0.0,669.0,0.0,0.0,49685.75,25,25,2,17,14773,37.4688354981173,126.806282738711
A42280403,부천범박힐스테이트5단지,4119410300,경기도,부천소사구,범박동,,경기도 부천소사구 범박동 151-2 부천범박힐스테이트5단지,분양,개별난방,178134.0,8,836.0,현대건설,기양건설,0323515500,bchtown.or.kr/,아파트,경기도 부천시 범안로 130-27,위탁관리,계단식,20030627,0322555502,836,133000.86,0.0,0.0,499.0,337.0,108773.98,25,25,1,20,14778,37.4699183301736,126.808326382124
A42280404,부천범박힐스테이트3단지,4119410300,경기도,부천소사구,범박동,,경기도 부천소사구 범박동 155-1 부천범박힐스테이트3단지,분양,개별난방,144722.89,11,1012.0,기양건설산업(주),기양건설산업(주),0323410980,www.bh3town.or.kr,아파트,경기도 부천시 범안로95번길 32,위탁관리,계단식,20040625,0323514228,1012,113134.42,0.0,829.0,183.0,0.0,85823.54,25,25,0,22,14782,37.4733601768802,126.811288076758
A42280405,부천범박힐스테이트4단지,4119410300,경기도,부천소사구,범박동,,경기도 부천소사구 범박동 152-2 부천범박힐스테이트4단지,분양,개별난방,208394.0,11,1387.0,현대건설,기양주택건설,0323471915,https://부천범박힐스테이트4단지.apti.co.kr,아파트,경기도 부천시 범안로96번길 23,위탁관리,계단식,20030627,0323471916,1387,163978.8,0.0,840.0,547.0,0.0,125374.27,25,25,0,29,14777,37.4727470593498,126.808333063842
A42280406,부천범박힐스테이트1단지,4119410300,경기도,부천소사구,범박동,,경기도 부천소사구 범박동 154-2 부천범박힐스테이트1단지,분양,개별난방,131258.0,13,1070.0,현대건설(주),부천범박지역주택조합,0323411681,www.bh1town.or.kr,아파트,경기도 부천시 범안로 81,위탁관리,혼합식,20040625,0323510667,1070,77599.86,484.0,460.0,126.0,0.0,78031.86,25,25,1,23,14782,37.4752602151224,126.808872009706
A10020235,역곡역아테움스위첸,4119410400,경기도,부천소사구,괴안동,,경기도 부천소사구 괴안동 91-1 역곡역아테움스위첸,분양,개별난방,24123.65,2,189.0,kcc건설,청암아파트소규모재건축사업조합,0323426547,,아파트,경기도 부천시 소사구 안곡로 55,위탁관리,계단식,20260106,0323426548,189,15179.91,0.0,168.0,21.0,0.0,15179.91,22,0,2,0,,37.479122200132,126.80864510261
A10020941,거산아파트,4119410400,경기도,부천소사구,괴안동,,경기도 부천소사구 괴안동 171-8 거산아파트,분양,개별난방,2281257.0,1,260.0,주식회사 거산,주식회사 거산,0323446531,주식회사 거산,아파트,경기도 부천시 소사구 범안로7번길 26,자치관리,계단식,19921012,,260,20347.5,130.0,130.0,0.0,0.0,16762.2,1,5,0,0,,37.481208575752,126.807039628036
A10021087,부천YCITY아파트,4119410400,경기도,부천소사구,괴안동,,경기도 부천소사구 괴안동 291- 부천YCITY아파트,혼합,개별난방,36523.29,4,289.0,요진건설산업,lh,0323518702,,아파트,경기도 부천시 소사구 소사동로 220-1,위탁관리,계단식,20241114,0323518703,289,36519.34,289.0,0.0,0.0,0.0,16109.16,1,20,2,8,,37.4784339952373,126.817229237125
A10021115,덕림현대아파트,4119410400,경기도,부천소사구,괴안동,,경기도 부천소사구 괴안동 14- 덕림현대아파트,분양,개별난방,13430.41,4,190.0,확인불가,확인불가,0323418501,,아파트,경기도 부천시 소사구 범안로46번길 18,자치관리(직영),계단식,19870819,,190,9934.0,190.0,0.0,0.0,0.0,8908,1,5,1,0,,37.4771801097623,126.80694812376
A10021406,현대허니문아파트,4119410400,경기도,부천소사구,괴안동,,경기도 부천소사구 괴안동 15- 현대허니문아파트,분양,개별난방,927.86,3,149.0,관리,관리,0323419032,,아파트,경기도 부천시 소사구 안곡로30번길 29,자치관리,계단식,19880627,,2,58.0,149.0,0.0,0.0,0.0,6452.88,1,5,0,0,,37.4776655444929,126.805611799231
A10021415,성우아파트,4119410400,경기도,부천소사구,괴안동,,경기도 부천소사구 괴안동 165- 성우아파트,분양,개별난방,9662.0,4,144.0,성우건설,확인안됨,0323473770,,아파트,경기도 부천시 소사구 안곡로149번길 30,자치관리,계단식,19870406,,144,9605.7,144.0,0.0,0.0,0.0,6254.73,1,5,1,0,,37.4828967398036,126.816913999462
A10022188,일신건영 역곡휴먼빌 아파트,4119410400,경기도,부천소사구,괴안동,,경기도 부천소사구 괴안동 269- 일신건영 역곡휴먼빌 아파트,분양,개별난방,11012.0,2,108.0,일신건영,일신건영,0323433336,,아파트,경기도 부천시 소사구 경인로425번길 58,위탁관리,계단식,20221223,0323433337,108,11011.835,108.0,0.0,0.0,0.0,5043.9736,20,20,0,0,,37.4829805772798,126.806043049319
A10022192,태송팰리채아파트,4119410400,경기도,부천소사구,괴안동,,경기도 부천소사구 괴안동 162-2 태송팰리채아파트,분양,개별난방,16197.0,1,147.0,태송 이엔씨,태송 이엔씨,0323493559,nana05080@naver.com,아파트,경기도 부천시 소사구 부광로41번길 64,위탁관리,계단식,20080131,0323494559,0,0.0,64.0,83.0,0.0,0.0,10046.92,14,14,1,0,,37.4823202546886,126.817133504297
A10022199,괴안동 아주아파트,4119410400,경기도,부천소사구,괴안동,,경기도 부천소사구 괴안동 99- 괴안동 아주아파트,분양,개별난방,15494.0,4,139.0,아주건설,아주건설,0323488999,,아파트,경기도 부천시 소사구 범안로21번길 39,자치관리,계단식,19950504,0323458999,139,12667.22,68.0,71.0,0.0,0.0,10041.915,6,6,1,12,,37.4800349128113,126.809811808985
A10022201,트윈파크아파트,4119410400,경기도,부천소사구,괴안동,,경기도 부천소사구 괴안동 104- 트윈파크아파트,분양,,14670.0,1,125.0,에스엠이엔씨,재건축조합장 심영구 현대허니문 화원 효성연립 재건축조합,0323510225,,아파트,경기도 부천시 소사구 부광로36번길 37,위탁관리,계단식,20040917,,129,11324.95,14.0,111.0,0.0,0.0,8943.9844,14,14,1,0,,37.4805204906639,126.81241989225
A10024863,e편한세상 온수역아파트,4119410400,경기도,부천소사구,괴안동,,경기도 부천소사구 괴안동 203-2 e편한세상 온수역아파트,분양,개별난방,127756.0,8,921.0,삼호,동신재건축정비사업조합,0323519808,직방앱,아파트,경기도 부천시 경인로 605,위탁관리,계단식,20200422,0323519810,921,86956.13,557.0,364.0,0.0,0.0,64344.5529,29,29,2,20,14779,37.4890439840111,126.820339807311
A42209005,괴안동삼익3차아파트,4119410400,경기도,부천소사구,괴안동,,경기도 부천소사구 괴안동 204-1 괴안동삼익3차아파트,분양,개별난방,68098.0,11,682.0,삼익주택,삼익주택,0323426310,,아파트,경기도 부천시 안곡로 4,위탁관리,혼합식,19901211,0323426739,682,66031.74,176.0,396.0,110.0,0.0,53079.18,11,11,1,23,14699,37.4769287993737,126.802574232648
A42209007,소사삼익세라믹1차2차,4119410400,경기도,부천소사구,괴안동,,경기도 부천소사구 괴안동 204-6 소사삼익세라믹1차2차,분양,개별난방,72915.34,10,781.0,(주)삼익주택,(주)삼익주택,0323413641,,아파트,경기도 부천시 소안로 20,위탁관리,혼합식,19881224,0323448695,781,71356.56,209.0,550.0,22.0,0.0,56155.77,11,11,1,27,14699,37.4763059226011,126.802622336272
A42275001,소사대진,4119410400,경기도,부천소사구,괴안동,,경기도 부천소사구 괴안동 171-6 소사대진,분양,개별난방,172048000.0,6,290.0,주식회사 정해준,대진건설,0323441329,대진아파트.ma-um.co.kr,아파트,경기도 부천시 범안로 9,자치관리,계단식,19870420,0323431329,290,22165.266,145.0,145.0,0.0,0.0,17204.85,5,5,0,0,14683,37.481000655935,126.806288760548
A42275002,범박휴먼시아1단지,4119410400,경기도,부천소사구,괴안동,,경기도 부천소사구 괴안동 251-1 범박휴먼시아1단지,임대,개별난방,114284.164,17,1473.0,우림건설(주),한국토지주택공사,0323499401,,아파트,경기도 부천시 양지로 20,위탁관리,복도식,20110504,0323499402,1473,58612.77,1473.0,0.0,0.0,0.0,58612.77,15,15,1,35,14781,37.4774425360586,126.813088960314
A42280002,조공2차아파트,4119410400,경기도,부천소사구,괴안동,,경기도 부천소사구 괴안동 32 조공2차아파트,분양,개별난방,30025.0,16,320.0,대한조선공사,대한조선공사,0323418158,,아파트,경기도 부천시 안곡로 22,자치관리,계단식,19850420,0323428158,320,29091.2,0.0,320.0,0.0,0.0,23676,4,4,0,0,14697,37.4787731387712,126.804564957694
A42280203,신일해피트리,4119410400,경기도,부천소사구,괴안동,,경기도 부천소사구 괴안동 99-1 신일해피트리,분양,개별난방,38575.94,6,320.0,신일건설,우정아파트재건축조합,0323415239,홈페이지없음,아파트,경기도 부천시 경인로484번길 68-15,위탁관리,계단식,20050728,0323415240,320,29732.924,137.0,142.0,41.0,0.0,23372.31,14,14,2,13,14688,37.4800726156666,126.81034162293
A42282601,소사네오빌,4119410400,경기도,부천소사구,괴안동,,경기도 부천소사구 괴안동 129 소사네오빌,분양,개별난방,9046.0,1,208.0,나이아가라건설,나이아가라건설,0323435530,네오빌.ma-um.co.kr,주상복합,경기도 부천시 경인로 528,위탁관리,복도식,20020228,0323435531,208,7889.83,208.0,0.0,0.0,0.0,5749.25,15,15,3,2,14676,37.4848114808916,126.813807232681
A42282604,염광아파트,4119410400,경기도,부천소사구,괴안동,,경기도 부천소사구 괴안동 164-6 염광아파트,분양,개별난방,31945.0,3,382.0,염광건설,염광건설,0323411962,부천역곡염광.apti.co.kr,아파트,경기도 부천시 안곡로16번길 47,위탁관리,복도식,19890602,0323451963,382,30948.68,175.0,207.0,0.0,0.0,22735.75,12,12,0,4,14699,37.4759322092845,126.80518906084
A10021090,부천동양엔파트아파트,4119410500,경기도,부천소사구,송내동,,경기도 부천소사구 송내동 456-5 부천동양엔파트아파트,분양,개별난방,130358992.0,1,119.0,주식회사다올신탁,주식회사다올신탁,0326561009,,아파트,경기도 부천시 소사구 중동로22번길 64,위탁관리,혼합식,20100118,0326141009,119,130358992.0,0.0,119.0,0.0,0.0,10102.692,17,17,1,5,,37.4820968068878,126.767514563159
A10021847,건우아파트 2차,4119410500,경기도,부천소사구,송내동,,경기도 부천소사구 송내동 331-4 건우아파트 2차,분양,,7288.0,2,105.0,건우,건우,01035540731,,아파트,경기도 부천시 소사구 경인로9번나길 34,자치관리,계단식,19851227,,105,5490.55,105.0,0.0,0.0,0.0,5488.8,5,5,0,0,,37.4845449427068,126.758271062577
A10022278,부천 우방 유쉘아파트,4119410500,경기도,부천소사구,송내동,,경기도 부천소사구 송내동 587- 부천 우방 유쉘아파트,분양,개별난방,21290.0,3,142.0,(주)미박이엔씨,(주)미박이엔씨,0326111289,,아파트,경기도 부천시 소사구 경인로134번길 16,자치관리,계단식,20100129,,142,15829.111,0.0,142.0,0.0,0.0,12060.892,19,19,2,4,,37.483547595171,126.769300671597
A10024141,래미안어반비스타,4119410500,경기도,부천소사구,송내동,,경기도 부천소사구 송내동 427-32 래미안어반비스타,분양,개별난방,124957.11,8,831.0,삼성물산,송내1의2구역주택재개발정비사업조합,0326687701,,아파트,경기도 부천시 중동로 19,위탁관리,혼합식,20210827,0326687702,831,74954.06,474.0,354.0,3.0,0.0,54093.11,29,29,4,19,14732,37.4814751215351,126.762580565764
A10025004,성진힐스아파트,4119410500,경기도,부천소사구,송내동,,경기도 부천소사구 송내동 387-2 성진힐스아파트,분양,개별난방,11895.0,1,153.0,성진건설,성진건설,0326689591,http://sjhills.xisnd.co.kr,아파트,경기도 부천시 경인로92번길 21,위탁관리,복도식,20200205,0326689592,153,7274.64,153.0,0.0,0.0,0.0,7274.64,10,10,1,2,14727,37.4829542200933,126.766334687471
A10026894,송내역 파인푸르지오,4119410500,경기도,부천소사구,송내동,,경기도 부천소사구 송내동 315 송내역 파인푸르지오,분양,지역난방,82800.78,6,539.0,(주)대우건설,(주)엠케이개발,0326110315,snprugio.aptner.co.kr,아파트,경기도 부천시 송내대로 16,위탁관리,계단식,20161026,0326130315,539,54883.348,0.0,539.0,0.0,0.0,41133.4656,25,25,2,13,14731,37.4852720870317,126.753619511675
A10027567,byc부천위더스빌,4119410500,경기도,부천소사구,송내동,,경기도 부천소사구 송내동 577-1 byc부천위더스빌,임대,개별난방,17068.879,1,163.0,(주)비와이씨,(주)비와이씨,0326661561,,주상복합,경기도 부천시 경인로 156,위탁관리,복도식,20160104,0326661562,163,11343.758,163.0,0.0,0.0,0.0,4955.794,15,15,4,2,14725,37.4836807062868,126.772664165732
A42204002,송내복사골뜨란채,4119410500,경기도,부천소사구,송내동,,경기도 부천소사구 송내동 304-6 송내복사골뜨란채,분양,개별난방,30710.0,3,301.0,대한주택공사,대한주택공사,0326634453,www.drapt.com,아파트,경기도 부천시 경인로10번길 25-32,위탁관리,계단식,20041007,0326634454,301,30709.135,190.0,111.0,0.0,0.0,19809.35,20,20,1,8,14743,37.4813382607057,126.756385017343
A42204003,송내대우,4119410500,경기도,부천소사구,송내동,,경기도 부천소사구 송내동 457-1 송내대우,분양,개별난방,51460.758,7,408.0,대우건설,주택조합,0326622239,,아파트,경기도 부천시 경인로134번길 72,위탁관리,계단식,20011022,0326632239,408,42261.19,60.0,348.0,0.0,0.0,31607.88,15,15,0,14,14726,37.4804659402248,126.769238692298
A42204004,중동역2차푸르지오A단지B단지,4119410500,경기도,부천소사구,송내동,,경기도 부천소사구 송내동 377-7 중동역2차푸르지오A단지B단지,분양,개별난방,126414.0,11,812.0,(주)대우건설,삼정주택,0326560385,www.jdspr2.net,아파트,경기도 부천시 경인로117번길 27,위탁관리,혼합식,20080825,0326560386,812,71591.05,116.0,508.0,188.0,0.0,71591.05,20,20,2,22,14723,37.4857111674238,126.766586609461
A42204005,중동역푸르지오,4119410500,경기도,부천소사구,송내동,,경기도 부천소사구 송내동 372 중동역푸르지오,분양,지역난방,135560.89,12,1001.0,(주)대우건설,"중동푸르지오제1,2주택조합/(주)대우건설",0322372295,jprugio.co.kr,아파트,경기도 부천시 중동로 64,위탁관리,계단식,20050906,0322372296,1001,101743.164,265.0,736.0,0.0,0.0,78314.264,25,25,2,22,14722,37.4853441893951,126.765631767331
A42204006,송내자이,4119410500,경기도,부천소사구,송내동,,경기도 부천소사구 송내동 409 송내자이,분양,개별난방,74286.86,9,436.0,GS건설,지와인개발,0326569105,www.송내자이.kr,아파트,경기도 부천시 경인로26번길 22,위탁관리,계단식,20090728,0326569107,436,48528.918,104.0,172.0,160.0,0.0,40455.27,20,20,3,0,14743,37.4827521786518,126.756982036821
A42204201,송내e편한세상,4119410500,경기도,부천소사구,송내동,,경기도 부천소사구 송내동 463-106 송내e편한세상,분양,개별난방,52486.0,11,371.0,삼호건설,동원재건축조합,0326563223,https://xn--e--oq4iv63bd3dnua1wx61eeuo90d.apti.co.kr/aptHome/,아파트,경기도 부천시 성주로 100-10,위탁관리,계단식,20080717,0326563225,371,40250.47,87.0,198.0,86.0,0.0,31597.136,15,15,0,15,14745,37.4794584627768,126.767506909059
A42281401,송내성호,4119410500,경기도,부천소사구,송내동,,경기도 부천소사구 송내동 327-2 송내성호,분양,개별난방,25822.8,3,238.0,(주)성호건설,(주)성호건설,0326548706,,아파트,경기도 부천시 경인로3번길 24,위탁관리,계단식,19951118,0326548705,238,22261.82,140.0,98.0,0.0,0.0,16723.28,19,19,2,8,14731,37.484195271439,126.755516895303
A42281503,우성송내,4119410500,경기도,부천소사구,송내동,,경기도 부천소사구 송내동 340 우성송내,분양,지역난방,87128.37,10,798.0,우성건설,우성건설,0326121183,,아파트,경기도 부천시 경인로29번길 32,위탁관리,계단식,19900719,0326556664,798,85602.92,0.0,666.0,132.0,0.0,70250.88,15,15,0,31,14729,37.484520822715,126.759963625598
A42281704,뉴서울송내동,4119410500,경기도,부천소사구,송내동,,경기도 부천소사구 송내동 368 뉴서울송내동,분양,개별난방,137456.88,9,971.0,뉴서울건설,뉴서울,0326120665,http://www.snnewseoul.com/,아파트,경기도 부천시 중동로71번길 39,위탁관리,혼합식,19951031,0326120666,971,111592.766,357.0,340.0,204.0,70.0,87078.58,22,22,0,23,14721,37.4859758517037,126.762950529359
A42281902,송내청실,4119410500,경기도,부천소사구,송내동,,경기도 부천소사구 송내동 380 송내청실,분양,개별난방,14647.5,1,165.0,청우건설,청우건설,0326564838,,아파트,경기도 부천시 경인로120번길 11,자치관리,복도식,19860813,0326544838,165,14095.29,0.0,165.0,0.0,0.0,10439.82,12,12,0,2,14726,37.4834179825968,126.768769215264
A42281904,송내현대,4119410500,경기도,부천소사구,송내동,,경기도 부천소사구 송내동 450-1 송내현대,분양,개별난방,58003.152,6,717.0,현대산업개발,성호주택,0326565888,송내현대.apti.co.kr,아파트,경기도 부천시 성주로 86-4,위탁관리,혼합식,19881029,0326128149,717,55153.715,479.0,238.0,0.0,0.0,42503.02,15,15,1,17,14745,37.4787882159598,126.764329698421
A42282001,송내대한아파트,4119410500,경기도,부천소사구,송내동,,경기도 부천소사구 송내동 463-60 송내대한아파트,분양,개별난방,18347.0,1,161.0,대한주택,대한주택,0326668423,,아파트,경기도 부천시 성주로 86-24,위탁관리,계단식,19941022,0326668424,161,17686.453,58.0,60.0,31.0,12.0,13712.683,12,12,1,7,14745,37.4781561321181,126.766494340199
A42282003,부천삼익125동,4119410500,경기도,부천소사구,송내동,,경기도 부천소사구 송내동 580 부천삼익125동,분양,개별난방,39877.0,3,550.0,삼익상선,삼익상선,0326665312,삼익.ma-um.co.kr,아파트,경기도 부천시 경인로134번길 27,자치관리,복도식,19790515,0326665318,550,38313.812,286.0,264.0,0.0,0.0,30209.99,12,12,0,6,14736,37.4828541847507,126.770459443584
A42283702,송내동신,4119410500,경기도,부천소사구,송내동,,경기도 부천소사구 송내동 441-8 송내동신,분양,개별난방,39140.0,5,380.0,동신건설,동신건설,0326511404,송내동신.ma-um.co.kr,아파트,경기도 부천시 성주로 66,자치관리,복도식,19851126,0326511405,380,37851.21,130.0,250.0,0.0,0.0,26894.7,10,10,1,5,14744,37.4794535545243,126.763715510749
A10025610,부천옥길LH8단지,4119410600,경기도,부천소사구,옥길동,,경기도 부천소사구 옥길동 786 부천옥길LH8단지,임대,지역난방,15233.0,2,270.0,(주)고덕건설.(주)가야건설,LH,0323439550,,아파트,경기도 부천시 양지로 151,위탁관리,복도식,20190215,0323439551,270,15232.748,270.0,0.0,0.0,0.0,7519.28,20,20,0,5,14784,37.470978939478,126.819443982252
A10026307,부천옥길자이아파트,4119410600,경기도,부천소사구,옥길동,,경기도 부천소사구 옥길동 776-1 부천옥길자이아파트,분양,지역난방,95141.42,5,566.0,지에스건설(주),지에스건설(주),0323499662,ogxi.xisnd.co.kr/,아파트,경기도 부천시 범안로219번길 19,위탁관리,계단식,20180126,0323499663,566,65913.164,0.0,210.0,356.0,0.0,50649.0445,29,29,3,10,14789,37.4634037712589,126.813229939035
A10026570,옥길센트리뷰,4119410600,경기도,부천소사구,옥길동,,경기도 부천소사구 옥길동 771-1 옥길센트리뷰,분양,지역난방,183361.0,15,1318.0,"(주)쌍용, 대명건설",한국토지주택공사,0323519066,tpsxmflqb@gmail.com,아파트,경기도 부천시 옥길로 55,위탁관리,계단식,20171208,0323519068,1318,132904.66,253.0,1065.0,0.0,0.0,101059.84,28,28,1,37,14787,37.4661687978306,126.820738763887
A10026644,옥길 한신더휴,4119410600,경기도,부천소사구,옥길동,,경기도 부천소사구 옥길동 742-1 옥길 한신더휴,분양,지역난방,107647.75,6,616.0,한신공영,(주)카우디엔씨,0323455677,옥길한신더휴.apti.co.kr,아파트,경기도 부천시 양지로 234-10,위탁관리,계단식,20171027,0323455679,616,78180.516,0.0,0.0,616.0,0.0,60339.9,29,29,2,14,14786,37.465928180108,126.826317657511
A10026648,옥길호반베르디움아파트,4119410600,경기도,부천소사구,옥길동,,경기도 부천소사구 옥길동 780-1 옥길호반베르디움아파트,분양,지역난방,227309.0,16,1420.0,호반건설,KB부동산신탁,0323460770,,아파트,경기도 부천시 범안로 220,위탁관리,계단식,20171207,0323460771,1420,161839.47,0.0,916.0,504.0,0.0,122367.806,29,29,2,30,14790,37.4634533522194,126.810810314504
A10026650,옥길제일풍경채 제이드카운티,4119410600,경기도,부천소사구,옥길동,,경기도 부천소사구 옥길동 739-1 옥길제일풍경채 제이드카운티,분양,지역난방,84512.76,6,574.0,제일건설,카우파트너스,0323433431,,아파트,경기도 부천시 양지로 234-9,위탁관리,계단식,20171026,0323433436,574,63194.51,0.0,574.0,0.0,0.0,47892.42,29,29,1,11,14786,37.4656434982732,126.826957318277
A10026901,부천 옥길센트럴힐아파트,4119410600,경기도,부천소사구,옥길동,,경기도 부천소사구 옥길동 748-1 부천 옥길센트럴힐아파트,분양,지역난방,137832.45,12,913.0,한일건설(주),한국토지공사,0323519301,옥길센트럴힐.apti.co.kr,아파트,경기도 부천시 양지로 234-38,위탁관리,계단식,20170710,0323519303,913,137419.16,0.0,913.0,0.0,0.0,71936.38,28,28,2,24,14786,37.4633707424348,126.824481679586
A10027285,옥길 데시앙 아파트,4119410600,경기도,부천소사구,옥길동,,경기도 부천소사구 옥길동 747-1 옥길 데시앙 아파트,혼합,지역난방,109578.0,10,924.0,태영,LH,0323519535,,아파트,경기도 부천시 양지로 234-26,위탁관리,계단식,20160908,0323519537,924,77294.74,924.0,0.0,0.0,0.0,55162.8,29,29,2,26,14786,37.4647014918609,126.82524292017
A10027366,부천옥길 LH1단지,4119410600,경기도,부천소사구,옥길동,,경기도 부천소사구 옥길동 701-1 부천옥길 LH1단지,임대,지역난방,95807.0,8,1454.0,계룡건설,LH공사,0323519010,,아파트,경기도 부천시 양지로 134,위탁관리,복도식,20160928,0323519011,1454,95806.6,1454.0,0.0,0.0,0.0,46206.14,28,28,2,27,14784,37.4706913722284,126.817998485377
A10027437,옥길브리즈힐,4119410600,경기도,부천소사구,옥길동,,경기도 부천소사구 옥길동 751-1 옥길브리즈힐,분양,지역난방,198921.45,14,1304.0,양우건설,한국토지주택공사,0323429077,https://옥길브리즈힐.apti.co.kr/apthome/default.asp,아파트,경기도 부천시 옥길로 80,위탁관리,계단식,20160713,0323429077,1304,143382.78,0.0,1304.0,0.0,0.0,108319.38,29,29,2,32,14786,37.4638852425733,126.820656500753
