kaptCode,kaptName,bjdCode,as1,as2,as3,as4,kaptAddr,codeSaleNm,codeHeatNm,kaptTarea,kaptDongCnt,kaptdaCnt,kaptBcompany,kaptAcompany,kaptTel,kaptUrl,codeAptNm,doroJuso,codeMgrNm,codeHallNm,kaptUsedate,kaptFax,hoCnt,kaptMarea,kaptMparea60,kaptMparea85,kaptMparea135,kaptMparea136,privArea,kaptTopFloor,ktownFlrNo,kaptBaseFloor,kaptdEcntp,zipcode,위도,경도
A62601006,물금7단지휴먼시아,4833010200,경상남도,양산시,남부동,,경상남도 양산시 남부동 605-1 물금7단지휴먼시아,임대,지역난방,92812.1,11,1260.0,진흥기업,한국토지주택공사,0553820040,,아파트,경상남도 양산시 양주로 58,위탁관리,복도식,20080513,0553820041,1260,52819.82,1260.0,0.0,0.0,0.0,52962.68,18,18,0,0,50634,35.3302336974036,129.032217942647
A62670601,1차e-편한세상아파트,4833010200,경상남도,양산시,남부동,,경상남도 양산시 남부동 553-1 1차e-편한세상아파트,분양,지역난방,100727.78,11,663.0,고려개발,대림,0553863202,1차e-편한세상아파트.ma-um.co.kr,아파트,경상남도 양산시 양주로 33,위탁관리,계단식,20060324,0553863203,663,79701.91,0.0,371.0,292.0,0.0,60544.4,25,25,2,20,50630,35.3331493813072,129.025694863971
A62676203,동원로얄듀크,4833010200,경상남도,양산시,남부동,,경상남도 양산시 남부동 608-4 동원로얄듀크,분양,지역난방,88666.8,11,779.0,동원개발,동원개발,0553857707,,아파트,경상남도 양산시 양주로 32,위탁관리,계단식,20050223,0553857708,779,72245.4,435.0,344.0,0.0,0.0,55318.8267,15,15,1,0,50632,35.330489081051,129.026852034641
A62676305,상록경남아너스빌,4833010200,경상남도,양산시,남부동,,경상남도 양산시 남부동 608-1 상록경남아너스빌,분양,지역난방,161224.0,13,998.0,경남기업,공무원연금관리공단,0553627996,cafe.daum.net/ItoVill,아파트,경상남도 양산시 양주로 16,위탁관리,혼합식,20051021,0553627998,998,116488.28,0.0,814.0,184.0,0.0,90195.28,25,25,1,0,50631,35.3303896565907,129.02413310615
A62676402,양산신도시 벽산블루밍 아파트,4833010200,경상남도,양산시,남부동,,경상남도 양산시 남부동 565-1 양산신도시 벽산블루밍 아파트,분양,지역난방,61225.0,9,766.0,벽산건설,LH공사,0553620291,,아파트,경상남도 양산시 양주로 39,위탁관리,계단식,20030403,0553620293,766,60975.547,766.0,0.0,0.0,0.0,44501.86,20,20,0,18,50630,35.3326412169909,129.026872354638
A62676504,양산신도시쌍용아파트,4833010200,경상남도,양산시,남부동,,경상남도 양산시 남부동 601-1 양산신도시쌍용아파트,분양,지역난방,96220.24,10,836.0,쌍용건설,한국토지신탁,0553633036,,아파트,경상남도 양산시 양주로 97,위탁관리,계단식,20040730,0553633037,836,66815.93,0.0,836.0,0.0,0.0,66815.932,15,15,1,28,50633,35.333764662314,129.030190788306
A62678507,양산신도시 청어람 아파트,4833010200,경상남도,양산시,남부동,,경상남도 양산시 남부동 602-1 양산신도시 청어람 아파트,분양,지역난방,188751.62,24,1724.0,현대건설/롯데건설,현대건설/롯데건설,0553638201,,아파트,경상남도 양산시 양주로 94,위탁관리,계단식,20050115,0553638203,1724,154480.31,952.0,772.0,0.0,0.0,122402.692,21,21,1,55,50634,35.3318046597511,129.033750178417
A10022579,금호리첸시아시그니처,4833010300,경상남도,양산시,중부동,,경상남도 양산시 중부동 402 금호리첸시아시그니처,분양,개별난방,43242.94,1,237.0,금호건설,대한토지신탁,0527853320,,주상복합,경상남도 양산시 서일동1길 60,위탁관리,계단식,20240530,0557853350,237,26760.457,0.0,237.0,0.0,0.0,20060.66,44,44,4,0,50621,35.3429047771216,129.035076984111
A62605002,신도시현대아파트,4833010300,경상남도,양산시,중부동,,경상남도 양산시 중부동 697-1 신도시현대아파트,분양,지역난방,128404.06,13,1185.0,현대산업개발(주),현대산업개발(주),0553812468,,아파트,경상남도 양산시 양주로 114,위탁관리,계단식,19991222,0553812490,1185,111832.88,306.0,726.0,153.0,0.0,95856.51,24,24,0,36,50626,35.3348005371036,129.032618670282
A62675804,양산신도시대동아파트,4833010300,경상남도,양산시,중부동,,경상남도 양산시 중부동 696-1 양산신도시대동아파트,분양,지역난방,160283.0,22,1256.0,(주)대동주택,(주)대동주택,0553832501,joyapt.com/1440,아파트,경상남도 양산시 양주로 154,위탁관리,계단식,19991222,0553832503,1256,122253.68,316.0,764.0,126.0,50.0,103337.2,25,25,0,39,50625,35.3376461587188,129.034033176002
A62675901,양산신도시주공3단지,4833010300,경상남도,양산시,중부동,,경상남도 양산시 중부동 695-1 양산신도시주공3단지,임대,지역난방,78964.0,13,1008.0,건남토건  동화주택,한국토지주택공사,0553636628,pot3378@naver.com,아파트,경상남도 양산시 양주로 153,위탁관리,혼합식,20050429,0553636629,1008,77547.86,1008.0,0.0,0.0,0.0,50809.16,15,15,0,28,50627,35.3382122021759,129.031159542136
A62677203,양산신도시뜰안채아파트,4833010300,경상남도,양산시,중부동,,경상남도 양산시 중부동 694-1 양산신도시뜰안채아파트,분양,지역난방,111688.22,15,1248.0,(주)고려개발,LH한국토지주택공사,0553883661,www.hebibi.com,아파트,경상남도 양산시 양주로 113,위탁관리,혼합식,20000517,0553883662,1259,85928.99,1248.0,0.0,0.0,0.0,67396.59,15,15,0,35,50628,35.3366372541324,129.029787688641
A10025152,양산 지안스로가아파트,4833010400,경상남도,양산시,북부동,,경상남도 양산시 북부동 883 양산 지안스로가아파트,분양,개별난방,56528.0,6,612.0,지안스건설,양산우림필유지역주택조합,0553647603,,아파트,경상남도 양산시 호국학도병길 17,위탁관리,계단식,20191115,0553647604,616,56297.64,334.0,278.0,0.0,0.0,39693.9604,30,30,2,15,50617,35.3484713855367,129.041701460525
A10025326,양산유탑유블레스하늘리에아파트,4833010600,경상남도,양산시,신기동,,경상남도 양산시 신기동 653 양산유탑유블레스하늘리에아파트,분양,개별난방,73830.97,8,635.0,유탑건설,한국자산신탁,0553841230,,아파트,경상남도 양산시 명곡로 141,위탁관리,계단식,20190820,0553641239,635,55013.527,448.0,187.0,0.0,0.0,40068.771,20,20,2,16,50643,35.347631421141,129.051820027674
A62613001,신기해강아파트,4833010600,경상남도,양산시,신기동,,경상남도 양산시 신기동 169-4 신기해강아파트,분양,개별난방,27645.38,5,304.0,해강종합건설(주),해강종합건설(주),0553840873,,아파트,경상남도 양산시 고향의봄10길 71,자치관리,계단식,19891228,0553840874,304,27427.76,47.0,213.0,44.0,0.0,23020.1,15,15,0,13,50577,35.352601052835,129.047489035717
A62613003,신기주공,4833010600,경상남도,양산시,신기동,,경상남도 양산시 신기동 508-3 신기주공,분양,중앙난방,131174.27,18,2280.0,대한주택공사,대한주택공사,0553852397,,아파트,경상남도 양산시 신기서길 23,위탁관리,복도식,19930609,0553851150,2280,129152.4,2280.0,0.0,0.0,0.0,96266.4,15,15,1,28,50574,35.3544256616025,129.039199579116
A62675301,우방아이유쉘,4833010600,경상남도,양산시,신기동,,경상남도 양산시 신기동 651-1 우방아이유쉘,분양,개별난방,88049.03,8,581.0,우방건설,우방건설,0553845061,,아파트,경상남도 양산시 신기강변1길 11,위탁관리,계단식,20140701,0553845062,581,65969.375,0.0,581.0,0.0,0.0,49325.8454,22,22,0,15,50573,35.351012601003,129.034714516009
A62675402,신기한마음,4833010600,경상남도,양산시,신기동,,경상남도 양산시 신기동 511-3 신기한마음,분양,개별난방,73966.0,8,540.0,"대동주택,서안 건설","대동주택,서안건설",0553875048,,아파트,경상남도 양산시 신기서길 14,자치관리,계단식,19931029,0553881631,540,62424.0,0.0,0.0,450.0,90.0,62424,15,15,1,18,50575,35.35139568686,129.039251746731
A10021356,북정녹원 아파트,4833010700,경상남도,양산시,북정동,,경상남도 양산시 북정동 635-4 북정녹원 아파트,분양,개별난방,10528.39,1,130.0,동림 종합 건설 주식회사,주)녹원주택,0553850142,,아파트,경상남도 양산시 고향의봄로 80,자치관리,복도식,19960214,0559100026,130,10345.18,130.0,0.0,0.0,0.0,6575.5,15,15,1,2,,35.3572882907674,129.046017784593
A62611001,북정대동2차,4833010700,경상남도,양산시,북정동,,경상남도 양산시 북정동 563 북정대동2차,분양,개별난방,32414.0,4,299.0,(주)대동,(주)대동,0553853946,,아파트,경상남도 양산시 북정로 86,자치관리,계단식,19970813,0553853946,299,28543.4,0.0,299.0,0.0,0.0,24100.45,15,15,0,10,50569,35.359723276218,129.049041960593
A62611002,북정대동3차,4833010700,경상남도,양산시,북정동,,경상남도 양산시 북정동 436 북정대동3차,분양,개별난방,46186.78,7,368.0,(주)대동,(주)대동,0553812157,,아파트,경상남도 양산시 북정로 118,자치관리,계단식,19980924,0553872744,368,37318.96,0.0,264.0,104.0,0.0,31616.08,15,15,1,0,50569,35.3629290393703,129.050610628157
A62611003,북정대동1차,4833010700,경상남도,양산시,북정동,,경상남도 양산시 북정동 434 북정대동1차,분양,개별난방,28996.0,5,396.0,대동건설,대동건설,0553890161,,아파트,경상남도 양산시 북정중앙로 62,자치관리,복도식,19930726,0553890161,396,27648.72,396.0,0.0,0.0,0.0,19685.16,12,12,1,5,50569,35.3645749979249,129.049950404049
A62611004,북정동원,4833010700,경상남도,양산시,북정동,,경상남도 양산시 북정동 437 북정동원,분양,개별난방,49652.77,4,570.0,동원개발,동원개발,0553884557,,아파트,경상남도 양산시 북정로 116,자치관리,계단식,19950824,0553884574,570,43745.22,570.0,0.0,0.0,0.0,34108.8,15,15,0,20,50569,35.3611460298181,129.050282590984
A62611005,새롬성원네오파트,4833010700,경상남도,양산시,북정동,,경상남도 양산시 북정동 884-2 새롬성원네오파트,분양,개별난방,82935.7,9,648.0,새롬성원(주),한국토지신탁,0553636641,www.hebibi.com,아파트,경상남도 양산시 북정서길 16,위탁관리,계단식,20050526,0553636643,648,69272.64,0.0,604.0,44.0,0.0,55509.2988,22,22,0,16,50572,35.3594115438787,129.043334929781
A10025757,양산교동월드메르디앙아파트,4833011000,경상남도,양산시,교동,,경상남도 양산시 교동 494-1 양산교동월드메르디앙아파트,분양,개별난방,32294.0,4,288.0,성우건설(주),대한토지신탁(주),0553842920,,아파트,경상남도 양산시 교동1길 74,위탁관리,계단식,20190131,0553842921,288,24776.184,221.0,67.0,0.0,0.0,17937.047,20,20,2,10,50593,35.3483247913143,129.0217971301
A62621002,협성강변타운,4833011000,경상남도,양산시,교동,,경상남도 양산시 교동 245-2 협성강변타운,분양,개별난방,36569.62,3,390.0,(주)협성종합건업,(주)협성종함건업,0553860031,,아파트,경상남도 양산시 회현1길 3,자치관리,혼합식,19911021,0553863831,390,34879.8,0.0,390.0,0.0,0.0,27421.5,15,15,1,9,50594,35.342885233008,129.024701981235
A62621003,교동일동미라주,4833011000,경상남도,양산시,교동,,경상남도 양산시 교동 605 교동일동미라주,분양,개별난방,137870.92,9,925.0,일동건설,일동,0553653545,교동일동미라주.apti.co.kr,아파트,경상남도 양산시 회현1길 48,위탁관리,계단식,20080604,0553653547,925,79260.6,0.0,811.0,114.0,0.0,79260.6,24,24,1,0,50594,35.3455873497616,129.023338854462
A62675001,창조아파트,4833011000,경상남도,양산시,교동,,경상남도 양산시 교동 241-6 창조아파트,분양,개별난방,17350.76,1,150.0,창조건설,창조건설,0553850115,,아파트,경상남도 양산시 회현1길 6,자치관리,계단식,19910311,0553850115,150,13817.7,0.0,120.0,30.0,0.0,13817.7,15,15,1,5,50594,35.3433632448053,129.026645192326
A62622001,로얄파크빌,4833011200,경상남도,양산시,어곡동,,경상남도 양산시 어곡동 9-3 로얄파크빌,분양,개별난방,53110.64,5,445.0,(주)삼성주택,(주)삼성주택,0553653021,,아파트,경상남도 양산시 두전길 18,위탁관리,계단식,20040827,0553653022,445,41904.457,41.0,404.0,0.0,0.0,32998.785,22,22,0,12,50590,35.3813013385589,129.027341702387
A62676902,어곡성신아파트,4833011200,경상남도,양산시,어곡동,,경상남도 양산시 어곡동 645-18 어곡성신아파트,분양,개별난방,31465.86,6,474.0,성신건설,성신건설,0553868457,,아파트,경상남도 양산시 두전길 42-3,자치관리,계단식,19921006,0553868490,474,30109.084,474.0,0.0,0.0,0.0,23000.28,15,15,0,13,50590,35.3839301403788,129.028919404299
A62676903,삼성파크빌(임대),4833011200,경상남도,양산시,어곡동,,경상남도 양산시 어곡동 8-1 삼성파크빌(임대),혼합,개별난방,55445.0,5,625.0,(주)정방건설,삼성주택,0553670335,,아파트,경상남도 양산시 두전길 42,위탁관리,복도식,20011108,0553670336,625,52923.125,625.0,0.0,0.0,0.0,34800,18,18,0,8,50590,35.3816055131395,129.027859981503
A10022190,대진칸트리2차아파트,4833011400,경상남도,양산시,삼호동,,경상남도 양산시 삼호동 653-1 대진칸트리2차아파트,분양,개별난방,14034.0,2,143.0,반도홈건설,반도홈건설,0553863674,,아파트,경상남도 양산시 서창서1길 7,자치관리,혼합식,19920511,0553863674,143,13955.43,57.0,66.0,20.0,0.0,10667.3,0,15,1,4,,35.4159867601848,129.170096347302
A62672306,웅상신도시푸르지오,4833011400,경상남도,양산시,삼호동,,경상남도 양산시 삼호동 861 웅상신도시푸르지오,분양,개별난방,128933.664,15,987.0,대우건설,(주)호야건설,0553632660,,아파트,경상남도 양산시 삼호로 74,위탁관리,혼합식,20070116,0559101219,987,112340.0,0.0,987.0,0.0,0.0,82189.725,15,15,1,33,50533,35.4066710619129,129.172654031961
A62683601,대진컨트리3차,4833011400,경상남도,양산시,삼호동,,경상남도 양산시 삼호동 654-1 대진컨트리3차,분양,개별난방,16379.0,1,160.0,00,00,0553861444,,아파트,경상남도 양산시 삼호로 206,자치관리,혼합식,19930508,0553861444,160,15933.88,60.0,100.0,0.0,0.0,11746.2,20,20,0,3,50528,35.4159865789756,129.169284192809
A62683605,대동이미지타운2단지,4833011400,경상남도,양산시,삼호동,,경상남도 양산시 삼호동 171 대동이미지타운2단지,분양,개별난방,67546.0,13,908.0,(주)대동,(주)대동,0553623866,,아파트,경상남도 양산시 대운로 338,위탁관리,계단식,20040329,0553623864,908,65048.484,908.0,0.0,0.0,0.0,53893.2504,15,15,0,0,50526,35.415167463349,129.180812719193
A62683607,서창대동이미지타운1단지,4833011400,경상남도,양산시,삼호동,,경상남도 양산시 삼호동 169 서창대동이미지타운1단지,분양,개별난방,74617.37,13,996.0,(주)대동이엔씨,(주)대동주택,0553623198,joyapt.com/home/user/2207/,아파트,경상남도 양산시 대운로 354,위탁관리,계단식,20040329,0553623197,996,71353.44,996.0,0.0,0.0,0.0,59116.3848,15,15,0,34,50526,35.4165749712931,129.179202028394
A62683702,해강대성,4833011400,경상남도,양산시,삼호동,,경상남도 양산시 삼호동 714-5 해강대성,분양,개별난방,17181.24,2,186.0,(주)해강종합건설,대성개발,0553674451,,아파트,경상남도 양산시 서창로 133,자치관리,혼합식,19900804,0553674454,186,14579.4,0.0,186.0,0.0,0.0,13366.1,14,14,0,3,50529,35.4131305074043,129.168557518458
A62683703,유승한내들,4833011400,경상남도,양산시,삼호동,,경상남도 양산시 삼호동 857 유승한내들,분양,개별난방,61723.04,10,542.0,(주)유승건설,(주)유승종합건설,0553655596,,아파트,경상남도 양산시 삼호로 98,위탁관리,계단식,20080422,0553655597,542,61086.164,0.0,542.0,0.0,0.0,46029.1332,15,15,1,19,50534,35.4071880133042,129.175987144618
A62683704,서창해인그린빌아파트,4833011400,경상남도,양산시,삼호동,,경상남도 양산시 삼호동 860 서창해인그린빌아파트,분양,개별난방,86675.16,12,800.0,(주)서광,(주)해인건설,0553631188,,아파트,경상남도 양산시 삼호로 86,위탁관리,계단식,20011022,0553631189,800,79339.2,0.0,800.0,0.0,0.0,64366.96,15,15,1,27,50534,35.407091461868,129.173458227206
A10027793,명동삼한사랑채,4833011500,경상남도,양산시,명동,,경상남도 양산시 명동 1079-3 명동삼한사랑채,분양,개별난방,141284.0,13,999.0,(주)삼한종합건설,(주)삼한종합건설,0553623666,,아파트,경상남도 양산시 대운로 144,위탁관리,혼합식,20151028,0553626690,1100,101647.734,343.0,656.0,0.0,0.0,74029.911,26,26,2,23,50535,35.4006605133325,129.171470483228
A62625001,석호가람휘아파트,4833011500,경상남도,양산시,명동,,경상남도 양산시 명동 994 석호가람휘아파트,분양,개별난방,42574.0,4,324.0,(주)석호,(주)석호,0553641184,,아파트,경상남도 양산시 덕명로 320,자치관리,계단식,20051007,0553651185,324,36694.22,0.0,324.0,0.0,0.0,27479.172,15,15,1,11,50536,35.3966469714026,129.163986659321
A62625002,웅상화성파크드림,4833011500,경상남도,양산시,명동,,경상남도 양산시 명동 1080-7 웅상화성파크드림,분양,개별난방,82829.6,7,530.0,화성산업(주),화성산업(주),0553624008,www.hwasungparkdream.co.kr,아파트,경상남도 양산시 대운5길 7,위탁관리,계단식,20081128,0553624009,530,62063.58,0.0,432.0,98.0,0.0,48200.1252,20,20,1,0,50535,35.4009869499732,129.172273960267
A62625003,명동2차화성파크드림,4833011500,경상남도,양산시,명동,,경상남도 양산시 명동 1077-1 명동2차화성파크드림,분양,개별난방,24506.01,3,220.0,2023-05-09,화성산업(주),0553722921,,아파트,경상남도 양산시 신명동로 43,위탁관리,계단식,20130819,0553722922,220,17804.285,220.0,0.0,0.0,0.0,12495.6979,18,18,1,8,50532,35.4038751008077,129.169687677851
A62630001,웅상신원아침도시,4833011600,경상남도,양산시,주남동,,경상남도 양산시 주남동 55-1 웅상신원아침도시,분양,개별난방,95734.55,9,700.0,신원종합개발,신원종합개발,0553660391,,아파트,경상남도 양산시 대평들5길 16,위탁관리,계단식,20080604,0553660393,700,79245.77,0.0,658.0,42.0,0.0,60966.3192,23,23,1,17,50512,35.4158854886872,129.163197187606
A10027389,아이존빌스타아파트,4833011700,경상남도,양산시,소주동,,경상남도 양산시 소주동 150 아이존빌스타아파트,분양,개별난방,27505.682,4,244.0,(주)동부토건,(주)DS종합건설,0553889956,,아파트,경상남도 양산시 소주회야로 93,위탁관리,계단식,20160629,0553889957,244,27505.283,178.0,66.0,0.0,0.0,15272.4906,24,24,1,6,50514,35.4102976650749,129.161151950597
A62628001,원진아파트,4833011700,경상남도,양산시,소주동,,경상남도 양산시 소주동 443 원진아파트,분양,개별난방,23859.6,2,267.0,(주)해강건설,(주)원진산업,0553863466,,아파트,경상남도 양산시 소주회야로 45-153,자치관리,계단식,19920605,0553863462,267,23514.047,44.0,223.0,0.0,0.0,18761.53,12,12,1,12,50518,35.4054030160992,129.156883744568
A62628002,세신크리스탈아파트,4833011700,경상남도,양산시,소주동,,경상남도 양산시 소주동 306 세신크리스탈아파트,분양,개별난방,26780.0,3,324.0,(주)세신,(주)세신,0553850439,seshin9380@hanmail.net,아파트,경상남도 양산시 번영로 441,자치관리,계단식,19931016,0553840439,324,25887.72,157.0,167.0,0.0,0.0,21082.04,15,15,0,13,50515,35.4101538838917,129.15671561083
A62628003,새진흥4차아파트,4833011700,경상남도,양산시,소주동,,경상남도 양산시 소주동 535 새진흥4차아파트,분양,개별난방,26243.65,9,345.0,(주)새진흥주택,(주)새진흥주택,0553654767,,아파트,경상남도 양산시 모래들1길 14,자치관리,계단식,19910207,0553649831,345,25835.65,40.0,305.0,0.0,0.0,23392.95,5,5,0,0,50518,35.399833110468,129.15747632246
A62628004,서창대동,4833011700,경상남도,양산시,소주동,,경상남도 양산시 소주동 960-10 서창대동,분양,개별난방,84355.74,7,996.0,대동주택,대동주택,0553882041,,아파트,경상남도 양산시 소주로 182,위탁관리,계단식,19970910,0553882042,996,77785.92,900.0,96.0,0.0,0.0,61919.04,24,24,0,21,50516,35.4121723519374,129.146934221518
A62670501,천성리버타운,4833011700,경상남도,양산시,소주동,,경상남도 양산시 소주동 147-1 천성리버타운,분양,개별난방,224720.0,26,3000.0,장백건설,장백건설,0553626150,,아파트,경상남도 양산시 소주회야로 75,위탁관리,계단식,19980917,0553626148,3000,224720.0,3000.0,0.0,0.0,0.0,153866,20,20,0,75,50514,35.412022575181,129.159963345497
A62670502,소주휴먼시아,4833011700,경상남도,양산시,소주동,,경상남도 양산시 소주동 870-2 소주휴먼시아,임대,개별난방,72050.74,10,937.0,신동아건설,한국토지주택공사,0553725959,www.joyatp.com,아파트,경상남도 양산시 번영로 435,위탁관리,복도식,20110822,0553675959,937,71831.586,937.0,0.0,0.0,0.0,37147.79,15,15,0,19,50515,35.409425868036,129.156584927234
A10022796,양산천년가더힐아파트,4833011800,경상남도,양산시,주진동,,경상남도 양산시 주진동 710 양산천년가더힐아파트,임대,개별난방,74153.0,9,625.0,새천년종합건설(주),(주)아라마루,0553633301,,아파트,경상남도 양산시 번영로 209,위탁관리,계단식,20240131,0553633302,625,58209.41,230.0,395.0,0.0,0.0,44088.813,20,20,1,18,50521,35.3903067458242,129.146259362298
A10024730,양산양우내안애파크뷰,4833011800,경상남도,양산시,주진동,,경상남도 양산시 주진동 707 양산양우내안애파크뷰,분양,개별난방,38488.55,6,266.0,양우건설(주),대한토지신탁(주),0557850669,,아파트,경상남도 양산시 진등길 15,위탁관리,계단식,20200727,07075430203,266,29548.092,0.0,266.0,0.0,0.0,22575.975,20,20,1,7,50520,35.3940148657247,129.157316757314
A10025237,양산서희스타힐스아파트,4833011800,경상남도,양산시,주진동,,경상남도 양산시 주진동 700 양산서희스타힐스아파트,분양,개별난방,95331.01,7,687.0,서희건설(주),한국자산신탁(주),0557850886,yangsanseohee.aptner.com,아파트,경상남도 양산시 모래들길 57-27,위탁관리,계단식,20190930,0557850887,687,67591.44,0.0,687.0,0.0,0.0,50063.5325,34,34,0,14,50519,35.3970369410185,129.15520670885
A10027365,양산롯데캐슬아파트,4833011800,경상남도,양산시,주진동,,경상남도 양산시 주진동 697 양산롯데캐슬아파트,분양,개별난방,83255.0,10,623.0,롯데건설,대한토지신탁,0557812994,,아파트,경상남도 양산시 진등길 26,위탁관리,계단식,20160829,0557812995,623,61392.156,159.0,464.0,0.0,0.0,45691.2393,20,20,2,16,50519,35.3946688953796,129.156479217956
A62631001,로즈힐아파트,4833011800,경상남도,양산시,주진동,,경상남도 양산시 주진동 182-1 로즈힐아파트,분양,개별난방,68236.49,7,826.0,로즈힐,로즈힐,0553890383,,아파트,경상남도 양산시 주진1길 43,위탁관리,복도식,20160704,0559107747,826,51861.434,826.0,0.0,0.0,0.0,39107.52,19,19,1,14,50520,35.3902595810078,129.150581799223
A10020655,장원하이드파크아파트,4833011900,경상남도,양산시,평산동,,경상남도 양산시 평산동 83-2 장원하이드파크아파트,분양,개별난방,17410.781,1,136.0,장일주택,장일주택,0553662001,,주상복합,,자치관리,복도식,20151027,0553662001,136,14204.651,130.0,6.0,0.0,0.0,7337.8148,1,14,0,2,,35.3835864027598,129.151475664492
A10020704,평산동 대우 월드피아,4833011900,경상남도,양산시,평산동,,경상남도 양산시 평산동 76-2 평산동 대우 월드피아,분양,개별난방,10966.987,1,120.0,722-73-00477,722-73-00477,0553630025,,주상복합,경상남도 양산시 평산중앙로 46,위탁관리(직영+위탁),복도식,20140905,07073132593,120,9342.864,120.0,0.0,0.0,0.0,5615.9856,1,15,2,0,,35.3833157733723,129.152341808903
A10020790,양산한신더휴아파트,4833011900,경상남도,양산시,평산동,,경상남도 양산시 평산동 589-3 양산한신더휴아파트,분양,개별난방,59961.312,7,405.0,한신공영(주),(주)이안디벨로프,0553892410,https://aptstory.kr/home/index.php,아파트,경상남도 양산시 신명4길 24,위탁관리,계단식,20250226,0553892411,405,43045.473,0.0,405.0,0.0,0.0,33440.9216,30,30,2,13,,35.3851805263898,129.143278310577
A10025226,양산 KCC 스위첸 아파트,4833011900,경상남도,양산시,평산동,,경상남도 양산시 평산동 184 양산 KCC 스위첸 아파트,분양,개별난방,90977.8,4,553.0,(주)KCC건설,(주)한국토지신탁,0553628600,,아파트,경상남도 양산시 평산회야로 167,위탁관리,계단식,20191018,0553628601,553,61635.46,0.0,553.0,0.0,0.0,44640.043,38,38,3,12,50552,35.378276391552,129.15334690336
A10027097,양산평산삼한사랑채2차아파트,4833011900,경상남도,양산시,평산동,,경상남도 양산시 평산동 1202 양산평산삼한사랑채2차아파트,분양,개별난방,55479.42,6,450.0,양산평산삼한사랑채,(주)혜강종합관리,0553679023,https://aptree.kr/home/user/5030/,아파트,경상남도 양산시 평산로 101-20,위탁관리,계단식,20170124,0553679024,450,28768.29,270.0,180.0,0.0,0.0,28768.2896,20,20,2,0,50541,35.3810946235963,129.143505017068
A62632011,양산코아루,4833011900,경상남도,양산시,평산동,,경상남도 양산시 평산동 1199 양산코아루,분양,개별난방,108451.0,10,805.0,투어스건설,한국토지신탁,0553625952,,아파트,경상남도 양산시 평산북로 54,위탁관리,계단식,20080422,0553625951,805,74834.414,0.0,629.0,120.0,56.0,74834.4129,15,15,0,27,50546,35.3897833626425,129.149710163866
A62672012,삼성명가타운,4833011900,경상남도,양산시,평산동,,경상남도 양산시 평산동 41 삼성명가타운,분양,개별난방,89944.28,10,918.0,삼성중공업,메이저 이엔시,0553624423,www.smapt.co.kr,아파트,경상남도 양산시 평산중앙로 88,자치관리,계단식,20021130,0553624426,918,61764.133,600.0,318.0,0.0,0.0,61764.1326,22,22,2,22,50547,35.3860280400178,129.152746199478
A62675505,경보3차그린타워아파트,4833011900,경상남도,양산시,평산동,,경상남도 양산시 평산동 1108-95 경보3차그린타워아파트,분양,개별난방,45150.14,4,454.0,경보종합건설(주),경보종합건설(주),0553871929,,아파트,경상남도 양산시 평산회야로 33,위탁관리,혼합식,19930525,0553871928,460,44757.16,202.0,198.0,54.0,0.0,35170.96,18,18,0,10,50551,35.3698797216419,129.14191224091
A62675508,경보2차그린타워아파트,4833011900,경상남도,양산시,평산동,,경상남도 양산시 평산동 1108-88 경보2차그린타워아파트,분양,개별난방,43078.82,4,498.0,(주)경보종합건설,(주)경보종합건설,0553678276,,아파트,경상남도 양산시 평산회야로 51,위탁관리,계단식,19921113,0553678277,498,42889.473,192.0,306.0,0.0,0.0,33838.74,16,16,1,16,50551,35.3704222904559,129.143278456621
A62675509,양산평산휴먼시아,4833011900,경상남도,양산시,평산동,,경상남도 양산시 평산동 347 양산평산휴먼시아,임대,개별난방,100544.64,13,1385.0,이수건설,한국토지주택공사,0553628405,,아파트,경상남도 양산시 배움터길 11,위탁관리,혼합식,20100819,0553628455,1385,99571.97,1385.0,0.0,0.0,0.0,54968.34,15,15,1,27,50550,35.3793234490621,129.146018389029
A62675614,양산봉우아파트,4833011900,경상남도,양산시,평산동,,경상남도 양산시 평산동 568 양산봉우아파트,분양,개별난방,164062.95,9,998.0,봉우건설,봉우건설,0553624070,www.hebibi.com/,아파트,경상남도 양산시 신명로 87,위탁관리,계단식,19940117,0553624071,998,97771.09,356.0,562.0,80.0,0.0,73101.6,20,20,0,28,50544,35.3856207647202,129.14316418918
A62675713,태원아파트,4833011900,경상남도,양산시,평산동,,경상남도 양산시 평산동 564 태원아파트,분양,개별난방,99447.58,7,994.0,태원건설,태원건설,0553622231,,아파트,경상남도 양산시 신명로 73,위탁관리,계단식,19930922,0553620331,994,99439.16,388.0,526.0,80.0,0.0,73974.62,20,20,0,26,50544,35.3853787995011,129.146042163377
A62684801,새진흥6차아파트,4833011900,경상남도,양산시,평산동,,경상남도 양산시 평산동 398 새진흥6차아파트,분양,개별난방,12010.0,1,161.0,진흥건설,진흥건설,0553668576,,아파트,경상남도 양산시 평산로 95,위탁관리,계단식,19920909,0553668578,161,11993.453,90.0,71.0,0.0,0.0,9823.32,15,15,0,5,50541,35.3814184342962,129.144462161041
A62684803,새진흥8차아파트,4833011900,경상남도,양산시,평산동,,경상남도 양산시 평산동 46-1 새진흥8차아파트,분양,개별난방,38136.0,4,420.0,(주)해강건설,새진흥주택,0553852507,,아파트,경상남도 양산시 신명2길 16-33,자치관리,계단식,19930121,0553622508,420,37987.4,186.0,234.0,0.0,0.0,30678.86,15,15,0,15,50547,35.3862317292172,129.149901321979
A62684804,선우2차 아파트,4833011900,경상남도,양산시,평산동,,경상남도 양산시 평산동 117-1 선우2차 아파트,분양,개별난방,35043.28,4,420.0,선우주택,선우주택,0553641916,,아파트,경상남도 양산시 평산11길 5,위탁관리,계단식,19920731,0553641926,420,33302.76,232.0,188.0,0.0,0.0,26906.82,15,15,0,14,50549,35.3801002335148,129.149002045376
A62684806,새진흥5차아파트,4833011900,경상남도,양산시,평산동,,경상남도 양산시 평산동 391 새진흥5차아파트,분양,개별난방,38570.32,5,483.0,새진흥건설,새진흥건설,0553647556,,아파트,경상남도 양산시 평산13길 19,위탁관리,계단식,19920413,0553647595,483,38276.0,82.0,401.0,0.0,0.0,33295.22,15,15,0,16,50541,35.38140767338,129.145899977612
A62684807,새진흥7차아파트,4833011900,경상남도,양산시,평산동,,경상남도 양산시 평산동 51-5 새진흥7차아파트,분양,개별난방,45534.68,5,484.0,해강(주),새진흥주택,0553867790,,아파트,경상남도 양산시 평산중앙4길 20,위탁관리,계단식,19920820,0553864695,484,42948.76,80.0,352.0,52.0,0.0,35580,15,15,1,19,50547,35.3848052969086,129.150714249173
A62684809,선우4차아파트,4833011900,경상남도,양산시,평산동,,경상남도 양산시 평산동 163 선우4차아파트,분양,개별난방,47628.0,6,499.0,신도건설,알수없음,0553650097,,아파트,경상남도 양산시 평산회야로 149,위탁관리,계단식,19920820,0553650098,499,45694.29,20.0,479.0,0.0,0.0,36366.59,15,15,1,18,50552,35.3775155338704,129.150628639971
A62684810,덕계동일스위트1,4833011900,경상남도,양산시,평산동,,경상남도 양산시 평산동 568-20 덕계동일스위트1,분양,개별난방,49487.06,6,564.0,(주)동일,(주)동일,0553630146,,아파트,경상남도 양산시 신명로 88,위탁관리,계단식,20011022,0553630147,564,45186.496,564.0,0.0,0.0,0.0,33040.7384,15,15,0,20,50545,35.3876366706502,129.143843440659
A62684815,천성산 한일유앤아이,4833011900,경상남도,양산시,평산동,,경상남도 양산시 평산동 600 천성산 한일유앤아이,혼합,개별난방,199579.53,18,1663.0,한일건설,두경홈텍크,0553621046,,아파트,경상남도 양산시 평산로 116,위탁관리,계단식,20080630,0553621048,1663,179946.81,268.0,1395.0,0.0,0.0,134524.386,25,25,0,45,50543,35.382096816052,129.141398683072
A62684902,선우5차아파트,4833011900,경상남도,양산시,평산동,,경상남도 양산시 평산동 1108-13 선우5차아파트,분양,개별난방,24469.0,3,264.0,선우건설,선우건설,0553653835,,아파트,경상남도 양산시 평산회야로 135,위탁관리,계단식,19920826,0553653834,264,23640.15,0.0,264.0,0.0,0.0,19134.26,15,15,0,9,50552,35.3767599993359,129.149380492419
A10020468,양산5차 비스타동원 솔라스타,4833012000,경상남도,양산시,덕계동,,경상남도 양산시 덕계동 1622- 양산5차 비스타동원 솔라스타,분양,개별난방,45173.473,3,311.0,(주)동원개발,아이디에스플러스(주),0553720311,,아파트,경상남도 양산시 덕계7길 14,위탁관리,계단식,20250826,0553635001,311,29733.654,110.0,201.0,0.0,0.0,22153.9456,38,38,3,7,,35.3741674084742,129.148731574548
A10022423,트리마제 양산 2단지,4833012000,경상남도,양산시,덕계동,,경상남도 양산시 덕계동 1580-2 트리마제 양산 2단지,분양,개별난방,59982.0,6,403.0,두산에너빌리티(주),경동스마트홈,0553865888,,,경상남도 양산시 신덕계2길 49,위탁관리,혼합식,20240731,0553866888,403,41925.273,78.0,325.0,0.0,0.0,32115.5874,26,26,2,11,,35.3742826910746,129.158881851997
A10022437,트리마제양산1단지,4833012000,경상남도,양산시,덕계동,,경상남도 양산시 덕계동 1579-1 트리마제양산1단지,분양,개별난방,161132.0,11,1066.0,두산에너빌리티(주),한국자산신탁(주),0553640801,,아파트,경상남도 양산시 신덕계2길 15,위탁관리,계단식,20240731,0553640802,1066,113133.805,0.0,1016.0,50.0,0.0,84514.6494,33,33,2,35,,35.3750176503941,129.159450883984
A10024373,양산두산위브2차1단지,4833012000,경상남도,양산시,덕계동,,경상남도 양산시 덕계동 1590 양산두산위브2차1단지,분양,개별난방,91423.0,8,680.0,한국자산신탁,두산중공업,0553647010,,아파트,경상남도 양산시 신덕계8길 37,위탁관리,계단식,20210302,0553647012,680,68781.83,224.0,456.0,0.0,0.0,50386.1063,27,27,2,19,50538,35.3761752974299,129.162810712327
A10024392,양산두산위브2차2단지,4833012000,경상남도,양산시,덕계동,,경상남도 양산시 덕계동 1595 양산두산위브2차2단지,분양,개별난방,63401.832,8,442.0,두산중공업,한국자산투자신탁,0553829005,,아파트,경상남도 양산시 신덕계8길 40,위탁관리,계단식,20210302,0553829006,442,47237.508,0.0,442.0,0.0,0.0,35029.336,27,27,1,13,50538,35.3768531583369,129.160280759904
A10025160,양산두산위브1차 아파트,4833012000,경상남도,양산시,덕계동,,경상남도 양산시 덕계동 1589 양산두산위브1차 아파트,분양,개별난방,186000.0,13,1337.0,(주)두산중공업,한국자산신탁(주),0553639072,www.joyapt.com/home/user/5158/,아파트,경상남도 양산시 신덕계3길 36,위탁관리,계단식,20191128,0553639074,1337,138583.06,272.0,1065.0,0.0,0.0,103052.8415,29,29,2,5,50538,35.3741034721885,129.162125319378
A10025219,동양산우성스마트시티뷰,4833012000,경상남도,양산시,덕계동,,경상남도 양산시 덕계동 1164 동양산우성스마트시티뷰,분양,개별난방,88360.68,6,604.0,(주)우성종합건설,(주)우성종합건설,0553626104,apthome.co.kr,아파트,경상남도 양산시 덕계회야길 16,위탁관리,계단식,20191022,0553626101,608,62858.79,0.0,530.0,74.0,0.0,47769.0884,34,34,2,18,50554,35.3714567302223,129.145412756554
A62671203,양산대승하이아트아파트,4833012000,경상남도,양산시,덕계동,,경상남도 양산시 덕계동 362 양산대승하이아트아파트,분양,개별난방,77966.555,6,790.0,대창건설주식회사,대승건설(주),0553871556,,아파트,경상남도 양산시 웅상대로 866,위탁관리,계단식,19931202,0553871555,790,75819.03,326.0,368.0,96.0,0.0,58852.79,24,24,0,17,50538,35.3756658467868,129.15772012193
A62672404,동일스위트2차아파트,4833012000,경상남도,양산시,덕계동,,경상남도 양산시 덕계동 1103 동일스위트2차아파트,분양,개별난방,91530.53,7,790.0,동일건설,동일건설,0553673900,,아파트,경상남도 양산시 덕계5길 14,위탁관리,계단식,20030208,0553673902,790,73256.21,350.0,440.0,0.0,0.0,57335.987,25,25,2,17,50555,35.3734521635516,129.148748363079
A62672501,경동스마트홈,4833012000,경상남도,양산시,덕계동,,경상남도 양산시 덕계동 1577 경동스마트홈,분양,개별난방,52958.86,7,487.0,경동건설(주),(주)경동산업,0553628566,,아파트,경상남도 양산시 신덕계로 34,위탁관리,혼합식,20140116,0553628568,487,52123.133,421.0,66.0,0.0,0.0,30804.4252,20,20,1,0,50538,35.3778715660605,129.158311832844
A62677805,양산부영벽산,4833012000,경상남도,양산시,덕계동,,경상남도 양산시 덕계동 971 양산부영벽산,분양,개별난방,83558.45,6,863.0,벽산건설,부영,0553888959,덕계부영벽산.apti.co.kr,아파트,경상남도 양산시 덕계11길 12,위탁관리,계단식,19990201,0553888972,863,60098.08,419.0,444.0,0.0,0.0,60098.08,25,25,0,18,50553,35.3772108163469,129.152674934855
A62684201,경보1차,4833012000,경상남도,양산시,덕계동,,경상남도 양산시 덕계동 1220 경보1차,분양,개별난방,21399.0,2,227.0,경보종합건설,경보종합건설,0553640760,,아파트,경상남도 양산시 덕계회야길 7,자치관리,계단식,19920326,0553640760,227,20727.35,12.0,215.0,0.0,0.0,16459.1875,15,15,1,8,50554,35.3706009039697,129.144450561088
A62684202,대승하이아트2차 아파트,4833012000,경상남도,양산시,덕계동,,경상남도 양산시 덕계동 811-45 대승하이아트2차 아파트,분양,개별난방,49606.83,4,476.0,대승건설(주),대승건설(주),0553651701,,아파트,경상남도 양산시 덕계북길 9,위탁관리,계단식,19941114,0553651708,476,46479.547,234.0,212.0,30.0,0.0,35780.34,26,26,0,11,50537,35.3848853724612,129.157041751297
A10026226,양산물금엘에이치천년나무아파트,4833025321,경상남도,양산시,물금읍,물금리,경상남도 양산시 물금읍 물금리 896-1 양산물금엘에이치천년나무아파트,임대,지역난방,52905.76,5,900.0,신동아건설(주),LH,0553652607,,아파트,경상남도 양산시 청운로 42,위탁관리,복도식,20180618,0553652600,900,52513.887,900.0,0.0,0.0,0.0,24131.15,20,20,1,14,50658,35.3073827805,128.991948285805
A10026776,이지더원5차,4833025321,경상남도,양산시,물금읍,물금리,경상남도 양산시 물금읍 물금리 800-2 이지더원5차,분양,지역난방,93335.0,6,625.0,라인건설,이지이노텍,0553635040,,아파트,경상남도 양산시 물금로 57,위탁관리,계단식,20170727,0553635041,635,68658.48,0.0,625.0,0.0,0.0,47660.17,28,28,1,17,50656,35.312288054921,128.989139886406
A10027120,양우내안애5차리버파크,4833025321,경상남도,양산시,물금읍,물금리,경상남도 양산시 물금읍 물금리 800-5 양우내안애5차리버파크,분양,지역난방,95377.88,7,559.0,양우건설,(주)광문개발,0553676884,,아파트,경상남도 양산시 물금로 41,위탁관리,계단식,20161230,0553676885,559,68139.89,0.0,0.0,559.0,0.0,53244.926,26,26,1,14,50656,35.3101726118177,128.989390625365
A10027647,양산신도시LH아파트1단지,4833025321,경상남도,양산시,물금읍,물금리,경상남도 양산시 물금읍 물금리 890-11 양산신도시LH아파트1단지,임대,지역난방,92372.0,14,1105.0,한국토지주택공사,한국토지주택공사,0553836200,,아파트,경상남도 양산시 청운로 41,위탁관리,복도식,20160316,0553836202,1105,44748.24,1105.0,0.0,0.0,0.0,44748.24,15,15,1,28,50656,35.3082334081721,128.991645827119
A10027648,양산신도시LH아파트2단지,4833025321,경상남도,양산시,물금읍,물금리,경상남도 양산시 물금읍 물금리 890-3 양산신도시LH아파트2단지,임대,지역난방,37634.42,5,452.0,"(주)동우개발,(주)삼환까뮤이엔씨",LH공사(한국토지주택공사),0553644114,,아파트,경상남도 양산시 물금2길 50,위탁관리,복도식,20160316,0553644100,452,37479.367,452.0,0.0,0.0,0.0,18234.44,15,15,1,0,50656,35.3100489307893,128.992271363746
A62681201,삼전무지개,4833025321,경상남도,양산시,물금읍,물금리,경상남도 양산시 물금읍 물금리 496 삼전무지개,분양,개별난방,15244.18,2,168.0,0,0,0553837782,,아파트,경상남도 양산시 원동로 59,자치관리,계단식,19921024,0553837782,168,14995.878,24.0,144.0,0.0,0.0,11779.38,15,15,0,4,50603,35.3130991311366,128.986562161896
A10024546,양산물금한신더휴,4833025323,경상남도,양산시,물금읍,가촌리,경상남도 양산시 물금읍 가촌리 1100 양산물금한신더휴,분양,개별난방,105148.0,14,1042.0,한신공영,(주)씨앤에스공영,0553639631,ysthehue.com,아파트,경상남도 양산시 가촌서로 11,위탁관리,계단식,20201126,0553639633,1042,104683.945,229.0,813.0,0.0,0.0,80790.0219,24,24,3,26,50603,35.318937221045,128.98803372938
A10025298,양산코오롱하늘채아파트,4833025323,경상남도,양산시,물금읍,가촌리,경상남도 양산시 물금읍 가촌리 1323 양산코오롱하늘채아파트,분양,개별난방,106034.0,13,852.0,코오롱글로벌(주),양산물금 지역주택조합,0553666460,,아파트,경상남도 양산시 가촌서로 45,위탁관리,계단식,20200103,0553666462,852,74104.81,546.0,306.0,0.0,0.0,55961.8458,25,25,2,22,50603,35.3213093892386,128.990942667824
A10026361,양산 삼정그린코아더시티,4833025323,경상남도,양산시,물금읍,가촌리,경상남도 양산시 물금읍 가촌리 1290-3 양산 삼정그린코아더시티,분양,지역난방,32876.0,1,286.0,삼정,더원아이디(주),0553650230,,주상복합,경상남도 양산시 메기로 199,위탁관리,복도식,20180327,0553650229,286,10250.401,286.0,0.0,0.0,0.0,6550.2547,13,13,5,0,50653,35.3111758918443,129.010316528906
A10026410,대방노블랜드 8차 로얄카운티,4833025323,경상남도,양산시,물금읍,가촌리,경상남도 양산시 물금읍 가촌리 1304-1 대방노블랜드 8차 로얄카운티,분양,지역난방,168509.53,9,1062.0,(주)대방건설,(주)디비건설,0553721062,,아파트,경상남도 양산시 야리로 50,위탁관리,계단식,20180313,0553721063,1062,122822.914,0.0,842.0,220.0,0.0,94268.5222,33,33,1,19,50653,35.3145375770083,129.000940676619
A10026437,양산 한양수자인 더퍼스트,4833025323,경상남도,양산시,물금읍,가촌리,경상남도 양산시 물금읍 가촌리 1276-1 양산 한양수자인 더퍼스트,분양,지역난방,70136.64,7,644.0,(주)한양,"LH, (주)한양",0553679238,,아파트,경상남도 양산시 물금로 76,위탁관리,계단식,20180213,0553679239,644,69530.17,0.0,644.0,0.0,0.0,52586.77,29,29,1,15,50655,35.3118003483284,128.992051240033
A10026883,양산 대방노블랜드 7차 메가시티,4833025323,경상남도,양산시,물금읍,가촌리,경상남도 양산시 물금읍 가촌리 1273-1 양산 대방노블랜드 7차 메가시티,분양,지역난방,304775.0,18,2130.0,대방건설,대방건설,0553679751,,아파트,경상남도 양산시 새실로 11,위탁관리,기타,20170711,0553679753,2130,214225.97,1181.0,610.0,339.0,0.0,162223.6078,32,32,1,37,50654,35.3164233308135,128.994299135389
A10026931,이지더원2차 그랜드파크,4833025323,경상남도,양산시,물금읍,가촌리,경상남도 양산시 물금읍 가촌리 1274-1 이지더원2차 그랜드파크,분양,지역난방,196477.9,16,1768.0,라인건설,세종개발,0553621381,,아파트,경상남도 양산시 물금로 75,위탁관리,계단식,20170426,0553621385,1768,183049.08,0.0,1768.0,0.0,0.0,138797.6174,28,28,1,37,50655,35.3129919363295,128.989649773835
A10026935,양산4차동원로얄듀크비스타,4833025323,경상남도,양산시,물금읍,가촌리,경상남도 양산시 물금읍 가촌리 1285 양산4차동원로얄듀크비스타,분양,지역난방,81963.16,6,521.0,(주)동원개발,(주)동원개발,0553679056,,아파트,경상남도 양산시 백호로 155,위탁관리,혼합식,20170615,0553679058,521,58113.97,0.0,521.0,0.0,0.0,44274.5456,30,30,1,11,50652,35.3131122853151,129.008744588694
A10027036,우성스마트시티뷰아파트,4833025323,경상남도,양산시,물금읍,가촌리,경상남도 양산시 물금읍 가촌리 1284 우성스마트시티뷰아파트,분양,지역난방,35135.02,3,302.0,(주)우성종합건설,(주) 우성종합건설,0553660715,없음,아파트,경상남도 양산시 백호로 156,위탁관리,계단식,20170502,0553660705,302,34224.496,0.0,302.0,0.0,0.0,25461.3784,30,30,1,6,50653,35.3118315780515,129.008109454437
A10027170,이지더원1차에듀파크,4833025323,경상남도,양산시,물금읍,가촌리,경상남도 양산시 물금읍 가촌리 1272-10 이지더원1차에듀파크,분양,지역난방,50714.992,5,415.0,(주)라인산업,(주)세종개발산업,0553676920,,아파트,경상남도 양산시 새실로 53,위탁관리,계단식,20161122,0553676721,415,34737.41,415.0,0.0,0.0,0.0,24895.0474,25,25,1,11,50654,35.3132487237301,128.996871427148
A10027250,양우내안애3차센트럴아파트,4833025323,경상남도,양산시,물금읍,가촌리,경상남도 양산시 물금읍 가촌리 1282 양우내안애3차센트럴아파트,분양,지역난방,56498.637,6,311.0,광문개발,양우건설,0553679761,,아파트,경상남도 양산시 야리로 89,위탁관리,계단식,20161124,0553679762,311,40160.49,0.0,0.0,311.0,0.0,31222.6273,29,29,0,6,50653,35.3126987480322,129.006747953253
A10027265,대방노블랜드연리지2차3차아파트,4833025323,경상남도,양산시,물금읍,가촌리,경상남도 양산시 물금읍 가촌리 1302-1 대방노블랜드연리지2차3차아파트,분양,지역난방,179501.44,14,1310.0,대방건설,대방건설,0553671301,,아파트,경상남도 양산시 야리로 90,위탁관리,계단식,20150818,0553671302,1310,132414.58,515.0,795.0,0.0,0.0,98459.864,31,31,1,29,50653,35.3127203491816,129.005457233824
A10027272,양산물금대방노블랜드6차더클래스,4833025323,경상남도,양산시,물금읍,가촌리,경상남도 양산시 물금읍 가촌리 1278-2 양산물금대방노블랜드6차더클래스,분양,지역난방,123291.03,6,703.0,주)대방건설,주)대방주택 주)대방하우징,0553679207,,아파트,경상남도 양산시 새실로 116,위탁관리,기타,20160907,0553679208,703,87787.41,0.0,384.0,319.0,0.0,69962.7895,34,34,1,13,50658,35.3118347489622,129.002099910308
A10027392,양산힐데스하임아파트,4833025323,경상남도,양산시,물금읍,가촌리,경상남도 양산시 물금읍 가촌리 1281 양산힐데스하임아파트,분양,지역난방,52961.715,7,377.0,원건설,원건설,0553649600,,아파트,경상남도 양산시 야리로 75,위탁관리,계단식,20160818,0553649750,377,36020.016,0.0,377.0,0.0,0.0,27756.3126,20,20,2,11,50653,35.3148127892411,129.00560598682
A10027443,양우내안애2차 아파트,4833025323,경상남도,양산시,물금읍,가촌리,경상남도 양산시 물금읍 가촌리 1271-1 양우내안애2차 아파트,분양,지역난방,113706.13,10,768.0,양우건설(주),호양건설(주),0553793390,ywnaeanae2.com,아파트,경상남도 양산시 물금로 160,위탁관리,계단식,20160715,0553793389,768,85257.195,0.0,768.0,0.0,0.0,65090.079,26,26,2,0,50613,35.3171743820709,128.998427617291
A10027515,양산대방노블랜드5차에듀카운티,4833025323,경상남도,양산시,물금읍,가촌리,경상남도 양산시 물금읍 가촌리 1277-2 양산대방노블랜드5차에듀카운티,분양,지역난방,134807.19,10,1158.0,(주)대방건설,(주)대방건설,0553678961,,아파트,경상남도 양산시 새실로 115,위탁관리,계단식,20160411,0553678933,1172,95938.305,1158.0,0.0,0.0,0.0,69443.4886,34,34,1,18,50658,35.3138329326279,128.999951644553
A10027564,양산신도시엘에이치아파트 5단지,4833025323,경상남도,양산시,물금읍,가촌리,경상남도 양산시 물금읍 가촌리 1276-3 양산신도시엘에이치아파트 5단지,혼합,지역난방,123369.37,10,1047.0,코오롱글로벌(주),한국토지주택공사,0553890500,,아파트,경상남도 양산시 새실로 54,위탁관리,혼합식,20160513,0553820550,1047,123369.086,472.0,575.0,0.0,0.0,67410.64,21,21,1,0,50655,35.312567350743,128.995278563824
A10027723,양산물금 사랑으로 부영2단지 아파트,4833025323,경상남도,양산시,물금읍,가촌리,경상남도 양산시 물금읍 가촌리 1272-4 양산물금 사랑으로 부영2단지 아파트,혼합,지역난방,95784.26,7,657.0,(주)부영주택,(주)부영주택,0553839701,,아파트,경상남도 양산시 청운로 131,위탁관리,계단식,20151230,0553839702,657,70980.89,0.0,657.0,0.0,0.0,53497.1641,25,25,1,14,50654,35.3133283164568,128.997562828579
A10027724,양산 물금 부영 1단지 아파트,4833025323,경상남도,양산시,물금읍,가촌리,경상남도 양산시 물금읍 가촌리 1272-1 양산 물금 부영 1단지 아파트,혼합,지역난방,81256.77,8,712.0,(주)부영주택,(주)부영주택,0553678763,,아파트,경상남도 양산시 물금로 134,위탁관리,계단식,20151230,0553678764,712,77059.55,0.0,712.0,0.0,0.0,58145.972,25,25,1,0,50654,35.315059628605,128.995777925472
A62681103,양산가촌휴먼시아,4833025323,경상남도,양산시,물금읍,가촌리,경상남도 양산시 물금읍 가촌리 800 양산가촌휴먼시아,임대,개별난방,58068.676,8,700.0,한신공영(주),한국토지주택공사,0553660989,,아파트,경상남도 양산시 가촌로 155,위탁관리,복도식,20120316,0553870989,700,30698.82,700.0,0.0,0.0,0.0,30783.84,15,15,2,17,50602,35.324812486731,128.995458982359
A62681106,양산 물금 동일스위트,4833025323,경상남도,양산시,물금읍,가촌리,경상남도 양산시 물금읍 가촌리 720 양산 물금 동일스위트,분양,개별난방,172624.0,12,1292.0,(주)동일,(주)이스트건설,0553678622,www.ysdongilsuite.co.kr,아파트,경상남도 양산시 가촌서로 93,위탁관리,계단식,20131203,0553678625,1292,129562.34,424.0,868.0,0.0,0.0,97889.614,20,20,2,36,50602,35.3230373652609,128.992287131168
A62681109,양우내안애1차,4833025323,경상남도,양산시,물금읍,가촌리,경상남도 양산시 물금읍 가촌리 1271-3 양우내안애1차,분양,지역난방,96428.0,9,796.0,양우건설(주),호양건설(주),0553673142,,아파트,경상남도 양산시 야리로 30,위탁관리,계단식,20140327,0553673144,796,65376.02,796.0,0.0,0.0,0.0,47737.0036,26,26,2,22,50613,35.3171332884212,129.000759127275
A10023122,경동메르빌아파트,4833025324,경상남도,양산시,물금읍,범어리,경상남도 양산시 물금읍 범어리 476 경동메르빌아파트,분양,개별난방,20319.29,3,148.0,(주)경동건설,(주)동남주택,0553677461,,아파트,경상남도 양산시 동중7길 24,자치관리,계단식,20131007,0553677462,148,14841.364,0.0,148.0,0.0,0.0,10864.9624,20,20,1,5,50597,35.3323171898346,129.005882995211
A10023701,양산브라운스톤아파트,4833025324,경상남도,양산시,물금읍,범어리,경상남도 양산시 물금읍 범어리 409 양산브라운스톤아파트,분양,개별난방,115498.89,6,842.0,이수건설,범어주공1차 재건축정비사업조합,0553847534,,아파트,경상남도 양산시 황산로 699,위탁관리,계단식,20230127,0553817534,842,80032.125,294.0,548.0,0.0,0.0,61550.7425,29,29,3,18,50596,35.3327980917646,129.007616648943
A10025861,양산유림노르웨이숲아파트,4833025324,경상남도,양산시,물금읍,범어리,경상남도 양산시 물금읍 범어리 2710-1 양산유림노르웨이숲아파트,분양,지역난방,80637.0,3,499.0,(주)유림E&C,(주)유림E&C,0553636211,,아파트,경상남도 양산시 범구로 14,위탁관리,계단식,20181212,0553636212,499,59486.02,0.0,493.0,6.0,0.0,42474.6549,41,41,2,0,50611,35.3268002893287,129.011151832235
A10027035,양산신도시3차 동원로얄듀크비스타,4833025324,경상남도,양산시,물금읍,범어리,경상남도 양산시 물금읍 범어리 2710-4 양산신도시3차 동원로얄듀크비스타,분양,지역난방,89191.38,4,568.0,(주)동원개발,(주)동원개발,0553630910,,아파트,경상남도 양산시 범구로 28,위탁관리,계단식,20170424,0553630985,568,62770.477,0.0,568.0,0.0,0.0,48277.9126,37,37,1,5,50611,35.3255826503302,129.012943887458
A10028198,양산반도유보라4차,4833025324,경상남도,양산시,물금읍,범어리,경상남도 양산시 물금읍 범어리 2768-2 양산반도유보라4차,분양,지역난방,203144.0,16,1210.0,반도건설,반도건설,0553829797,,아파트,경상남도 양산시 백호로 91,위탁관리,계단식,20141028,0553639790,1210,141107.5,0.0,702.0,508.0,0.0,107486.132,29,29,2,22,50652,35.3170533947517,129.003906469967
A62677310,황전범어아파트,4833025324,경상남도,양산시,물금읍,범어리,경상남도 양산시 물금읍 범어리 549-1 황전범어아파트,분양,개별난방,62633.0,5,496.0,황전토건,황전토건,0553870271,,아파트,경상남도 양산시 오봉로 15,자치관리,계단식,19940603,0553624344,496,57091.88,0.0,0.0,496.0,0.0,47185.08,15,15,0,17,50601,35.3262315034817,128.998280451205
A62677518,양산범어대동타운,4833025324,경상남도,양산시,물금읍,범어리,경상남도 양산시 물금읍 범어리 502-1 양산범어대동타운,분양,개별난방,85520.9,9,1122.0,(주)대동주택,(주)대동주택,0553884866,,아파트,경상남도 양산시 오봉로 165,위탁관리,혼합식,19950926,0553884887,1122,78138.0,1122.0,0.0,0.0,0.0,59021.61,15,15,1,25,50595,35.3360959159629,129.005474158714
A62677607,범어주공3차,4833025324,경상남도,양산시,물금읍,범어리,경상남도 양산시 물금읍 범어리 789 범어주공3차,분양,개별난방,25220.0,11,410.0,LH공사,LH,0553842229,,아파트,경상남도 양산시 동중1길 7,자치관리,계단식,19900527,0553890774,410,24928.86,410.0,0.0,0.0,0.0,22416.7,5,5,0,0,50598,35.3286699530469,129.002389630153
A62677608,범어주공2차,4833025324,경상남도,양산시,물금읍,범어리,경상남도 양산시 물금읍 범어리 823 범어주공2차,분양,개별난방,20491.36,9,420.0,주택공사,주택공사,0553848768,,아파트,경상남도 양산시 동중1길 21,자치관리,계단식,19900320,0553863918,420,20224.8,420.0,0.0,0.0,0.0,17767.8,5,5,0,0,50598,35.3299522908711,129.001410366869
A62677716,범어현대아파트,4833025324,경상남도,양산시,물금읍,범어리,경상남도 양산시 물금읍 범어리 682-1 범어현대아파트,분양,개별난방,83366.48,8,956.0,(주) 동남주택,(주) 동남주택,0553850489,,아파트,경상남도 양산시 오봉로 180,위탁관리,혼합식,19960320,0553832900,956,83366.48,0.0,956.0,0.0,0.0,70015.6,15,15,0,25,50596,35.3333908641773,129.00680302955
A62681102,신창비바패밀리,4833025324,경상남도,양산시,물금읍,범어리,경상남도 양산시 물금읍 범어리 2713-1 신창비바패밀리,분양,지역난방,199029.0,14,1248.0,신창건설,세계건설,0553831248,,아파트,경상남도 양산시 신주로 69,위탁관리,계단식,20091030,0553831250,1248,147434.94,286.0,628.0,334.0,0.0,110055.746,25,25,1,27,50606,35.3322222569656,129.017616215995
A62681104,양산물금우미린,4833025324,경상남도,양산시,물금읍,범어리,경상남도 양산시 물금읍 범어리 2712-12 양산물금우미린,분양,지역난방,82265.08,8,720.0,새빛종합건설,우미건설,0553678256,,아파트,경상남도 양산시 범어로 77,위탁관리,계단식,20130611,0553678258,720,58648.8,720.0,0.0,0.0,0.0,43183.8336,28,28,0,15,50607,35.3286686625309,129.015591553854
A62681105,반도유보라2차,4833025324,경상남도,양산시,물금읍,범어리,경상남도 양산시 물금읍 범어리 2712-14 반도유보라2차,분양,지역난방,88059.77,7,631.0,반도건설,반도건설,0553630053,cafe.naver.com/yangsanbando,아파트,경상남도 양산시 범어로 57,위탁관리,계단식,20131023,0553630054,631,60940.84,0.0,631.0,0.0,0.0,45499.397,27,27,2,0,50607,35.3295885855923,129.014076231824
A62681107,반도유보라3차,4833025324,경상남도,양산시,물금읍,범어리,경상남도 양산시 물금읍 범어리 2785-4 반도유보라3차,분양,지역난방,82191.97,13,648.0,(주)반도건설,(주)반도건설,0553677525,,아파트,경상남도 양산시 서들로 179,위탁관리,계단식,20131203,0553677526,648,53979.22,648.0,0.0,0.0,0.0,38849.4649,25,25,2,20,50652,35.314377816676,129.007336959777
A62681108,양산물금1차대방노블랜드,4833025324,경상남도,양산시,물금읍,범어리,경상남도 양산시 물금읍 범어리 2673-4 양산물금1차대방노블랜드,분양,지역난방,207424.45,18,1414.0,대방건설,대방산업개발,0553677251,,아파트,경상남도 양산시 신주1길 46,위탁관리,계단식,20140425,0553677253,1414,156094.28,374.0,718.0,322.0,0.0,118629.083,25,25,1,33,50604,35.3368977219737,129.018579482379
A62681302,범어경민,4833025324,경상남도,양산시,물금읍,범어리,경상남도 양산시 물금읍 범어리 682-3 범어경민,분양,개별난방,20423.06,3,210.0,(주)경민건설,(주)경민건설,0553866066,,아파트,경상남도 양산시 황산로 707,자치관리,계단식,19941031,0553866067,210,19255.65,0.0,210.0,0.0,0.0,15895.2,15,15,1,7,50596,35.3331670031792,129.009195683571
A62681303,넥센아파트,4833025324,경상남도,양산시,물금읍,범어리,경상남도 양산시 물금읍 범어리 682-2 넥센아파트,사택 및 관사 등,개별난방,18501.86,2,240.0,우성,넥센타이어(주),0553875355,,아파트,경상남도 양산시 오봉로 192,위탁관리,복도식,19961214,0553835355,240,17740.68,240.0,0.0,0.0,0.0,12746.4,15,15,1,4,50596,35.3337342529376,129.007657184095
A62681304,범어그린피아,4833025324,경상남도,양산시,물금읍,범어리,경상남도 양산시 물금읍 범어리 502-3 범어그린피아,분양,개별난방,17820.0,5,300.0,창조건설,양산시,0553865730,,아파트,경상남도 양산시 오봉로 185,자치관리,계단식,19900829,0553845730,300,17352.36,300.0,0.0,0.0,0.0,14946,6,6,0,0,50595,35.334335334622,129.008637811161
A62681305,범어성원,4833025324,경상남도,양산시,물금읍,범어리,경상남도 양산시 물금읍 범어리 502-4 범어성원,분양,개별난방,21663.078,2,314.0,성원,성원건설,0553878297,,아파트,경상남도 양산시 오봉로 179,자치관리,복도식,19960513,0553871239,314,21196.256,314.0,0.0,0.0,0.0,15665.46,15,15,0,4,50595,35.3346653585115,129.007497559481
A62681406,양산신도시현진에버빌,4833025324,경상남도,양산시,물금읍,범어리,경상남도 양산시 물금읍 범어리 2712-1 양산신도시현진에버빌,분양,지역난방,76715.55,6,358.0,(주)현진,(주)현진개발,0553850951,,아파트,경상남도 양산시 신주로 64,위탁관리,계단식,20080827,0553850950,358,55060.18,0.0,0.0,289.0,69.0,43791.355,28,28,1,12,50607,35.3306434366177,129.015921226535
A62681409,범어덕산타운,4833025324,경상남도,양산시,물금읍,범어리,경상남도 양산시 물금읍 범어리 549 범어덕산타운,분양,개별난방,58910.53,6,483.0,(주)덕산종합건설,(주)덕산종합건설,0553850575,,아파트,경상남도 양산시 오봉로 29,자치관리,계단식,19930802,0553877534,483,53733.18,0.0,0.0,468.0,15.0,44914.56,15,15,1,17,50601,35.3271701708513,128.996970289029
A62681411,일신건영휴먼빌,4833025324,경상남도,양산시,물금읍,범어리,경상남도 양산시 물금읍 범어리 2676-15 일신건영휴먼빌,분양,지역난방,62417.57,8,551.0,일신건영(주),일신건영(주),0553625310,,아파트,경상남도 양산시 범어로 11,위탁관리,계단식,20071130,0553625311,551,62417.57,120.0,336.0,95.0,0.0,46927.8943,28,28,1,15,50609,35.3326159402141,129.010680898124
A62681412,반도유보라,4833025324,경상남도,양산시,물금읍,범어리,경상남도 양산시 물금읍 범어리 2676-1 반도유보라,분양,지역난방,88841.0,8,622.0,반도건설,반도주택,0553653801,bandoyou1.aptner.com/,아파트,경상남도 양산시 신주로 16,위탁관리,계단식,20070919,0553653802,622,69205.17,206.0,324.0,92.0,0.0,50912.7482,29,29,1,14,50608,35.3337285088913,129.012699453717
A62681414,양산우남퍼스트빌,4833025324,경상남도,양산시,물금읍,범어리,경상남도 양산시 물금읍 범어리 2676-6 양산우남퍼스트빌,분양,중앙난방,102089.44,9,640.0,(주)우남건설,(주)우남건설,0553656108,cafe.daum.net/yangsanfirstvill,아파트,경상남도 양산시 신주로 40,위탁관리,계단식,20070921,0553656109,640,76832.76,204.0,236.0,194.0,6.0,57576.5378,28,28,1,18,50608,35.332310899302,129.015841463061
A62681415,효성백년가약,4833025324,경상남도,양산시,물금읍,범어리,경상남도 양산시 물금읍 범어리 2676-13 효성백년가약,분양,지역난방,116241.45,13,832.0,(주)효성,(주)효성,0553663725,,아파트,경상남도 양산시 범어로 33,위탁관리,계단식,20071115,0553663726,832,71313.21,252.0,312.0,268.0,0.0,71400.936,25,25,1,24,50609,35.3306613740366,129.013845426657
A62681417,양산2차 e-편한세상,4833025324,경상남도,양산시,물금읍,범어리,경상남도 양산시 물금읍 범어리 2673-8 양산2차 e-편한세상,분양,지역난방,152503.72,15,1032.0,고려개발,고려개발,0553870811,cafe.naver.com/ys2e,아파트,경상남도 양산시 신주로 35,위탁관리,계단식,20071106,0553870808,1032,119048.88,230.0,515.0,287.0,0.0,89309.79,25,25,2,27,50605,35.3344619462404,129.015889618862
A10023445,양산사송더샵데시앙2차5단지아파트,4833031000,경상남도,양산시,동면,,경상남도 양산시 동면   양산사송더샵데시앙2차5단지아파트,분양,지역난방,76928.0,5,477.0,주식회사 태영건설 외1,주식회사 태영건설 외1,0553881470,,아파트,경상남도 양산시 외송로 60,위탁관리,계단식,20221228,0553881478,477,51139.832,0.0,477.0,0.0,0.0,39107.3183,25,25,2,13,50659,35.3158636263845,129.07348409657
A10020730,양산사송LH8단지아파트,4833031024,경상남도,양산시,동면,사송리,경상남도 양산시 동면 사송리 1039-26 양산사송LH8단지아파트,임대,지역난방,62518.44,4,808.0,대우산업개발주식회사,한국토지주택공사,0553657922,,아파트,경상남도 양산시 사송로 183,위탁관리,복도식,20250218,0553657923,809,62146.07,808.0,0.0,0.0,0.0,26936.56,19,19,3,18,,35.312832238059,129.063111969675
A10022488,사송역 우미린 포레스트,4833031024,경상남도,양산시,동면,사송리,경상남도 양산시 동면 사송리 1242- 사송역 우미린 포레스트,분양,지역난방,135488.0,15,688.0,(주)우미개발 외 1,(주)심우종합건설,0553813330,,아파트,경상남도 양산시 사송로 55,위탁관리,계단식,20240718,0553813331,688,87864.89,0.0,280.0,408.0,0.0,68224.192,15,15,3,0,,35.306203984611,129.073503087247
A10022562,사송롯데캐슬,4833031024,경상남도,양산시,동면,사송리,경상남도 양산시 동면 사송리 1218 사송롯데캐슬,임대,지역난방,136676.0,11,903.0,롯데건설,(주)엘티대한제8호위탁관리부동산투자회사,0553657511,,아파트,경상남도 양산시 사송로 155,위탁관리,계단식,20240520,0553657512,903,92917.86,0.0,903.0,0.0,0.0,71478.7361,19,19,7,32,50637,35.3107127613279,129.067241436165
A10022668,양산 사송LH4단지,4833031024,경상남도,양산시,동면,사송리,경상남도 양산시 동면 사송리 1217 양산 사송LH4단지,임대,지역난방,105831.41,15,1156.0,대보건설(주),한국토지주택공사,0553821060,,아파트,경상남도 양산시 사송로 169,위탁관리,복도식,20240313,0553871060,1168,105058.18,1156.0,0.0,0.0,0.0,44447.21,20,20,3,30,50637,35.3123939254139,129.065143499624
A10022754,더샵데시앙3차9단지아파트,4833031024,경상남도,양산시,동면,사송리,경상남도 양산시 동면 사송리 1233 더샵데시앙3차9단지아파트,분양,지역난방,92603.0,9,533.0,"주식회사 태영건설,포스코이앤씨",주식회사 태영건설,0553829990,,아파트,경상남도 양산시 사송로 133,위탁관리,계단식,20240220,0553819994,533,58913.805,0.0,533.0,0.0,0.0,45296.0673,18,18,4,25,50637,35.3094948796549,129.067830910588
A10022842,사송 에비뉴원,4833031024,경상남도,양산시,동면,사송리,경상남도 양산시 동면 사송리  사송 에비뉴원,혼합,지역난방,61834552.0,7,479.0,(주)에이스건설,한국토지주택공사,0553666632,,아파트,경상남도 양산시 외송로 49,위탁관리,계단식,20231211,0553666634,479,61670.227,479.0,0.0,0.0,0.0,26790.06,25,25,2,13,50659,35.3145387361157,129.072829426239
A10023241,사송더샵데시앙2차 7단지아파트,4833031024,경상남도,양산시,동면,사송리,경상남도 양산시 동면 사송리 1166 사송더샵데시앙2차 7단지아파트,분양,지역난방,164829.0,11,993.0,(주)포스코이엔씨,"(주)태영건설, (주)포스코이엔씨",0553721473,,,경상남도 양산시 외송로 30,위탁관리,계단식,20230426,0553721474,993,110118.2,0.0,993.0,0.0,0.0,84349.3101,25,25,8,29,50659,35.3136291709416,129.074812181169
A10023393,사송더샵데시앙2차6단지,4833031024,경상남도,양산시,동면,사송리,경상남도 양산시 동면 사송리  사송더샵데시앙2차6단지,분양,지역난방,101307.6,6,614.0,(주)포스코건설,(주)포스코건설/(주)태영건설,0553890063,,아파트,경상남도 양산시 외송로 50,위탁관리,계단식,20230130,0553890064,614,67623.375,0.0,614.0,0.0,0.0,51667.3471,25,25,6,18,50659,35.3149797123191,129.07395604621
A10023456,양산사송LH5단지아파트,4833031024,경상남도,양산시,동면,사송리,경상남도 양산시 동면 사송리  양산사송LH5단지아파트,임대,지역난방,64789.43,5,985.0,대보건설,한국토지주택공사,0553726481,,아파트,,위탁관리,복도식,20221219,0553726482,985,64525.324,985.0,0.0,0.0,0.0,32821.06,20,20,2,18,50659,,
A10023566,사송트루엘 아파트,4833031024,경상남도,양산시,동면,사송리,경상남도 양산시 동면 사송리  사송트루엘 아파트,혼합,지역난방,94049.695,18,1188.0,일성건설,LH,0553813907,,아파트,경상남도 양산시 내송큰들로 84,위탁관리,계단식,20221021,0553833907,1188,94049.695,1188.0,0.0,0.0,0.0,67829.54,20,20,2,32,50644,35.3223062184155,129.072465330012
A10022676,사송제일풍경채 퍼스트파크,4833031025,경상남도,양산시,동면,내송리,경상남도 양산시 동면 내송리 901 사송제일풍경채 퍼스트파크,분양,지역난방,725997950.0,9,452.0,제일건설,(주)웰메이드플레이스,0553657757,,아파트,경상남도 양산시 내송큰들로 140,위탁관리,계단식,20240327,0553657758,452,49771.562,0.0,452.0,0.0,0.0,38399.72,18,18,2,15,50644,35.3222659920106,129.065576898624
A10023585,양산사송LH1단지,4833031025,경상남도,양산시,동면,내송리,경상남도 양산시 동면 내송리  양산사송LH1단지,임대,지역난방,12184.72,2,200.0,일성건설(주),한국토지주택공사,0553877333,,아파트,경상남도 양산시 내송큰들로 94,위탁관리,복도식,20220722,0553874333,203,12102.316,200.0,0.0,0.0,0.0,5549.18,17,17,2,5,50644,35.3223557839505,129.070598726664
A10024087,양산 사송 더 샵 데시앙 1차 1단지,4833031025,경상남도,양산시,동면,내송리,경상남도 양산시 동면 내송리  양산 사송 더 샵 데시앙 1차 1단지,분양,지역난방,122392.516,8,734.0,태영건설,태영건설,0553720750,,아파트,경상남도 양산시 내송큰들로 141,위탁관리,계단식,20211028,0553720751,734,84474.484,0.0,520.0,214.0,0.0,65192.7162,22,22,2,23,50644,35.3207233188879,129.065614504019
A10024089,사송더샵데시앙4단지,4833031025,경상남도,양산시,동면,내송리,경상남도 양산시 동면 내송리  사송더샵데시앙4단지,분양,지역난방,80766.0,5,523.0,"(주)태영건설,(주)포스코건설","(주)태영건설,(주)포스코건설",0553679203,,아파트,경상남도 양산시 내송큰들로 73,위탁관리,계단식,20211028,0553679204,523,55408.945,0.0,523.0,0.0,0.0,42307.7008,25,25,3,15,50644,35.3218444101609,129.070113441879
A10024094,사송더샵데시앙 3단지,4833031025,경상남도,양산시,동면,내송리,경상남도 양산시 동면 내송리  사송더샵데시앙 3단지,분양,지역난방,47935.37,4,455.0,"포스코건설, 태영건설","포스코건설, 태영건설",0553887076,,아파트,경상남도 양산시 내송큰들로 107,위탁관리,계단식,20211028,0553887077,455,47636.04,0.0,455.0,0.0,0.0,36302.4775,25,25,3,12,50644,35.3228726396482,129.068774925051
A10022383,더샵남양산센텀포레,4833031026,경상남도,양산시,동면,석산리,경상남도 양산시 동면 석산리 615- 더샵남양산센텀포레,분양,개별난방,131869.0,9,832.0,(주)포스코건설,석산지역주택조합,0557852280,,아파트,경상남도 양산시 석산2길 14,위탁관리,계단식,20240829,0557852281,832,83734.15,201.0,631.0,0.0,0.0,63487.8113,28,28,2,24,,35.3142562138121,129.029454819912
A10026212,남양산역 금호어울림 아파트,4833031026,경상남도,양산시,동면,석산리,경상남도 양산시 동면 석산리 1450-4 남양산역 금호어울림 아파트,분양,지역난방,68095.0,6,499.0,금호산업주),대한토지신탁,0553877810,,아파트,경상남도 양산시 금오15길 10,위탁관리,계단식,20180531,0553877811,499,49809.363,124.0,375.0,0.0,0.0,36972.2585,27,27,1,0,50651,35.3195008388488,129.024708000258
A10026810,이지더원3차 리버포레,4833031026,경상남도,양산시,동면,석산리,경상남도 양산시 동면 석산리 1447-1 이지더원3차 리버포레,분양,지역난방,105718.0,10,1083.0,라인건설,이지아산산업,0553635060,,아파트,경상남도 양산시 금오16길 100,위탁관리,계단식,20170728,0553635061,1083,105717.77,0.0,1083.0,0.0,0.0,78558.315,26,26,1,30,50649,35.3229027811179,129.027185112305
A10026914,양산양우내안애6차에코뷰아파트,4833031026,경상남도,양산시,동면,석산리,경상남도 양산시 동면 석산리 1451-1 양산양우내안애6차에코뷰아파트,분양,지역난방,67700.38,8,581.0,양우건설,광문개발,0553635006,,아파트,경상남도 양산시 금오15길 29,위탁관리,계단식,20170526,0553625007,581,49829.977,413.0,168.0,0.0,0.0,36462.6031,29,29,1,13,50651,35.317864682589,129.021765142744
A10027005,남양산역 반도유보라 아이비파크6.0 아파트,4833031026,경상남도,양산시,동면,석산리,경상남도 양산시 동면 석산리 1448-5 남양산역 반도유보라 아이비파크6.0 아파트,분양,지역난방,124014.86,11,827.0,(주)반도건설,(주)반도건설,0553652920,,아파트,경상남도 양산시 금오13길 38,위탁관리,계단식,20170519,0553652921,827,83004.36,258.0,310.0,259.0,0.0,63093.7228,29,29,2,0,50650,35.3180072381485,129.027016812786
A10027168,남양산역 반도유보라 아이비파크5,4833031026,경상남도,양산시,동면,석산리,경상남도 양산시 동면 석산리 1447-4 남양산역 반도유보라 아이비파크5,분양,지역난방,123774.92,16,1244.0,(주)반도종합건설,(주)반도종합건설,0553678051,,아파트,경상남도 양산시 금오16길 122,위탁관리,혼합식,20161124,0553678053,1244,123774.92,300.0,658.0,286.0,0.0,93871.5654,25,25,2,0,50649,35.3215724821903,129.02521926441
A62682101,일동미라주아파트,4833031026,경상남도,양산시,동면,석산리,경상남도 양산시 동면 석산리 864-12 일동미라주아파트,분양,개별난방,27042.12,5,226.0,(주)일동,(주)일동,0553650558,양산석산일동미라주,아파트,경상남도 양산시 석금산로 171,위탁관리,계단식,20030703,0553650559,226,22778.188,0.0,226.0,0.0,0.0,17178.6,21,21,0,6,50638,35.3173124809348,129.031931333189
A62682102,석산해강,4833031026,경상남도,양산시,동면,석산리,경상남도 양산시 동면 석산리 699-3 석산해강,분양,개별난방,42464.0,3,460.0,해강건설,해강,0553858582,,아파트,경상남도 양산시 석산6길 28,자치관리,계단식,19920128,0553858581,460,35344.0,218.0,242.0,0.0,0.0,31141.88,15,15,1,16,50638,35.3156769667665,129.029304301566
A62682103,석산한신휴플러스,4833031026,경상남도,양산시,동면,석산리,경상남도 양산시 동면 석산리 518 석산한신휴플러스,분양,개별난방,74124.0,9,544.0,한신공영(주),(주)거홍건영,0553676945,cafe.daum.net/3676945,아파트,경상남도 양산시 석산1길 10,위탁관리,계단식,20060920,0553676946,544,59833.52,46.0,498.0,0.0,0.0,45064.9368,21,21,0,0,50638,35.312581095787,129.030542591834
A62682104,양산극동아파트,4833031026,경상남도,양산시,동면,석산리,경상남도 양산시 동면 석산리 300 양산극동아파트,분양,개별난방,84428.03,7,886.0,(주)극동건설,(주)동방주택,0553874346,www.hebibi.com,아파트,경상남도 양산시 계석로 10,위탁관리,계단식,19950907,0553874347,886,74502.58,646.0,240.0,0.0,0.0,59017.14,24,24,1,24,50636,35.3286529125701,129.036366690499
A62682106,e편한세상 남양산2차,4833031026,경상남도,양산시,동면,석산리,경상남도 양산시 동면 석산리 1450-1 e편한세상 남양산2차,분양,지역난방,160430.03,17,998.0,(주)대림건설,(주)대림건설,0553624069,cafe.naver.com/epyunhandream,아파트,경상남도 양산시 금오13길 71,위탁관리,계단식,20130527,0553624077,999,122394.7,192.0,432.0,224.0,150.0,94703.434,25,25,1,24,50651,35.3205533610681,129.022055294273
A62682108,이편한세상남양산,4833031026,경상남도,양산시,동면,석산리,경상남도 양산시 동면 석산리 1448-2 이편한세상남양산,분양,지역난방,137866.0,14,976.0,대림산업,대림산업,0553810051,,아파트,경상남도 양산시 금오16길 65,위탁관리,계단식,20130527,0553810052,976,103195.13,270.0,558.0,148.0,0.0,76119.712,25,25,1,26,50650,35.3213037288057,129.028509796034
A62682109,양산신도시2차동원로얄듀크,4833031026,경상남도,양산시,동면,석산리,경상남도 양산시 동면 석산리 1451-3 양산신도시2차동원로얄듀크,분양,지역난방,76305.625,7,621.0,0,3098260707,0553637557,,아파트,경상남도 양산시 금오15길 9,위탁관리,기타,20130827,0553637558,621,55885.17,462.0,159.0,0.0,0.0,41217.8081,26,26,1,11,50651,35.317669459505,129.025040110481
A10021445,금산훼미리타운아파트,4833031027,경상남도,양산시,동면,금산리,경상남도 양산시 동면 금산리 763- 금산훼미리타운아파트,분양,개별난방,12000.0,1,139.0,금산훼미리타운 아파트,금산훼미리타운 아파트,0553818570,,아파트,경상남도 양산시 금산3길 7,자치관리,계단식,19921016,0553818570,139,11509.054,41.0,98.0,0.0,0.0,9461.61,1,15,0,5,,35.304880527622,129.025879697906
A62682105,금산휴먼시아,4833031027,경상남도,양산시,동면,금산리,경상남도 양산시 동면 금산리 855 금산휴먼시아,임대,개별난방,100892.79,12,1300.0,서희건설(주),한국토지주택공사,0553679703,,아파트,경상남도 양산시 금산2길 12,위탁관리,혼합식,20110523,0553679705,1300,58681.9,1300.0,0.0,0.0,0.0,58813.9,15,15,0,26,50640,35.3031889391709,129.025521803302
A10020859,동우강변타워2차 아파트,4833033021,경상남도,양산시,상북면,석계리,경상남도 양산시 상북면 석계리 7- 동우강변타워2차 아파트,분양,개별난방,12742.78,1,114.0,동우건설,동우주택,0553747993,,아파트,경상남도 양산시 상북중앙로 447,위탁관리,계단식,19930918,0553740000,114,10487.4,40.0,74.0,0.0,0.0,8678.88,20,20,1,2,,35.4225468536311,129.064825594664
A10021561,새진흥아파트,4833033021,경상남도,양산시,상북면,석계리,경상남도 양산시 상북면 석계리 179-1 새진흥아파트,분양,,6618.0,2,138.0,경남기업,경남기업,0553741490,,아파트,경상남도 양산시 반회서3길 28,자치관리(직영),계단식,19890427,,138,6572.46,138.0,0.0,0.0,0.0,6617.83,5,5,0,0,,35.4122983062312,129.056897978845
A10021606,삼영아파트,4833033021,경상남도,양산시,상북면,석계리,경상남도 양산시 상북면 석계리 78-32 삼영아파트,분양,개별난방,5617.0,2,110.0,삼영,삼영,0271640713,,아파트,경상남도 양산시 삼계1길 2,자치관리,계단식,19880318,,110,5319.6,110.0,0.0,0.0,0.0,4633.2,5,5,0,0,,35.4176529666519,129.062049898954
A10022561,두산위브더제니스양산,4833033021,경상남도,양산시,상북면,석계리,경상남도 양산시 상북면 석계리 1176- 두산위브더제니스양산,분양,개별난방,171876.33,10,1368.0,두산건설,(주)고향의봄,0553749997,,아파트,경상남도 양산시 석계로 15,위탁관리,계단식,20241206,0553749998,1368,131772.48,674.0,694.0,0.0,0.0,99032.9704,30,30,2,41,50561,35.417400441811,129.066246708278
A62678304,진일2차,4833033021,경상남도,양산시,상북면,석계리,경상남도 양산시 상북면 석계리 237-1 진일2차,분양,개별난방,23011.57,2,240.0,진일건설,진일건설,0553741110,,아파트,경상남도 양산시 반회서7길 20,자치관리,계단식,19920604,0553741110,252,21978.0,0.0,240.0,0.0,0.0,18099,15,15,0,8,50557,35.4158060588127,129.058953400086
A62678306,진일1차,4833033021,경상남도,양산시,상북면,석계리,경상남도 양산시 상북면 석계리 244-1 진일1차,분양,개별난방,30542.0,2,330.0,진일건설,진일건설,0553742432,,아파트,경상남도 양산시 반회서5길 21,자치관리,계단식,19920414,0553742432,330,24101.7,0.0,330.0,0.0,0.0,24101.7,15,15,0,11,50559,35.4137972567441,129.057441998958
A62685401,한영,4833033021,경상남도,양산시,상북면,석계리,경상남도 양산시 상북면 석계리 505 한영,분양,개별난방,15050.17,2,159.0,해강건설,해강건설,0553751359,www.joyapt.com/home/user/567/,아파트,경상남도 양산시 반회서1길 6,자치관리,계단식,19920430,0553751359,159,11921.58,39.0,111.0,9.0,0.0,11921.58,15,15,0,7,50559,35.410060648448,129.057742475288
A62685402,동우1차,4833033021,경상남도,양산시,상북면,석계리,경상남도 양산시 상북면 석계리 236-1 동우1차,분양,개별난방,12377.6,1,160.0,동우건설,동우건설,0559109588,,아파트,경상남도 양산시 삼계1길 9,자치관리,복도식,19921027,0553749588,160,12249.6,160.0,0.0,0.0,0.0,9006.72,16,16,0,2,50557,35.4171273468603,129.060371080876
A62685403,한성강변타운,4833033021,경상남도,양산시,상북면,석계리,경상남도 양산시 상북면 석계리 15-4 한성강변타운,분양,개별난방,20384.21,1,199.0,해강종합건설주식회사,해강종합건설주식회사,0553740437,,아파트,경상남도 양산시 상북중앙로 437-3,위탁관리,계단식,19921113,0553740437,199,20281.0,71.0,125.0,0.0,3.0,15372.29,20,20,1,7,50557,35.4206799750246,129.064014930406
A62678205,양산일양하이츠아파트,4833033022,경상남도,양산시,상북면,대석리,경상남도 양산시 상북면 대석리 665 양산일양하이츠아파트,분양,개별난방,28021.0,3,296.0,일양건설,일양건설,0553750910,aptree.co.kr/home/user/809/,아파트,경상남도 양산시 공암길 26,자치관리,혼합식,19920803,0553757475,296,27539.283,124.0,172.0,0.0,0.0,21572.36,15,15,1,8,50563,35.3939181454169,129.053645689888
A62685308,양산대석휴먼시아,4833033022,경상남도,양산시,상북면,대석리,경상남도 양산시 상북면 대석리 808 양산대석휴먼시아,임대,개별난방,77991.03,10,961.0,울트라건설,LH,0553747331,www.kohom.co.kr,아파트,경상남도 양산시 양산대로 1360,자치관리,복도식,20090526,0553747332,961,77288.04,961.0,0.0,0.0,0.0,41727.28,15,15,0,0,50564,35.3913156269781,129.051708125742
A62678407,대우마리나,4833033023,경상남도,양산시,상북면,소토리,경상남도 양산시 상북면 소토리 908 대우마리나,분양,개별난방,72689.086,4,622.0,(주)대우건설,(주)대우건설,0553744353,,아파트,경상남도 양산시 감결길 17,자치관리,계단식,19941129,0553756074,622,68568.586,228.0,268.0,100.0,26.0,51867.36,25,25,1,0,50580,35.3882106769819,129.047976169227
A62686302,협진태양,4833034021,경상남도,양산시,하북면,순지리,경상남도 양산시 하북면 순지리 166-13 협진태양,분양,개별난방,18869.264,1,197.0,협진주택,협진주택,0553837941,,아파트,경상남도 양산시 통도사로 5,위탁관리,계단식,20000321,0553837940,197,14998.346,197.0,0.0,0.0,0.0,10630.717,17,17,2,6,50503,35.4921850914076,129.089639419013
A10021426,대영파크맨션,4833034022,경상남도,양산시,하북면,지산리,경상남도 양산시 하북면 지산리 17-16 대영파크맨션,분양,개별난방,9074.0,1,105.0,(주)대영건설,(주)대영건설,0553826243,,아파트,경상남도 양산시 지산로 27-9,자치관리,복도식,19911101,05040561324,105,9060.0,14.0,91.0,0.0,0.0,6867.9,1,15,0,0,,35.4950175789335,129.08030766435
A62686201,진흥목화,4833034028,경상남도,양산시,하북면,용연리,경상남도 양산시 하북면 용연리 437 진흥목화,분양,개별난방,15933.0,1,165.0,(주)진흥주택,(주)진흥주택,0553745290,,아파트,경상남도 양산시 용연로 59,위탁관리,계단식,19930806,0553745291,165,15307.05,105.0,60.0,0.0,0.0,11359.65,15,15,1,6,50509,35.4442349420612,129.0734881153
