kaptCode,kaptName,bjdCode,as1,as2,as3,as4,kaptAddr,codeSaleNm,codeHeatNm,kaptTarea,kaptDongCnt,kaptdaCnt,kaptBcompany,kaptAcompany,kaptTel,kaptUrl,codeAptNm,doroJuso,codeMgrNm,codeHallNm,kaptUsedate,kaptFax,hoCnt,kaptMarea,kaptMparea60,kaptMparea85,kaptMparea135,kaptMparea136,privArea,kaptTopFloor,ktownFlrNo,kaptBaseFloor,kaptdEcntp,zipcode,위도,경도
A10020491,로얄맨션1차,4785025021,경상북도,칠곡군,왜관읍,왜관리,경상북도 칠곡군 왜관읍 왜관리 298-1 로얄맨션1차,분양,개별난방,10047.0,4,150.0,주식회사대흥주택건설,주식회사대흥주택건설,0549734065,,아파트,경상북도 칠곡군 중앙로 126,자치관리,계단식,19891115,,150,8490.1,80.0,70.0,0.0,0.0,8490.1,5,5,0,0,,35.9866083065516,128.399305288012
A10022236,왜관주공아파트,4785025021,경상북도,칠곡군,왜관읍,왜관리,경상북도 칠곡군 왜관읍 왜관리 347-5 왜관주공아파트,분양,개별난방,12444.0,1,260.0,대한주택공사,대한주택공사,0549738582,,아파트,경상북도 칠곡군 평장2길 14,자치관리,계단식,19860819,0549738582,260,12444.0,260.0,0.0,0.0,0.0,12444,5,5,0,0,,35.9874378326537,128.404962584237
A10025856,왜관태왕아너스 센텀아파트,4785025021,경상북도,칠곡군,왜관읍,왜관리,경상북도 칠곡군 왜관읍 왜관리 1463 왜관태왕아너스 센텀아파트,분양,개별난방,109364.516,6,728.0,(주)태왕이엔씨,한국토지신탁,0549779719,태왕아너스센텀.apti.co.kr,아파트,경상북도 칠곡군 달오2길 37,위탁관리,계단식,20181129,0549779720,728,79270.33,0.0,728.0,0.0,0.0,59326.0342,26,26,2,19,39906,35.9778175316854,128.4032580605
A10026693,협성휴포레 칠곡왜관,4785025021,경상북도,칠곡군,왜관읍,왜관리,경상북도 칠곡군 왜관읍 왜관리 1571 협성휴포레 칠곡왜관,분양,개별난방,78093.67,6,606.0,(주)협성건설,(주)한빛이앤디,0549761661,,아파트,경상북도 칠곡군 평장길 20,위탁관리,계단식,20171102,0549771661,606,59280.004,57.0,549.0,0.0,0.0,45957.3811,26,26,1,0,39899,35.9857751256126,128.40130258652
A71880014,이원리버빌,4785025021,경상북도,칠곡군,왜관읍,왜관리,경상북도 칠곡군 왜관읍 왜관리 208-16 이원리버빌,분양,개별난방,23517.8,3,207.0,이원종합건설,이원종합건설,0549722104,이원리버빌.apti.co.kr/,아파트,경상북도 칠곡군 2번도로길 105,위탁관리,계단식,20070917,0549722104,207,17350.49,0.0,192.0,15.0,0.0,17350.49,15,15,1,7,39884,35.9968918239987,128.396906096823
A71880015,칠곡왜관2,4785025021,경상북도,칠곡군,왜관읍,왜관리,경상북도 칠곡군 왜관읍 왜관리 777-34 칠곡왜관2,임대,개별난방,37029.246,6,480.0,삼능건설,한국토지주택공사,0549720182,www.kohom.co.kr,아파트,경상북도 칠곡군 자조1길 10,위탁관리,계단식,20021023,0549720183,480,25749.12,480.0,0.0,0.0,0.0,25749.12,15,15,0,0,39904,35.9825025727791,128.397418543587
A71880109,왜관우방아파트,4785025021,경상북도,칠곡군,왜관읍,왜관리,경상북도 칠곡군 왜관읍 왜관리 298-10 왜관우방아파트,분양,개별난방,76254.0,9,751.0,(주)우방주택,(주)우방주택,0549711569,,아파트,경상북도 칠곡군 중앙로 117,위탁관리,혼합식,19920514,0549732393,751,69045.04,149.0,582.0,20.0,0.0,57696.81,15,15,1,24,39898,35.9853932630569,128.39840289921
A71880503,오성빌라맨션,4785025021,경상북도,칠곡군,왜관읍,왜관리,경상북도 칠곡군 왜관읍 왜관리 798 오성빌라맨션,분양,개별난방,30729.0,7,370.0,오성주택,오성주택,0549712395,,아파트,경상북도 칠곡군 구상길 156,위탁관리,계단식,19891220,0549712395,370,30316.0,44.0,326.0,0.0,0.0,25574.9,6,6,1,0,39905,35.9806698045885,128.394770642604
A71880507,대동다숲아파트,4785025021,경상북도,칠곡군,왜관읍,왜관리,경상북도 칠곡군 왜관읍 왜관리 654-1 대동다숲아파트,분양,개별난방,81596.9,9,605.0,대동주택,한국토지신탁,0549758709,cafe.daum.net/wddsapt,아파트,경상북도 칠곡군 평장3길 47,위탁관리,계단식,20070809,0549758707,605,67355.375,0.0,547.0,58.0,0.0,52709.2825,15,15,2,22,39902,35.9845081220751,128.406590870285
A71880516,칠곡왜관3,4785025021,경상북도,칠곡군,왜관읍,왜관리,경상북도 칠곡군 왜관읍 왜관리 590 칠곡왜관3,임대,개별난방,51591.93,9,631.0,(주)신일,대한주택공사,0549764545,kohom.co.kr,아파트,경상북도 칠곡군 평장7길 11,위탁관리,혼합식,20071101,0549764546,631,51188.195,631.0,0.0,0.0,0.0,35206.85,15,15,0,0,39901,35.9867607273089,128.411370663807
A71880704,왜관삼성아파트,4785025021,경상북도,칠곡군,왜관읍,왜관리,경상북도 칠곡군 왜관읍 왜관리 780-33 왜관삼성아파트,분양,개별난방,41894.88,4,400.0,삼성물산,삼성물산(주)건설부문,0549734152,없음,아파트,경상북도 칠곡군 구상길 180,자치관리,계단식,19970214,0549734750,400,35383.04,188.0,212.0,0.0,0.0,28577.024,19,19,1,11,39904,35.983461583526,128.395955372423
A10022129,풍국맨션,4785025022,경상북도,칠곡군,왜관읍,석전리,경상북도 칠곡군 왜관읍 석전리 729-1 풍국맨션,분양,개별난방,11688.0,4,113.0,1388277455,1388277455,0549725345,,아파트,경상북도 칠곡군 석전로2길 7,자치관리(직영),계단식,19920702,,116,8684.045,0.0,113.0,0.0,0.0,8684.045,6,6,1,0,,35.9977585132342,128.403894075342
A10024946,대화전원타운(대화주택),4785025022,경상북도,칠곡군,왜관읍,석전리,경상북도 칠곡군 왜관읍 석전리 410 대화전원타운(대화주택),분양,개별난방,23977.73,5,294.0,대화주택,대화주택,0549735445,,아파트,경상북도 칠곡군 석전로9길 7,위탁관리,계단식,19920514,0549719559,294,21762.0,104.0,190.0,0.0,0.0,18844.48,6,6,0,0,39874,36.000734204969,128.410628994763
A10027110,한양수자인,4785025022,경상북도,칠곡군,왜관읍,석전리,경상북도 칠곡군 왜관읍 석전리 892 한양수자인,분양,개별난방,35887.586,3,299.0,한양건설,한국토지신탁,0549737923,,아파트,경상북도 칠곡군 석전로7길 5,위탁관리,계단식,20170215,0549747923,299,29648.01,0.0,299.0,0.0,0.0,21612.1788,20,20,1,0,39878,36.0011814638831,128.407720609084
A71880310,왜관한빛타운,4785025022,경상북도,칠곡군,왜관읍,석전리,경상북도 칠곡군 왜관읍 석전리 561 왜관한빛타운,분양,개별난방,54282.0,6,513.0,11,11,0549729972,,아파트,경상북도 칠곡군 석전로 77,위탁관리,혼합식,20001030,0549729971,513,46641.96,290.0,187.0,36.0,0.0,36673.93,20,20,0,15,39878,36.0008052262958,128.406261795032
A71880317,칠곡왜관4,4785025022,경상북도,칠곡군,왜관읍,석전리,경상북도 칠곡군 왜관읍 석전리 883 칠곡왜관4,임대,개별난방,41468.74,6,528.0,세원건설,LH,0549760097,www.kohom.or.kr,아파트,경상북도 칠곡군 관문로1길 24,위탁관리,복도식,20080716,0549760098,528,41064.57,528.0,0.0,0.0,0.0,24291.42,15,15,0,12,39872,35.98958309032,128.416412065859
A71880401,무성그린아파트,4785025022,경상북도,칠곡군,왜관읍,석전리,경상북도 칠곡군 왜관읍 석전리 771-4 무성그린아파트,분양,개별난방,18983.225,2,192.0,무성종합건설,무성종합건설,0549716986,,아파트,경상북도 칠곡군 군청4길 32,위탁관리,혼합식,19950928,0549216986,198,17417.64,84.0,108.0,0.0,0.0,14040.3,12,12,1,6,39877,35.9994534151353,128.399752127364
A71880402,왜관3차우방타운,4785025022,경상북도,칠곡군,왜관읍,석전리,경상북도 칠곡군 왜관읍 석전리 479 왜관3차우방타운,분양,개별난방,23445.19,2,206.0,(주)우방,(주)우방,0549727393,,아파트,경상북도 칠곡군 석전로7길 40,위탁관리,계단식,19981228,0549727393,206,19000.71,52.0,154.0,0.0,0.0,15835.7,13,13,1,8,39876,36.0044141207162,128.40829145944
A10020823,칠곡왜관월드메르디앙웰리지,4785025026,경상북도,칠곡군,왜관읍,금산리,경상북도 칠곡군 왜관읍 금산리 - 칠곡왜관월드메르디앙웰리지,분양,개별난방,58144.895,6,352.0,은성건설(주),대한토지신탁(주),0549732900,,아파트,경상북도 칠곡군 금산로3길 35,위탁관리,계단식,20250206,0549732901,352,39214.28,0.0,350.0,0.0,2.0,30039.8544,20,20,3,4,,35.9660650855693,128.400570959468
A71884406,북삼 전원대동타운,4785025321,경상북도,칠곡군,북삼읍,율리,경상북도 칠곡군 북삼읍 율리 830-47 북삼 전원대동타운,분양,개별난방,27212.025,1,293.0,전원종합건설(주),전원종합건설(주),0549734471,북삼전원타운.apti.co.kr,아파트,경상북도 칠곡군 외율1길 9,위탁관리,혼합식,19950529,0549724472,293,24136.924,263.0,30.0,0.0,0.0,18265.95,15,15,1,5,39805,36.0506767178206,128.344047671077
A71884113,북삼삼주아파트,4785025322,경상북도,칠곡군,북삼읍,어로리,경상북도 칠곡군 북삼읍 어로리 440-1 북삼삼주아파트,분양,개별난방,29283.6,8,444.0,삼주개발,삼주개발,0549723323,,아파트,경상북도 칠곡군 어로3길 9,위탁관리,계단식,19911111,0549723323,456,28363.74,444.0,0.0,0.0,0.0,25214.88,6,6,0,0,39804,36.0453084450429,128.33486472183
A71884110,금오현대아파트,4785025324,경상북도,칠곡군,북삼읍,숭오리,경상북도 칠곡군 북삼읍 숭오리 18-1 금오현대아파트,분양,개별난방,56174.07,7,574.0,현대건설,현대건설,0549725097,,아파트,경상북도 칠곡군 안산2길 37-9,위탁관리,계단식,19960330,0549725067,574,46069.43,370.0,204.0,0.0,0.0,38145.52,19,19,1,17,39809,36.0667861482883,128.334340919601
A71884111,숭오화성파크,4785025324,경상북도,칠곡군,북삼읍,숭오리,경상북도 칠곡군 북삼읍 숭오리 26-1 숭오화성파크,분양,개별난방,47193.87,5,527.0,(주)화성개발,주)화성,0549773311,,아파트,경상북도 칠곡군 북삼로 193-5,위탁관리,혼합식,20021130,0549772111,527,40130.73,527.0,0.0,0.0,0.0,30068.323,15,15,0,14,39807,36.0657919862362,128.333565051499
A71884112,칠곡북삼,4785025324,경상북도,칠곡군,북삼읍,숭오리,경상북도 칠곡군 북삼읍 숭오리 31-1 칠곡북삼,임대,개별난방,24740.252,4,326.0,서한,한국토지주택공사,0549770820,kohom.co.kr,아파트,경상북도 칠곡군 북삼로 200,위탁관리,혼합식,20090817,0549770821,326,24558.611,326.0,0.0,0.0,0.0,15266.26,15,15,0,8,39806,36.0641523730392,128.332452670118
A71884401,숭오용우아파트,4785025324,경상북도,칠곡군,북삼읍,숭오리,경상북도 칠곡군 북삼읍 숭오리 31-2 숭오용우아파트,분양,개별난방,12876.0,1,150.0,용우주택,용우주택,0549747093,,아파트,경상북도 칠곡군 북삼로 188-5,위탁관리,복도식,20000809,07072046623,150,9808.004,150.0,0.0,0.0,0.0,7190.88,15,15,1,2,39806,36.0648001534445,128.33266027104
A10022227,화진금봉2차아파트,4785025325,경상북도,칠곡군,북삼읍,인평리,경상북도 칠곡군 북삼읍 인평리 705-1 화진금봉2차아파트,분양,개별난방,13930.0,1,142.0,화진주택건설,화진주택건설,0549751738,,아파트,경상북도 칠곡군 북삼로 214-4,자치관리,계단식,19960617,0549751738,142,12473.0,64.0,78.0,0.0,0.0,10461.56,13,13,0,6,,36.063220920627,128.333986031636
A10024645,칠곡북삼서희스타힐스더퍼스트,4785025325,경상북도,칠곡군,북삼읍,인평리,경상북도 칠곡군 북삼읍 인평리 1131 칠곡북삼서희스타힐스더퍼스트,분양,개별난방,132587.31,15,999.0,서희건설,칠곡북삼지역주택조합,0549777708,북삼서희스타힐스,아파트,경상북도 칠곡군 인강1길 74,위탁관리,계단식,20200908,0549777701,999,95137.97,457.0,542.0,0.0,0.0,71224.0613,25,25,2,25,39810,36.0671419637342,128.338684583453
A71884102,인평숭오시티타운,4785025325,경상북도,칠곡군,북삼읍,인평리,경상북도 칠곡군 북삼읍 인평리 1069 인평숭오시티타운,분양,개별난방,16967.615,2,151.0,도시주택건설,도시주택건설,0549754408,시티타운.apti.co.kr,아파트,경상북도 칠곡군 인강8길 20,위탁관리(직영+위탁),계단식,19971115,0549754408,151,12876.79,65.0,86.0,0.0,0.0,11206.445,12,12,0,7,39810,36.0704417789285,128.340797091425
A71884114,로얄아파트,4785025325,경상북도,칠곡군,북삼읍,인평리,경상북도 칠곡군 북삼읍 인평리 675-1 로얄아파트,분양,개별난방,14483.82,1,185.0,로얄주식회사,로얄주식회사,0549771248,,아파트,경상북도 칠곡군 인강9길 10,위탁관리,계단식,20020812,0549771244,185,9605.384,185.0,0.0,0.0,0.0,9648.9528,12,12,1,8,39810,36.0689314977406,128.33981843871
A71884208,늘푸른아파트,4785025325,경상북도,칠곡군,북삼읍,인평리,경상북도 칠곡군 북삼읍 인평리 271-1 늘푸른아파트,분양,개별난방,25773.0,3,324.0,(주)동부주택,(주)동부주택,0549750502,,아파트,경상북도 칠곡군 북삼로8길 19,위탁관리,계단식,19951221,0549750503,324,24938.975,268.0,56.0,0.0,0.0,20335.33,17,17,0,11,39801,36.0717317178713,128.335556114567
A71884403,화진금봉1차 아파트,4785025325,경상북도,칠곡군,북삼읍,인평리,경상북도 칠곡군 북삼읍 인평리 690-1 화진금봉1차 아파트,분양,개별난방,17729.74,2,192.0,화진주택건설(주),화진주택건설주( 주),0549751737,bshwajin1.apti.co.kr,아파트,경상북도 칠곡군 안산2길 6-4,위탁관리,계단식,19951228,0549741737,192,17560.16,80.0,112.0,0.0,0.0,14306.4,15,15,2,7,39807,36.0636569890031,128.334204384921
A71884404,숭오대동타운,4785025325,경상북도,칠곡군,북삼읍,인평리,경상북도 칠곡군 북삼읍 인평리 678-1 숭오대동타운,분양,개별난방,17816.04,1,223.0,대동주택,대동주택,0549746273,,아파트,경상북도 칠곡군 인강5길 59,위탁관리(직영+위탁),혼합식,19950830,0549746276,223,17816.04,167.0,56.0,0.0,0.0,14564.67,15,15,0,8,39810,36.0675866381627,128.340478136112
A71884407,현진아파트,4785025325,경상북도,칠곡군,북삼읍,인평리,경상북도 칠곡군 북삼읍 인평리 1036 현진아파트,분양,개별난방,36059.95,4,318.0,현진 종합건설(주),현진 종합건설(주),0549723121,,아파트,경상북도 칠곡군 금오대로10길 35,자치관리,계단식,19990513,0549723122,318,28891.824,180.0,138.0,0.0,0.0,22489.29,19,19,2,9,39813,36.0686238344018,128.351776498435
A71884409,인평창신아파트,4785025325,경상북도,칠곡군,북삼읍,인평리,경상북도 칠곡군 북삼읍 인평리 1090 인평창신아파트,분양,개별난방,30532.56,2,421.0,(주)창신주택,(주)창신주택,0549720509,인평창신.apti.co.kr,아파트,경상북도 칠곡군 금오대로6길 9-6,위탁관리,계단식,19950621,0549760509,421,30532.56,421.0,0.0,0.0,0.0,24351.41,15,15,1,16,39813,36.0678261146528,128.348843457792
A71884505,인평화성타운,4785025325,경상북도,칠곡군,북삼읍,인평리,경상북도 칠곡군 북삼읍 인평리 1068 인평화성타운,분양,개별난방,23775.13,2,254.0,화성,화성종합건설,0549744464,인평화성타운.apti.co.kr,아파트,경상북도 칠곡군 인강8길 21,위탁관리,계단식,19961209,0549744464,254,21358.58,224.0,30.0,0.0,0.0,15950.68,15,15,0,9,39810,36.0710712023734,128.340001917997
A10023009,세원오투리움,4785025621,경상북도,칠곡군,석적읍,성곡리,경상북도 칠곡군 석적읍 성곡리 902 세원오투리움,분양,개별난방,12705.0,6,140.0,세원산업,세원산업개발,0549710992,,도시형 생활주택(아파트),경상북도 칠곡군 장곡길 240,위탁관리,계단식,20160715,0549710772,140,12040.81,40.0,100.0,0.0,0.0,8595.687,6,6,2,14,39846,36.0732947385571,128.419951601409
A71870106,구미3공단부영아파트,4785025622,경상북도,칠곡군,석적읍,중리,경상북도 칠곡군 석적읍 중리 141 구미3공단부영아파트,혼합,개별난방,228074.83,14,2635.0,(주)부영,(주)부영,0549762171,구미3.apti.co.kr,아파트,경상북도 칠곡군 북중리3길 70,위탁관리,복도식,20000515,0549762172,2635,185266.8,2635.0,0.0,0.0,0.0,141399.75,18,18,1,28,39835,36.0786481440195,128.413448029775
A71883304,칠곡중리금호어울림 아파트,4785025622,경상북도,칠곡군,석적읍,중리,경상북도 칠곡군 석적읍 중리 171 칠곡중리금호어울림 아파트,분양,개별난방,75860.17,6,579.0,금호건설,이토건설,0549712775,칠곡중리금호어울림.apti.co.kr,아파트,경상북도 칠곡군 서중리5길 66-6,위탁관리,계단식,20080508,0549712776,579,63931.08,0.0,539.0,40.0,0.0,50126.634,22,22,1,14,39840,36.0759659693205,128.404690968193
A10027414,칠곡효성해링턴플레이스1단지,4785025623,경상북도,칠곡군,석적읍,남율리,경상북도 칠곡군 석적읍 남율리 1087 칠곡효성해링턴플레이스1단지,분양,개별난방,111392.77,10,835.0,진흥,(주)효성,0549779622,효성해링턴플레이스1단지.apti.co.kr/aptHome/Default.asp?,아파트,경상북도 칠곡군 남율로9길 33,위탁관리,계단식,20160726,0549779624,835,80294.86,216.0,619.0,0.0,0.0,60477.0079,18,18,3,0,39844,36.0677366943505,128.40119459762
A10027939,칠곡효성해링턴플레이스3단지,4785025623,경상북도,칠곡군,석적읍,남율리,경상북도 칠곡군 석적읍 남율리 1511 칠곡효성해링턴플레이스3단지,분양,개별난방,66889.04,7,563.0,진흥기업(주),(주)효성,0549739449,cghrt3.aptner.co.kr,아파트,경상북도 칠곡군 남율로9길 81,위탁관리,계단식,20150820,0549761472,563,49978.215,279.0,284.0,0.0,0.0,37888.5231,18,18,2,0,39844,36.0688227666146,128.408258309213
A10027984,칠곡효성해링턴플레이스2단지,4785025623,경상북도,칠곡군,석적읍,남율리,경상북도 칠곡군 석적읍 남율리 29-1 칠곡효성해링턴플레이스2단지,분양,개별난방,70671.57,6,576.0,효성,진흥,0549739800,cghrt2_aptner.co.kr,아파트,경상북도 칠곡군 남율로9길 61,위탁관리,계단식,20150526,0549714726,576,52862.918,216.0,360.0,0.0,0.0,40002.5412,18,18,2,18,39844,36.0687662808571,128.404155907521
A71870208,석적우방신천지아파트,4785025623,경상북도,칠곡군,석적읍,남율리,경상북도 칠곡군 석적읍 남율리 710 석적우방신천지아파트,분양,개별난방,188389.0,17,1999.0,(주)우방,(주)우방,0549763700,scjtw.co.kr,아파트,경상북도 칠곡군 석적로 955-19,자치관리,계단식,20020531,0549763702,1999,188390.12,640.0,1199.0,80.0,80.0,156554.62,20,20,0,50,39843,36.0746043333518,128.391779094107
A71883101,칠곡남광하우스토리,4785025623,경상북도,칠곡군,석적읍,남율리,경상북도 칠곡군 석적읍 남율리 883 칠곡남광하우스토리,분양,개별난방,44477.223,3,302.0,남광토건,미래시티,0549758708,,아파트,경상북도 칠곡군 서중리4길 32,위탁관리,계단식,20080923,0549758706,302,37282.83,0.0,250.0,52.0,0.0,27433.092,26,26,1,6,39841,36.0754066345057,128.400872552622
A71883103,한솔 솔파크 강변아파트,4785025623,경상북도,칠곡군,석적읍,남율리,경상북도 칠곡군 석적읍 남율리 764 한솔 솔파크 강변아파트,분양,개별난방,74138.11,5,498.0,한솔건설,미래H&C,0549711775,석적한솔.apti.co.kr,아파트,경상북도 칠곡군 석적로 905,위탁관리,계단식,20080403,0549711776,498,59405.34,0.0,390.0,108.0,0.0,45947.1384,18,18,1,0,39843,36.0712025362754,128.394259142665
A71883107,동화공단타운,4785025623,경상북도,칠곡군,석적읍,남율리,경상북도 칠곡군 석적읍 남율리 593 동화공단타운,분양,개별난방,36886.14,4,474.0,동화주택,동화주택,0549713468,,아파트,경상북도 칠곡군 대교길 36,위탁관리,계단식,19980516,0549777981,474,34472.74,474.0,0.0,0.0,0.0,28425.78,15,15,0,17,39841,36.0758062833394,128.396920741524
A10021498,약목우영아파트,4785036028,경상북도,칠곡군,약목면,복성리,경상북도 칠곡군 약목면 복성리 506-1 약목우영아파트,분양,개별난방,14995.0,5,190.0,우영주택,우영주택,0549746035,,아파트,경상북도 칠곡군 복성15길 38,위탁관리,계단식,19920605,,190,14645.4,10.0,180.0,0.0,0.0,13617,5,5,0,0,,36.0429756837183,128.342558822845
A71881401,복성두성타운,4785036028,경상북도,칠곡군,약목면,복성리,경상북도 칠곡군 약목면 복성리 54 복성두성타운,분양,개별난방,21996.19,2,281.0,두성건설,두성건설,0549728473,,아파트,경상북도 칠곡군 복성17길 54,자치관리,복도식,19980828,0549728483,281,19473.3,281.0,0.0,0.0,0.0,16691.4,15,15,1,4,39822,36.0431519266755,128.338934962076
A71881402,약목오성타워,4785036028,경상북도,칠곡군,약목면,복성리,경상북도 칠곡군 약목면 복성리 701 약목오성타워,분양,개별난방,97760.41,2,499.0,(주)오성종합개발,(주)오성종합개발,0549746272,,아파트,경상북도 칠곡군 복성13길 24,자치관리,혼합식,19940214,0549746272,499,43722.25,204.0,295.0,0.0,0.0,36243.47,15,15,1,13,39823,36.0373991135541,128.359660523049
A71881203,성재 아파트,4785036034,경상북도,칠곡군,약목면,관호리,경상북도 칠곡군 약목면 관호리 74-10 성재 아파트,분양,개별난방,26132.658,9,576.0,준형건설,성재산업,0549710989,,아파트,경상북도 칠곡군 관호8길 32-2,자치관리,계단식,19900721,0549710989,578,24595.037,576.0,0.0,0.0,0.0,21021.12,6,6,0,0,39830,36.0013218415067,128.388481567679
A71881204,삼주강변타운,4785036034,경상북도,칠곡군,약목면,관호리,경상북도 칠곡군 약목면 관호리 952 삼주강변타운,분양,개별난방,60419.0,5,873.0,삼주개발(주),삼주개발(주),0549732677,,아파트,경상북도 칠곡군 관호8길 28-18,자치관리,복도식,19931115,0549749926,873,5290380.0,873.0,0.0,0.0,0.0,43650,15,15,0,14,39830,36.0016926816916,128.38806753102
A71885101,월드피아아파트,4785037028,경상북도,칠곡군,기산면,죽전리,경상북도 칠곡군 기산면 죽전리 274-4 월드피아아파트,분양,개별난방,38095.074,3,429.0,유호건설,"유호산업개발,대영저축은행",0549717807,,아파트,경상북도 칠곡군 지산로 961,위탁관리,계단식,20091218,0549717806,429,35380.04,352.0,77.0,0.0,0.0,27636.4473,15,15,0,15,39914,35.9863081160652,128.379608244334
