kaptCode,kaptName,bjdCode,as1,as2,as3,as4,kaptAddr,codeSaleNm,codeHeatNm,kaptTarea,kaptDongCnt,kaptdaCnt,kaptBcompany,kaptAcompany,kaptTel,kaptUrl,codeAptNm,doroJuso,codeMgrNm,codeHallNm,kaptUsedate,kaptFax,hoCnt,kaptMarea,kaptMparea60,kaptMparea85,kaptMparea135,kaptMparea136,privArea,kaptTopFloor,ktownFlrNo,kaptBaseFloor,kaptdEcntp,zipcode,위도,경도
A10020241,어나드 범어,2726010100,대구광역시,수성구,범어동,,대구광역시 수성구 범어동 1 어나드 범어,분양,개별난방,220062.69,4,604.0,㈜포스코이앤씨,대구엠비씨부지복합개발피에프브이(주),0537566660,,주상복합,대구광역시 수성구 동대구로 400,위탁관리,계단식,20260130,0537566661,604,116219.1,0.0,0.0,0.0,604.0,116219.1036,33,0,5,0,,35.8662477078491,128.628424294203
A10021377,우방3차범어타운아파트,2726010100,대구광역시,수성구,범어동,,대구광역시 수성구 범어동 238-46 우방3차범어타운아파트,분양,개별난방,13483.0,1,145.0,우방주택,우방주택,0537556550,,아파트,대구광역시 수성구 달구벌대로492길 12,위탁관리,계단식,19841126,0537444378,145,13058.035,0.0,145.0,0.0,0.0,11845.475,1,5,0,0,,35.8576456737435,128.631129517895
A10021578,아진맨션,2726010100,대구광역시,수성구,범어동,,대구광역시 수성구 범어동 665-3 아진맨션,분양,개별난방,68020.0,4,144.0,아진주택,아진주택,0537521121,없음,아파트,대구광역시 수성구 동대구로38길 80-1,자치관리,계단식,19810522,0537524121,144,9034.56,144.0,0.0,0.0,0.0,6893.31,5,5,1,0,,35.849600538683,128.627876135051
A10021982,범어아이파크,2726010100,대구광역시,수성구,범어동,,대구광역시 수성구 범어동 2300- 범어아이파크,분양,개별난방,89241.18,4,418.0,HDC현대산업개발,범어우방1차아파트 주택재건축정비사업조합,0537411141,,아파트,대구광역시 수성구 동대구로 230,위탁관리,계단식,20240930,0537411142,418,48711.344,0.0,348.0,70.0,0.0,38069.258,25,25,3,0,,35.8511834089259,128.626278177695
A10022085,효성백년가약궁,2726010100,대구광역시,수성구,범어동,,대구광역시 수성구 범어동 63-100 효성백년가약궁,분양,개별난방,26280.0,1,114.0,효성건설,효성건설,0537431189,,아파트,대구광역시 수성구 청호로 466,위탁관리,계단식,20061222,,114,19963.06,0.0,0.0,0.0,114.0,15948.372,20,20,1,0,,35.8566640484845,128.643210260183
A10022285,범어목련아파트,2726010100,대구광역시,수성구,범어동,,대구광역시 수성구 범어동 341- 범어목련아파트,분양,기타,16485.0,5,250.0,대구시,대구시,0532167485,,,대구광역시 수성구 청호로 340,자치관리,계단식,19871114,0537447485,260,13872.0,250.0,0.0,0.0,0.0,13872,5,5,0,0,,35.8476888894671,128.639985363817
A10022571,청구빌라맨션,2726010100,대구광역시,수성구,범어동,,대구광역시 수성구 범어동 476 청구빌라맨션,분양,개별난방,10021.89,1,100.0,(주)청구주택,(주)청구주택,0537551784,,아파트,대구광역시 수성구 상록로11길 5,위탁관리,복도식,19790319,0537551784,105,9990.08,40.0,60.0,0.0,0.0,7435.62,10,10,1,1,42014,35.8644510276139,128.623510814322
A10022866,수성범어W아파트,2726010100,대구광역시,수성구,범어동,,대구광역시 수성구 범어동 2291 수성범어W아파트,분양,개별난방,225617.0,5,1340.0,아이에스동서,수성범어지역주택조합,0537411126,,주상복합,대구광역시 수성구 달구벌대로 2436,위탁관리,계단식,20231215,0537411127,1340,157897.38,0.0,1184.0,156.0,0.0,116700.0792,59,59,4,20,42085,35.8579241690404,128.628708968141
A10023068,쌍용 더 플래티넘 범어,2726010100,대구광역시,수성구,범어동,,대구광역시 수성구 범어동 2283 쌍용 더 플래티넘 범어,분양,개별난방,52962.59,2,207.0,쌍용건설,주식회사 에스엠디앤씨,0537512230,,주상복합,대구광역시 수성구 상록로 25,위탁관리,기타,20230817,0537512231,295,23658.928,0.0,207.0,0.0,0.0,17493.9082,39,39,5,0,42018,35.8620924251634,128.623534437071
A10023842,빌리브범어 120,2726010100,대구광역시,수성구,범어동,,대구광역시 수성구 범어동 2280 빌리브범어 120,분양,개별난방,37734.16,3,209.0,신세계 E&C,빌리브범어2차지역주택조합,0537431900,,아파트,대구광역시 수성구 범어로20길 120,위탁관리,계단식,20220317,0537431901,209,23416.498,0.0,193.0,15.0,1.0,17888.4888,19,19,2,7,42089,35.857574562198,128.641938115312
A10023944,힐스테이트범어센트럴,2726010100,대구광역시,수성구,범어동,,대구광역시 수성구 범어동 2277 힐스테이트범어센트럴,분양,개별난방,37625.62,3,343.0,현대건설,"(주)피아이에이, (주)도시미학디앤씨",0537562005,,주상복합,대구광역시 수성구 상록로 80,위탁관리,계단식,20220127,0537562006,343,37625.62,0.0,343.0,0.0,0.0,29134.48,37,37,4,5,42012,35.8666241418224,128.624555959343
A10024330,범어에일린의뜰,2726010100,대구광역시,수성구,범어동,,대구광역시 수성구 범어동 2272 범어에일린의뜰,분양,개별난방,115786.0,6,719.0,아이에스동서(주),아이에스동서(주),0537645400,,아파트,대구광역시 수성구 청솔로14길 15,위탁관리,계단식,20210325,0537645401,719,75812.24,0.0,655.0,64.0,0.0,58576.612,30,30,2,19,42139,35.8522751440686,128.621878774608
A10024491,힐스테이트 범어,2726010100,대구광역시,수성구,범어동,,대구광역시 수성구 범어동 2264 힐스테이트 범어,분양,개별난방,69508.484,5,414.0,현대엔지니어링,범어현대지역주택조합,0534728881,없음,아파트,대구광역시 수성구 범어로18길 22,위탁관리,계단식,20201224,0537528883,414,46451.9,0.0,386.0,28.0,0.0,35846.0532,26,26,2,14,42088,35.8567198940752,128.636829617588
A10024708,범어서한포레스트,2726010100,대구광역시,수성구,범어동,,대구광역시 수성구 범어동 177-1 범어서한포레스트,분양,개별난방,26385.074,2,202.0,서한,kt 에스테이트,0537424500,,주상복합,대구광역시 수성구 동대구로 346,위탁관리,계단식,20200727,0537424501,202,24000.377,0.0,135.0,67.0,0.0,18106.2417,41,41,3,0,42028,35.8610717377073,128.627434108393
A10025285,범어센트럴푸르지오 아파트,2726010100,대구광역시,수성구,범어동,,대구광역시 수성구 범어동 2257 범어센트럴푸르지오 아파트,분양,개별난방,113432.625,5,705.0,대우건설,넵스키개발(주),0537569961,,주상복합,대구광역시 수성구 상록로 15,위탁관리,계단식,20190911,0537569962,705,59907.906,0.0,705.0,0.0,0.0,59907.905,49,49,4,0,42019,35.8605635820628,128.623278750934
A10025779,빌리브범어,2726010100,대구광역시,수성구,범어동,,대구광역시 수성구 범어동 2253 빌리브범어,분양,개별난방,30717.0,5,227.0,신세계건설(주),광림디앤씨(주),0537565561,,아파트,대구광역시 수성구 청호로 418,위탁관리,혼합식,20190124,0537565562,227,24648.654,0.0,227.0,0.0,0.0,19289.9921,19,19,1,0,42082,35.853702992371,128.639339162295
A10025982,범어라온프라이빗2차아파트,2726010100,대구광역시,수성구,범어동,,대구광역시 수성구 범어동 2252 범어라온프라이빗2차아파트,분양,개별난방,34007.094,5,206.0,라온건설(주),지에이산업(주),0537565353,,아파트,대구광역시 수성구 청호로 438,위탁관리,계단식,20181019,0537565354,206,21749.322,0.0,206.0,0.0,0.0,17118.6626,20,20,3,8,42081,35.8555801457432,128.641438265685
A10026472,범어효성해링턴플레이스,2726010100,대구광역시,수성구,범어동,,대구광역시 수성구 범어동 75-2 범어효성해링턴플레이스,분양,개별난방,25749.521,2,179.0,효성해링턴플레이스,삼오아파트주택재건축정비사업조합,0537442255,,아파트,대구광역시 수성구 청호로 433,위탁관리,계단식,20180209,0537442256,179,17576.87,60.0,119.0,0.0,0.0,13307.089,20,20,2,5,42091,35.8555923411766,128.64004399988
A10026674,마크팰리스 범어,2726010100,대구광역시,수성구,범어동,,대구광역시 수성구 범어동 177-3 마크팰리스 범어,분양,개별난방,11622.26,1,160.0,영동건설,코람코자산신탁,0537954001,,주상복합,대구광역시 수성구 동대구로 336,위탁관리,복도식,20171026,0537217871,160,11622.233,160.0,0.0,0.0,0.0,6315.152,20,20,6,0,42028,35.8604190477247,128.627526814263
A10026932,브라운스톤 범어,2726010100,대구광역시,수성구,범어동,,대구광역시 수성구 범어동 175-1 브라운스톤 범어,분양,개별난방,79990.69,1,180.0,이수건설,이수건설,0539454500,br9454500.aptner.com,주상복합,대구광역시 수성구 동대구로 354,위탁관리,계단식,20170630,0537104070,180,20968.986,0.0,180.0,0.0,0.0,15277.563,36,36,6,0,42027,35.8616982697244,128.627748914956
A10027287,범어라온프라이빗,2726010100,대구광역시,수성구,범어동,,대구광역시 수성구 범어동 2248 범어라온프라이빗,분양,개별난방,33172.836,3,175.0,(주)라온건설,유니크건설,0537810664,,주상복합,대구광역시 수성구 동대구로55길 11,위탁관리,계단식,20161111,0532480665,175,19538.697,0.0,175.0,0.0,0.0,14855.6015,20,20,2,1,42118,35.8544844722339,128.623806547406
A10027870,e편한세상범어,2726010100,대구광역시,수성구,범어동,,대구광역시 수성구 범어동 1601 e편한세상범어,분양,개별난방,128928.766,10,842.0,(주) 삼호,(주) 하나자산신탁,0537466767,,아파트,대구광역시 수성구 들안로78길 45,위탁관리,계단식,20150921,0537460550,842,91585.89,64.0,778.0,0.0,0.0,69833.1084,29,29,2,0,42010,35.8674026766576,128.619100660373
A70601001,범어동일하이빌아파트,2726010100,대구광역시,수성구,범어동,,대구광역시 수성구 범어동 897 범어동일하이빌아파트,분양,개별난방,59980.85,2,228.0,동일하이빌,동일하이빌,0537512460,,아파트,대구광역시 수성구 동대구로52길 55,위탁관리,계단식,20070903,0537512465,228,43011.44,0.0,0.0,0.0,228.0,36184.2232,20,20,0,7,42100,35.8540377940904,128.628352065688
A70601002,코오롱하늘채수,2726010100,대구광역시,수성구,범어동,,대구광역시 수성구 범어동 792-19 코오롱하늘채수,분양,개별난방,45384.805,2,215.0,코오롱건설(주),(주)다산리츠건설,0537439900,,주상복합,대구광역시 수성구 범어천로 126,자치관리,계단식,20050727,0537449901,215,39469.12,0.0,0.0,102.0,113.0,31039.1059,32,32,1,2,42117,35.8579710282751,128.622996627506
A70601003,월드메르디앙이스턴카운티,2726010100,대구광역시,수성구,범어동,,대구광역시 수성구 범어동 2100 월드메르디앙이스턴카운티,분양,개별난방,54091.06,3,260.0,월드건설,(주)진성디앤씨,0537422282,cafe.naver.com/worldmeridianeastern,아파트,대구광역시 수성구 범어천로 190,자치관리,계단식,20080429,0537422281,260,39024.77,0.0,87.0,113.0,60.0,29795.1013,15,15,3,10,42015,35.8637180053503,128.62174572292
A70601005,범어쌍용예가,2726010100,대구광역시,수성구,범어동,,대구광역시 수성구 범어동 808 범어쌍용예가,분양,중앙난방,84718.836,4,400.0,(주)쌍용건설,(주)램코,0537411704,,아파트,대구광역시 수성구 명덕로 477,위탁관리,계단식,20090220,0537411705,400,62630.46,0.0,37.0,262.0,101.0,49724.4176,28,28,2,11,42116,35.8547582060881,128.62194131337
A70601006,범어SKVIEW아파트,2726010100,대구광역시,수성구,범어동,,대구광역시 수성구 범어동 2234 범어SKVIEW아파트,분양,개별난방,78705.0,6,444.0,SK건설,대공원재건축정비사업조합,0537430086,,아파트,대구광역시 수성구 범어로 75,위탁관리,계단식,20090224,0537438786,444,54817.88,0.0,333.0,107.0,4.0,41675.9961,21,21,2,14,42094,35.8562447618328,128.634881365496
A70601007,범어롯데캐슬,2726010100,대구광역시,수성구,범어동,,대구광역시 수성구 범어동 380 범어롯데캐슬,분양,개별난방,56078.0,4,219.0,롯데건설(주),롯데쇼핑(주),0537450379,,아파트,대구광역시 수성구 동대구로 300,위탁관리,계단식,20091126,0537460379,219,34142.15,0.0,76.0,89.0,54.0,24945.31,30,30,2,6,42098,35.8567834085442,128.627040472921
A70601008,범어삼성쉐르빌아파트,2726010100,대구광역시,수성구,범어동,,대구광역시 수성구 범어동 77-7 범어삼성쉐르빌아파트,분양,개별난방,36754.0,3,213.0,삼성중공업,세인트힐,0537420079,,아파트,대구광역시 수성구 청호로 426,위탁관리,계단식,20100120,0537428879,213,25838.01,0.0,113.0,100.0,0.0,20641.2705,17,17,2,0,42081,35.8548168999906,128.640744316186
A70601009,두산위브더제니스,2726010100,대구광역시,수성구,범어동,,대구광역시 수성구 범어동 179 두산위브더제니스,분양,중앙난방,429152.7,9,1494.0,두산건설,해피하제,0537596226,,주상복합,대구광역시 수성구 달구벌대로 2435,위탁관리,계단식,20091224,0537596225,1494,304082.94,0.0,0.0,300.0,1194.0,236466.9981,54,54,5,26,42028,35.8602076090088,128.628918530931
A70601010,범어STXKAN,2726010100,대구광역시,수성구,범어동,,대구광역시 수성구 범어동 800-3 범어STXKAN,분양,개별난방,55054.84,4,299.0,stx 건설(주),리데코개발(주),0537596260,범어stxkan.apti.co.kr,아파트,대구광역시 수성구 범어천로 107,위탁관리,계단식,20100930,0537596261,299,38475.51,0.0,166.0,125.0,8.0,30000.7093,30,30,2,8,42116,35.8561506383709,128.62166848223
A70601011,범어역아이워시타워,2726010100,대구광역시,수성구,범어동,,대구광역시 수성구 범어동 792-43 범어역아이워시타워,분양,개별난방,13765.0,1,178.0,JY건설(주),(주)아름,0537532939,,주상복합,대구광역시 수성구 동대구로59길 14-19,위탁관리,복도식,20131018,0537532940,178,6845.8623,178.0,0.0,0.0,0.0,6845.8622,20,20,1,0,42117,35.8581161553744,128.623573552275
A70601012,범어화산샬레,2726010100,대구광역시,수성구,범어동,,대구광역시 수성구 범어동 2238 범어화산샬레,분양,개별난방,24306.87,2,169.0,화산건설주식회사,평광앙파트재건축정비사업조합,0537510013,,아파트,대구광역시 수성구 청호로 411-3,위탁관리,혼합식,20140530,0537510607,169,17497.848,20.0,126.0,23.0,0.0,13463.4736,20,20,0,0,42093,35.8538795426833,128.63779201395
A70601013,범어풀비체,2726010100,대구광역시,수성구,범어동,,대구광역시 수성구 범어동 2236 범어풀비체,분양,개별난방,22611.57,1,138.0,(주)고려주택,뉴대공원 재건축조합,0537443663,,아파트,,위탁관리,계단식,20130225,0537443664,138,15298.169,0.0,138.0,0.0,0.0,11503.1906,18,18,2,4,,35.8545728145864,128.634965471228
A70601102,태왕유성하이빌,2726010100,대구광역시,수성구,범어동,,대구광역시 수성구 범어동 614-3 태왕유성하이빌,분양,개별난방,44903.11,2,277.0,(주) 태왕,유성공영,0537466143,,아파트,대구광역시 수성구 동대구로 250,위탁관리,계단식,20030425,0537596143,277,28053.922,0.0,198.0,60.0,19.0,28045.1221,20,20,2,7,42101,35.8529289872303,128.626153331715
A70601105,궁전맨션,2726010100,대구광역시,수성구,범어동,,대구광역시 수성구 범어동 371 궁전맨션,분양,개별난방,77056.81,5,538.0,(주)우방주택,(주)우방주택,0532148439,,아파트,대구광역시 수성구 동대구로 274,자치관리,계단식,19880613,0537538440,538,75342.15,0.0,231.0,251.0,56.0,61111.53,15,15,0,19,42099,35.8548195972445,128.626724491057
A70601301,범어화성파크리젠시,2726010100,대구광역시,수성구,범어동,,대구광역시 수성구 범어동 43-5 범어화성파크리젠시,분양,개별난방,41488.0,1,153.0,화성산업(주),(주)신아주택,0537413443,,주상복합,대구광역시 수성구 동대구로 337,위탁관리,계단식,20070430,0532952337,153,26117.201,0.0,0.0,101.0,52.0,19599.4832,30,30,3,0,42019,35.8606969088557,128.625767148715
A70601409,장원맨션,2726010100,대구광역시,수성구,범어동,,대구광역시 수성구 범어동 103 장원맨션,분양,개별난방,58206.0,4,455.0,우방,(주)우방주택,0537531959,,아파트,대구광역시 수성구 청호로 370,자치관리,계단식,19881112,0532141959,455,46228.78,0.0,247.0,208.0,0.0,46228.78,13,13,0,18,42082,35.8510009337725,128.639450887335
A70671501,범어숲화성파크드림S,2726010100,대구광역시,수성구,범어동,,대구광역시 수성구 범어동 2237 범어숲화성파크드림S,분양,개별난방,88742.0,4,404.0,화성산업(주),파크플러스,0537411871,,주상복합,대구광역시 수성구 동대구로 376,위탁관리,계단식,20130925,0537411872,404,37071.29,0.0,219.0,183.0,2.0,37071.2885,34,34,4,12,42020,35.8642742389839,128.628023565264
A70672608,래미안 범어,2726010100,대구광역시,수성구,범어동,,대구광역시 수성구 범어동 2030 래미안 범어,분양,개별난방,101686.73,5,467.0,삼성물산주식회사,삼성물산주식회사,0537451009,없음,아파트,대구광역시 수성구 상록로 69,위탁관리,계단식,20080626,0537454009,467,60086.387,0.0,0.0,391.0,76.0,60086.386,23,23,2,13,42011,35.8653012886503,128.622674606248
A70672609,범어역우방유쉘아파트,2726010100,대구광역시,수성구,범어동,,대구광역시 수성구 범어동 35-1 범어역우방유쉘아파트,분양,개별난방,68874.25,1,292.0,(주)우방,대한토지신탁,0537468648,,아파트,대구광역시 수성구 동대구로 345,위탁관리,혼합식,20090929,0537468649,292,44026.227,0.0,0.0,219.0,73.0,35936.951,42,42,3,0,42013,35.8616255684714,128.625844457599
A70677101,서한두레맨션,2726010100,대구광역시,수성구,범어동,,대구광역시 수성구 범어동 305-3 서한두레맨션,분양,개별난방,18703.45,2,156.0,서한,서한,0537519336,,아파트,대구광역시 수성구 달구벌대로496길 72,자치관리,계단식,19930519,0537569336,156,17800.97,0.0,139.0,17.0,0.0,14074.16,17,17,1,5,42105,35.8523801005994,128.63464549098
A70677110,3차가든하이츠,2726010100,대구광역시,수성구,범어동,,대구광역시 수성구 범어동 333 3차가든하이츠,분양,개별난방,47435.94,6,282.0,(주)청구,(주)청구,0537518083,,아파트,대구광역시 수성구 청호로 365,자치관리,계단식,19900503,0537518084,282,47206.617,0.0,60.0,156.0,66.0,38916.54,15,15,0,11,42107,35.8487660967126,128.637317482923
A70677203,서한을지맨션,2726010100,대구광역시,수성구,범어동,,대구광역시 수성구 범어동 314-2 서한을지맨션,분양,개별난방,253491808.0,3,213.0,(주)서한,(주)서한,0537562977,,아파트,대구광역시 수성구 달구벌대로496길 88,위탁관리,계단식,19871015,0537562977,213,23967.0,0.0,141.0,72.0,0.0,19449.936,12,12,1,9,42105,35.8512387559577,128.634821407201
A70681605,범어태왕아너스,2726010100,대구광역시,수성구,범어동,,대구광역시 수성구 범어동 475-6 범어태왕아너스,분양,개별난방,44099.0,4,299.0,(주)태왕,우성,0537554756,,아파트,대구광역시 수성구 상록로 41,위탁관리,계단식,20060627,0537541167,299,37386.38,0.0,220.0,79.0,0.0,28902.0006,26,26,0,7,42014,35.8633494484087,128.623099326582
A70681902,우방청솔맨션,2726010100,대구광역시,수성구,범어동,,대구광역시 수성구 범어동 88 우방청솔맨션,분양,개별난방,23334.0,1,194.0,(주)우방,(주)우방,0537524964,,아파트,대구광역시 수성구 청호로 422,자치관리,혼합식,19940811,0537524967,194,13730.88,110.0,84.0,0.0,0.0,13730.88,22,22,2,4,42082,35.8541068152736,128.640195706348
A70681905,범어청구하이츠,2726010100,대구광역시,수성구,범어동,,대구광역시 수성구 범어동 88-6 범어청구하이츠,분양,개별난방,39586.91,4,240.0,청구,청구,0537443767,,아파트,대구광역시 수성구 청호로84안길 2,위탁관리,계단식,20001213,0532143767,240,31161.053,57.0,107.0,36.0,40.0,24808.65,20,20,1,7,42083,35.8539651562953,128.641330472873
A70682204,가든하이츠1단지,2726010100,대구광역시,수성구,범어동,,대구광역시 수성구 범어동 300 가든하이츠1단지,분양,개별난방,29477.71,4,220.0,(주)청구,(주)청구,0537431676,,아파트,대구광역시 수성구 범어로 45,자치관리,계단식,19851216,0537431677,225,28498.28,0.0,130.0,90.0,0.0,22669.05,10,10,1,12,42106,35.8534035964366,128.635242760023
A70682207,경남타운,2726010100,대구광역시,수성구,범어동,,대구광역시 수성구 범어동 320 경남타운,분양,개별난방,40246.3,5,312.0,경남건설,경남 건설,0537550548,,아파트,대구광역시 수성구 범어로 27,자치관리,계단식,19820622,0532140548,312,36971.9,0.0,192.0,120.0,0.0,30109.8,12,12,1,13,42106,35.8517220898695,128.635784025027
A70682504,범어청구푸른마을,2726010100,대구광역시,수성구,범어동,,대구광역시 수성구 범어동 614-100 범어청구푸른마을,분양,개별난방,56384.0,5,378.0,(주)청구,"범어연립재건축조합,(주)청구",0537430122,,아파트,대구광역시 수성구 동대구로 240,위탁관리,혼합식,20001230,0537441515,378,44293.074,79.0,188.0,111.0,0.0,35635.3625,20,20,2,0,42102,35.8519287064144,128.626653581549
A70682506,범어유림노르웨이숲,2726010100,대구광역시,수성구,범어동,,대구광역시 수성구 범어동 906-1 범어유림노르웨이숲,분양,개별난방,136937.0,9,576.0,유림종합건설(주),유림종합건설(주),0537554245,,아파트,대구광역시 수성구 동대구로50길 37,자치관리,계단식,20061002,0537554247,576,94343.805,0.0,90.0,296.0,190.0,77647.1902,24,24,2,14,42101,35.8524015311651,128.628403167152
A70682603,수성태왕아너스,2726010100,대구광역시,수성구,범어동,,대구광역시 수성구 범어동 1266 수성태왕아너스,분양,개별난방,25146.0,2,179.0,범어개발,태왕,0537441266,,아파트,대구광역시 수성구 들안로77길 30,위탁관리,계단식,20071024,0537441296,179,19273.5,0.0,179.0,0.0,0.0,15170.5402,20,20,2,4,42001,35.8653672916981,128.617326675899
A70682604,범어화성파크드림,2726010100,대구광역시,수성구,범어동,,대구광역시 수성구 범어동 2148 범어화성파크드림,분양,개별난방,29490.28,2,179.0,(주)화성개발,(주)아름,0537442148,,아파트,대구광역시 수성구 범어천로 180,자치관리,계단식,20060217,0537442147,179,22991.35,0.0,111.0,68.0,0.0,17996.2874,19,19,2,2,42018,35.8626936900399,128.622512286476
A70682606,청구성조타운,2726010100,대구광역시,수성구,범어동,,대구광역시 수성구 범어동 2017 청구성조타운,분양,개별난방,56470.6,3,445.0,주.청구,주.성조주택,0537517664,,아파트,대구광역시 수성구 국채보상로 846,위탁관리,혼합식,19960622,0537547664,475,42782.125,195.0,212.0,38.0,0.0,34410.205,20,20,0,2,42011,35.8666322251237,128.623031547896
A70682607,범어월드메르디앙 웨스턴카운티,2726010100,대구광역시,수성구,범어동,,대구광역시 수성구 범어동 966-1 범어월드메르디앙 웨스턴카운티,분양,개별난방,128892.99,7,600.0,월드건설,(주)쎄븐산업개발,0537591113,,아파트,대구광역시 수성구 범어천로 200,위탁관리,계단식,20080625,0532956690,600,95051.99,0.0,92.0,376.0,132.0,76132.21,25,25,2,14,42015,35.8643405869911,128.620277937455
A10021035,힐스테이트 만촌역,2726010200,대구광역시,수성구,만촌동,,대구광역시 수성구 만촌동 1032-1 힐스테이트 만촌역,분양,개별난방,152760.2,6,658.0,현대엔지니어링,한국자산신탁(웰메이드하우징),0537567560,,주상복합,대구광역시 수성구 달구벌대로 2567,위탁관리,계단식,20241219,0537567570,658,92285.79,0.0,365.0,0.0,293.0,69541.5392,31,31,4,26,,35.8601602956744,128.644572309696
A10021219,만촌월드메르디앙,2726010200,대구광역시,수성구,만촌동,,대구광역시 수성구 만촌동 1037-7 만촌월드메르디앙,분양,개별난방,30565.0,1,124.0,(주)월드건설,(주)월드건설,0537542585,,주상복합,대구광역시 수성구 달구벌대로 2583,위탁관리,계단식,20070119,0537543585,124,27383.494,0.0,0.0,124.0,0.0,13861.1876,1,29,4,2,,35.8592395638901,128.645377990555
A10021851,수성풀비체아파트,2726010200,대구광역시,수성구,만촌동,,대구광역시 수성구 만촌동 641- 수성풀비체아파트,분양,개별난방,17368.0,2,106.0,(주)고려주택,(주)고려주택,0537417117,,아파트,대구광역시 수성구 화랑로32길 91,위탁관리,계단식,20070907,,106,2711.8591,0.0,74.0,32.0,0.0,10019.2128,8,8,1,0,,35.8720167904317,128.645627023465
A10021964,럭키골든맨션,2726010200,대구광역시,수성구,만촌동,,대구광역시 수성구 만촌동 245- 럭키골든맨션,분양,개별난방,19546.33,1,220.0,동신건설(주),미도건축연구소,0539422133,,아파트,대구광역시 수성구 효행로 24,자치관리,계단식,19851224,0539422133,240,18880.2,0.0,220.0,0.0,0.0,17326.2,5,5,0,0,,35.875960391151,128.649800434265
A10022040,만촌역 서한포레스트,2726010200,대구광역시,수성구,만촌동,,대구광역시 수성구 만촌동 1040-12 만촌역 서한포레스트,분양,개별난방,0.0,1,102.0,(주)서한,엠에이디엔씨,0537521011,,,대구광역시 수성구 달구벌대로 2606,위탁관리,계단식,20221206,0537591011,102,11931.747,0.0,100.0,0.0,2.0,8818.399,28,28,6,0,,35.8578709739221,128.647149074959
A10022458,만촌역 태왕디아너스,2726010200,대구광역시,수성구,만촌동,,대구광역시 수성구 만촌동 1041-1 만촌역 태왕디아너스,분양,개별난방,122383.0,7,450.0,주)태왕,주)티에스티홀딩스,0537463005,,주상복합,대구광역시 수성구 달구벌대로 2599,위탁관리,계단식,20240731,0537463006,450,65281.387,0.0,235.0,108.0,107.0,49319.6158,28,28,0,10,,35.859494695632,128.647059798918
A10022503,만촌화성파크드림 2차,2726010200,대구광역시,수성구,만촌동,,대구광역시 수성구 만촌동 861-8 만촌화성파크드림 2차,분양,개별난방,19434.0,1,103.0,(주)화성개발,(주)C.M.K건설,0532950791,,주상복합,대구광역시 수성구 달구벌대로 2690,위탁관리,계단식,20060831,0537440791,103,12862.868,0.0,60.0,40.0,3.0,9956.5938,23,23,3,3,,35.8539985955544,128.654925701476
A10023400,만촌역 해링턴플레이스,2726010200,대구광역시,수성구,만촌동,,대구광역시 수성구 만촌동 1040-1 만촌역 해링턴플레이스,분양,개별난방,51419.0,2,152.0,효성중공업(주),(주)SM코퍼레이션,0537447740,,주상복합,대구광역시 수성구 청호로 490,위탁관리,계단식,20230207,0537447741,152,17316.62,0.0,152.0,0.0,0.0,12783.7684,27,27,6,6,42067,35.8580871526005,128.645906879549
A10023402,만촌자이르네,2726010200,대구광역시,수성구,만촌동,,대구광역시 수성구 만촌동 1489 만촌자이르네,분양,개별난방,94561.87,6,607.0,자이에스앤디(주),경주건설(주),0537102557,mcxirene.xisnd.co.kr/,아파트,대구광역시 수성구 교학로19길 19,위탁관리,계단식,20230117,0537102558,607,64259.746,0.0,607.0,0.0,0.0,50658.4549,26,26,2,16,42076,35.8486910000555,128.650451016923
A10025194,만촌삼정그린코아에듀파크,2726010200,대구광역시,수성구,만촌동,,대구광역시 수성구 만촌동 881 만촌삼정그린코아에듀파크,분양,개별난방,128014.875,10,774.0,삼정기업,삼정이앤씨,0537557200,,아파트,대구광역시 수성구 교학로 65,위탁관리,계단식,20191114,0537557201,774,89148.39,0.0,647.0,127.0,0.0,69044.2707,22,22,2,27,42074,35.8502079005818,128.652383709475
A10027578,만촌3차화성파크드림,2726010200,대구광역시,수성구,만촌동,,대구광역시 수성구 만촌동 860-1 만촌3차화성파크드림,분양,개별난방,64967.67,5,410.0,(주)화성,만촌서한아파트재전축조합,0539454700,,아파트,대구광역시 수성구 교학로 13,위탁관리,계단식,20160421,0539454701,410,44649.434,34.0,342.0,34.0,0.0,67809.7032,22,22,2,12,42070,35.8536375886332,128.65347379584
A70602003,만촌화성파크스위트,2726010200,대구광역시,수성구,만촌동,,대구광역시 수성구 만촌동 272 만촌화성파크스위트,분양,개별난방,37979.58,4,291.0,락산하우징(주),화성산업(주),0539450272,cafe.daum.net/parksuite,아파트,대구광역시 수성구 화랑로34길 141,위탁관리,계단식,20050225,0532420272,291,33121.62,0.0,291.0,0.0,0.0,24703.6593,15,15,0,11,42064,35.8741402043156,128.653318211418
A70602005,만촌태왕리더스,2726010200,대구광역시,수성구,만촌동,,대구광역시 수성구 만촌동 995-1 만촌태왕리더스,분양,개별난방,58981.69,7,433.0,(주)태왕,만촌AID아파트재건축조합,0537553277,만촌태왕리더스.apti.co.kr/,아파트,대구광역시 수성구 무열로 47,위탁관리,계단식,20041230,0537551168,433,48020.72,112.0,237.0,84.0,0.0,36707.5786,15,15,1,12,42060,35.8634819917691,128.648574496199
A70602103,메트로팔레스5단지,2726010200,대구광역시,수성구,만촌동,,대구광역시 수성구 만촌동 1429-5 메트로팔레스5단지,분양,개별난방,111932.85,7,689.0,(주)롯데건설,kb부동산신탁(주),0537455637,mp5.or.kr,아파트,대구광역시 수성구 동원로 100,위탁관리,계단식,20030128,0537455638,689,87862.734,0.0,529.0,160.0,0.0,64109.95,22,22,3,19,42042,35.868513126342,128.640189038769
A70602104,메트로팔레스1단지,2726010200,대구광역시,수성구,만촌동,,대구광역시 수성구 만촌동 1356-3 메트로팔레스1단지,분양,개별난방,175524.27,8,804.0,롯데건설,KB부동산신탁,0537526618,,아파트,대구광역시 수성구 동원로 135,위탁관리,계단식,20030128,0537526637,804,97328.44,0.0,198.0,542.0,64.0,97328.44,20,20,3,28,42038,35.8699526825849,128.634803047099
A70602106,메트로팔레스3단지,2726010200,대구광역시,수성구,만촌동,,대구광역시 수성구 만촌동 1429 메트로팔레스3단지,분양,개별난방,152778.12,9,878.0,(주)롯데건설,"KB부동산신탁, 우방",0537455642,lottemp3.com,아파트,대구광역시 수성구 동원로 110,위탁관리,계단식,20030128,0537455643,878,89041.08,0.0,514.0,364.0,0.0,89041.08,22,22,3,27,42041,35.8696764702253,128.638758248146
A70602301,우방금탑,2726010200,대구광역시,수성구,만촌동,,대구광역시 수성구 만촌동 860 우방금탑,분양,개별난방,14677.35,1,152.0,우방,우방,0537556549,an,아파트,대구광역시 수성구 교학로 3,위탁관리,복도식,19861025,0537556529,152,14323.984,0.0,152.0,0.0,0.0,10563.2,12,12,0,2,42070,35.854229061849,128.653580942543
A70671101,만촌우방팔레스,2726010200,대구광역시,수성구,만촌동,,대구광역시 수성구 만촌동 775 만촌우방팔레스,분양,개별난방,34170.48,4,174.0,(주)우방,다올컨설팅,0537510130,,아파트,대구광역시 수성구 청수로 551,자치관리,계단식,20051007,0537510140,178,20120.543,0.0,38.0,108.0,28.0,20120.5422,15,15,2,7,42071,35.851917705619,128.658492210253
A70671102,수성아크로타워,2726010200,대구광역시,수성구,만촌동,,대구광역시 수성구 만촌동 1039-4 수성아크로타워,분양,개별난방,59664.42,1,224.0,대림,굿라이프 개발,0537461141,,주상복합,대구광역시 수성구 달구벌대로 2570,위탁관리,계단식,20080528,0537461145,224,38215.71,0.0,0.0,112.0,112.0,29797.488,30,30,3,2,42090,35.8583161008452,128.64417200606
A70675904,만촌2차우방타운,2726010200,대구광역시,수성구,만촌동,,대구광역시 수성구 만촌동 777 만촌2차우방타운,분양,개별난방,46888.0,6,390.0,(주)우방,(주)우방,0537440580,,아파트,대구광역시 수성구 교학로11길 91,자치관리,계단식,19961129,0532140580,390,41151.15,180.0,120.0,90.0,0.0,32560.5,15,15,1,13,42072,35.8504352990645,128.657633068769
A70675906,만촌1차우방타운,2726010200,대구광역시,수성구,만촌동,,대구광역시 수성구 만촌동 816 만촌1차우방타운,분양,중앙난방,173315.67,14,1224.0,우방,우방,0537535898,,아파트,대구광역시 수성구 교학로11길 46,자치관리,계단식,19970527,0537535922,1224,148623.05,504.0,432.0,144.0,144.0,114877.872,18,18,0,34,42073,35.8491809765133,128.65495551319
A70676003,산장맨션,2726010200,대구광역시,수성구,만촌동,,대구광역시 수성구 만촌동 1172-1 산장맨션,분양,개별난방,25768.0,3,216.0,(주) 동방,고려주택,0537536577,산장맨션.apti.co.kr/,아파트,대구광역시 수성구 교학로 111,자치관리,계단식,19900928,0537536577,216,25547.04,0.0,156.0,60.0,0.0,20164.68,10,10,1,11,42076,35.8475349932924,128.650229932503
A70679901,수성누리빌데시앙,2726010200,대구광역시,수성구,만촌동,,대구광역시 수성구 만촌동 1430-8 수성누리빌데시앙,사택 및 관사 등,개별난방,34497.0,13,280.0,태영건설,충무주식회사,0537428551,,아파트,대구광역시 수성구 국채보상로 1019,위탁관리,계단식,20120327,0537428553,280,25559.0,0.0,100.0,180.0,0.0,25559,7,0,0,17,42043,35.8670355130165,128.640975507369
A70680305,메트로팔레스2단지,2726010200,대구광역시,수성구,만촌동,,대구광역시 수성구 만촌동 1356-7 메트로팔레스2단지,분양,개별난방,180547.0,9,869.0,롯데건설(주),KB부동산,0537515905,,아파트,대구광역시 수성구 동원로 123,위탁관리,계단식,20030128,0537515912,869,101569.28,0.0,400.0,272.0,197.0,101569.28,22,22,3,4,42040,35.8691450977785,128.636099062093
A70680402,만촌보성타운,2726010200,대구광역시,수성구,만촌동,,대구광역시 수성구 만촌동 605 만촌보성타운,분양,개별난방,88979.586,6,661.0,보성,시영 효목아파트 재건축 조합,0532181245,,아파트,대구광역시 수성구 공경로 70,위탁관리,혼합식,20020710,0537521435,661,71313.76,269.0,250.0,142.0,0.0,55526.29,15,15,2,19,42032,35.8735912268964,128.643477106368
A70680702,만촌한화꿈에그린,2726010200,대구광역시,수성구,만촌동,,대구광역시 수성구 만촌동 811-49 만촌한화꿈에그린,분양,개별난방,27796.27,2,178.0,한화건설,한화건설,0537518121,,아파트,대구광역시 수성구 교학로7길 77,위탁관리,계단식,20060210,0537448121,178,23376.74,0.0,76.0,102.0,0.0,18664.099,20,20,3,5,42072,35.8505410358612,128.656565819706
A70680805,수성2차e-편한세상,2726010200,대구광역시,수성구,만촌동,,대구광역시 수성구 만촌동 1046-10 수성2차e-편한세상,분양,개별난방,86414.22,8,447.0,대림산업,(주)코보스톤,0537414020,apt4020@daum.net,아파트,대구광역시 수성구 달구벌대로522길 33,위탁관리,계단식,20070411,0537434020,448,66733.0,0.0,121.0,234.0,92.0,53846.2589,24,24,2,19,42078,35.8556133080406,128.647921161008
A10021123,수성자이르네,2726010300,대구광역시,수성구,수성동1가,,대구광역시 수성구 수성동1가 894 수성자이르네,분양,개별난방,34405.29,5,219.0,자이에스앤디(주),수성동1가 가로주택정비사업조합,0537626500,,주상복합,대구광역시 수성구 수성로 295,위탁관리,계단식,20241128,0537626501,223,20338.35,120.0,99.0,0.0,0.0,15561.8248,20,20,2,8,,35.851780804061,128.612431501255
A10021957,수성삼익맨션,2726010300,대구광역시,수성구,수성동1가,,대구광역시 수성구 수성동1가 649-55 수성삼익맨션,분양,개별난방,10038.0,1,100.0,삼익,삼익,0537623410,,다세대,대구광역시 수성구 신천동로 278,자치관리,복도식,19781214,,100,9772.2,12.0,88.0,0.0,0.0,7193.89,1,12,0,1,,35.8496274104883,128.608803557444
A10022952,더샵수성오클레어,2726010300,대구광역시,수성구,수성동1가,,대구광역시 수성구 수성동1가 649-19 더샵수성오클레어,분양,개별난방,48730.0,6,303.0,포스코,(주)에이치알세영,0537672250,,아파트,대구광역시 수성구 희망로19길 29,위탁관리,계단식,20231010,0537632250,303,30256.867,73.0,230.0,0.0,0.0,23238.7548,19,19,2,11,42137,35.8490901027206,128.608739683646
A10023546,수성서한이다음,2726010300,대구광역시,수성구,수성동1가,,대구광역시 수성구 수성동1가 269-1 수성서한이다음,분양,개별난방,17009.0,1,119.0,(주)서한,"(주)서한,수성1가 재건축조합",0537552466,,아파트,대구광역시 수성구 수성로69길 15,자치관리,계단식,20050629,0532905079,119,14619.923,0.0,77.0,42.0,0.0,11438.3612,23,23,1,3,42126,35.8548933190261,128.612870230702
A10027861,대구수성롯데캐슬더퍼스트,2726010300,대구광역시,수성구,수성동1가,,대구광역시 수성구 수성동1가 249-139 대구수성롯데캐슬더퍼스트,분양,개별난방,165827.84,15,979.0,롯데건설(주),수성1가주택재건축정비사업조합,0537413651,수성롯데캐슬더퍼스트.apti.co.kr,아파트,대구광역시 수성구 수성로69길 65,위탁관리,계단식,20150828,0537410046,995,87911.36,0.0,680.0,299.0,0.0,88063.7537,25,25,2,0,42127,35.8549836853854,128.610070416449
A70603108,태왕하이츠리버뷰,2726010300,대구광역시,수성구,수성동1가,,대구광역시 수성구 수성동1가 93-1 태왕하이츠리버뷰,분양,개별난방,43298.21,4,288.0,(주)태왕,(주)태왕,0537590070,,아파트,대구광역시 수성구 달구벌대로454길 9,위탁관리,계단식,20040206,0532190069,288,37051.453,0.0,154.0,102.0,32.0,29870.9122,19,19,1,9,42129,35.8591893366324,128.610438759245
A70683101,수성그린타운,2726010300,대구광역시,수성구,수성동1가,,대구광역시 수성구 수성동1가 112-7 수성그린타운,분양,개별난방,26233.0,2,201.0,(주)보선건설,대구도시공사,0537599449,,아파트,대구광역시 수성구 달구벌대로458길 17,자치관리,계단식,20050712,0537599451,201,19226.537,107.0,74.0,20.0,0.0,14902.3778,21,21,2,6,42122,35.858915267676,128.613046920707
A70683102,수성동양엘레브,2726010300,대구광역시,수성구,수성동1가,,대구광역시 수성구 수성동1가 629-12 수성동양엘레브,분양,개별난방,34381.58,2,209.0,동양메이저,(주)동양건설,0537553051,dyeleve.co.kr,아파트,대구광역시 수성구 명덕로73길 40,자치관리,계단식,20060630,0537423051,209,26034.91,23.0,93.0,93.0,0.0,20812.3861,25,25,1,0,42128,35.8564052351335,128.61148861293
A70683103,수성대백인터빌,2726010300,대구광역시,수성구,수성동1가,,대구광역시 수성구 수성동1가 259-40 수성대백인터빌,분양,개별난방,29321.951,1,235.0,(주)대백종합건설,(주)대백종합건설,0537568420,,아파트,대구광역시 수성구 수성로69길 14,자치관리,계단식,20031128,0537568413,235,23293.35,78.0,147.0,10.0,0.0,18282.9982,15,15,1,9,42122,35.8564312196491,128.612540522028
A70683104,유성푸르나임,2726010300,대구광역시,수성구,수성동1가,,대구광역시 수성구 수성동1가 230 유성푸르나임,분양,개별난방,35019.94,5,235.0,(주) 유성건설,대한토지신탁,0537412209,,아파트,대구광역시 수성구 수성로75길 16,위탁관리,계단식,20070813,0532957077,235,26124.42,0.0,235.0,0.0,0.0,19966.1354,26,26,0,6,42122,35.8576441339216,128.613153002829
A70683105,수성영남타운,2726010300,대구광역시,수성구,수성동1가,,대구광역시 수성구 수성동1가 105-5 수성영남타운,분양,개별난방,26593.42,1,246.0,영남건설,영남건설재건축조합,0537450275,,아파트,대구광역시 수성구 달구벌대로456길 43,위탁관리,혼합식,20000217,0532955711,246,23039.346,109.0,97.0,40.0,0.0,17158.91,20,20,0,4,42128,35.8575499761623,128.611681927366
A70683109,삼우1차수성타운,2726010300,대구광역시,수성구,수성동1가,,대구광역시 수성구 수성동1가 73 삼우1차수성타운,분양,개별난방,39907.7,3,292.0,삼우건축(주),삼우건축(주),0537451003,없음,아파트,대구광역시 수성구 달구벌대로456길 19,위탁관리,혼합식,19970919,0532141003,306,31978.422,117.0,119.0,56.0,0.0,24348.19,20,20,1,7,42121,35.8588684862605,128.611738733011
A70683110,우방오성타운,2726010300,대구광역시,수성구,수성동1가,,대구광역시 수성구 수성동1가 96-14 우방오성타운,분양,개별난방,59825.113,6,496.0,(주)우방,(주)우방,0537554761,,아파트,대구광역시 수성구 신천동로 380,위탁관리,혼합식,19931104,0532144761,496,54739.82,238.0,170.0,88.0,0.0,40602.94,25,25,2,10,42129,35.8588653619405,128.60923621668
A70683207,우방한가람타운,2726010300,대구광역시,수성구,수성동1가,,대구광역시 수성구 수성동1가 272-11 우방한가람타운,분양,개별난방,53136.09,1,272.0,우방,우방,0537617698,,주상복합,대구광역시 수성구 명덕로 368,자치관리,혼합식,19951226,0537677698,272,31947.104,112.0,96.0,64.0,0.0,23509.28,18,18,3,0,42130,35.8543562623878,128.61018823394
A70683211,신세계타운,2726010300,대구광역시,수성구,수성동1가,,대구광역시 수성구 수성동1가 613 신세계타운,분양,중앙난방,142362.0,11,930.0,(주)우방주택,(주)우방주택,0537667370,cafe.daum.net/taesoo-2,아파트,대구광역시 수성구 신천동로 320,자치관리,계단식,19891212,0532477370,930,116530.57,0.0,221.0,622.0,87.0,116530.57,15,15,1,33,42130,35.8529928032536,128.61066097976
A70690701,삼환아파트,2726010300,대구광역시,수성구,수성동1가,,대구광역시 수성구 수성동1가 649-17 삼환아파트,분양,개별난방,16125.0,1,150.0,삼환기업주식회사,삼환기업주식회사,0537630325,,아파트,대구광역시 수성구 신천동로 288,자치관리,복도식,19791220,0537620325,150,16123.0,2.0,128.0,20.0,0.0,11643.145,12,12,1,2,42137,35.8502844022977,128.609021269921
A70690702,태왕아너스클럽,2726010300,대구광역시,수성구,수성동1가,,대구광역시 수성구 수성동1가 96-322 태왕아너스클럽,분양,개별난방,23856.059,1,98.0,(주)태왕,(주)태왕,0537537114,,아파트,대구광역시 수성구 달구벌대로 2260,위탁관리,계단식,20051223,0537537014,98,12466.1455,0.0,0.0,75.0,23.0,12466.1455,26,26,3,3,42120,35.8603945683457,128.609527833197
A10022355,롬바드아파트,2726010400,대구광역시,수성구,수성동2가,,대구광역시 수성구 수성동2가 1-3 롬바드아파트,분양,개별난방,24053.0,1,108.0,한라주택,롬바드아파트주택건축조합,0537425801,,,대구광역시 수성구 들안로 325,위탁관리,계단식,20110722,0537420118,108,16596.217,0.0,14.0,30.0,64.0,13208.5916,18,18,2,4,,35.8589214864771,128.616813788827
A70683301,수성코오롱하늘채,2726010500,대구광역시,수성구,수성동3가,,대구광역시 수성구 수성동3가 289 수성코오롱하늘채,분양,개별난방,103844.195,6,439.0,코오롱,웰빙디앤씨,0537461026,,아파트,대구광역시 수성구 들안로 300,위탁관리,계단식,20090119,0537431026,439,75136.945,0.0,0.0,319.0,120.0,58809.3274,33,33,2,10,42119,35.8559827341124,128.618121732612
A70683303,수성3가롯데캐슬,2726010500,대구광역시,수성구,수성동3가,,대구광역시 수성구 수성동3가 57 수성3가롯데캐슬,분양,중앙난방,206211.27,8,802.0,롯데건설,대한토지신탁,0537450102,www.bestlotte.kr,아파트,대구광역시 수성구 명덕로 455,위탁관리,계단식,20081127,0537451018,802,144155.34,0.0,0.0,260.0,542.0,120350.2398,26,26,2,20,42119,35.8556069787821,128.619918738439
A70683304,수성3가화성파크1단지,2726010500,대구광역시,수성구,수성동3가,,대구광역시 수성구 수성동3가 130-1 수성3가화성파크1단지,분양,개별난방,68481.96,4,301.0,화성산업(주),대한토지신탁,0537545330,,아파트,대구광역시 수성구 들안로60길 17,위탁관리,계단식,20091126,0537445330,301,52893.938,0.0,0.0,156.0,145.0,43899.4092,22,22,1,8,42115,35.8578783634846,128.619794154064
A70683305,수성3가화성파크드림2단지,2726010500,대구광역시,수성구,수성동3가,,대구광역시 수성구 수성동3가 275 수성3가화성파크드림2단지,분양,개별난방,71014.01,4,314.0,화성산업,대한토지신탁,0537545330,,아파트,대구광역시 수성구 들안로60길 7,위탁관리,계단식,20091126,0537445330,314,55200.746,0.0,0.0,158.0,156.0,45920.5704,23,23,1,8,42115,35.8579700923542,128.618310463781
A10021348,빌리브 헤리티지,2726010600,대구광역시,수성구,수성동4가,,대구광역시 수성구 수성동4가 2266- 빌리브 헤리티지,분양,개별난방,41919.0,2,146.0,신세계건설,그라운드디홀딩스,0537420918,,아파트,대구광역시 수성구 들안로73길 20,위탁관리,계단식,20230821,0537420919,146,26521.684,0.0,0.0,0.0,146.0,22474.1618,29,29,2,4,,35.8642621509337,128.616863496114
A10022100,수성롯데캐슬,2726010600,대구광역시,수성구,수성동4가,,대구광역시 수성구 수성동4가 1085-28 수성롯데캐슬,분양,개별난방,32960.562,2,124.0,롯데건설,골든맨션재건축조합,0537420548,,주상복합,대구광역시 수성구 달구벌대로 2315,위탁관리,계단식,20080423,0537420549,124,20464.049,0.0,0.0,40.0,84.0,16562.2564,0,23,4,4,,35.8600281716013,128.615823140386
A70603302,수성대림e-편한세상,2726010600,대구광역시,수성구,수성동4가,,대구광역시 수성구 수성동4가 1115-16 수성대림e-편한세상,분양,개별난방,132118.0,8,664.0,대림산업,(주)대림산업,0537523200,,아파트,대구광역시 수성구 들안로 73,위탁관리,계단식,20050602,0537522103,664,100656.6,0.0,216.0,222.0,226.0,80115.9026,30,30,2,9,42162,35.8649530917702,128.614837867867
A70677701,수성우방팔레스,2726010600,대구광역시,수성구,수성동4가,,대구광역시 수성구 수성동4가 1090-1 수성우방팔레스,분양,개별난방,33247.0,1,188.0,우방,우방,0537411101,,아파트,대구광역시 수성구 수성로 400,자치관리,혼합식,20021101,0532141101,188,23590.373,43.0,70.0,75.0,0.0,17000.5777,20,20,2,2,42006,35.8610670157397,128.6149380262
A70677704,우방사랑마을,2726010600,대구광역시,수성구,수성동4가,,대구광역시 수성구 수성동4가 1090-7 우방사랑마을,분양,중앙난방,44903.746,3,342.0,우방주택,주식회사 신한산업,0537417737,,아파트,대구광역시 수성구 달구벌대로 2317,위탁관리,혼합식,19961023,0532177737,342,37497.79,169.0,90.0,43.0,40.0,28664.7,20,20,1,8,42006,35.8609961870355,128.616070283195
A70677705,수성화성쌍용타운,2726010600,대구광역시,수성구,수성동4가,,대구광역시 수성구 수성동4가 1090-5 수성화성쌍용타운,분양,중앙난방,94980.92,5,677.0,"화성산업(주), 쌍용건설(주)","화성산업(주), 쌍용건설(주)",0537443675,cafe.daum.net/hwaseongssangyong,아파트,대구광역시 수성구 수성로 411,위탁관리,혼합식,19961126,07086143675,677,61462.63,306.0,204.0,99.0,68.0,61462.63,17,17,2,0,42003,35.8626133992863,128.613528039916
A70677707,수성보성타운,2726010600,대구광역시,수성구,수성동4가,,대구광역시 수성구 수성동4가 1090-6 수성보성타운,분양,중앙난방,145908.0,9,1032.0,(주)보성,(주)보성,0537446577,,아파트,대구광역시 수성구 수성로 412,자치관리,혼합식,19960525,0532136577,1032,124250.52,413.0,406.0,136.0,77.0,94345.479,20,20,1,2,42004,35.8624360784577,128.615470502331
A70683502,범어삼환나우빌,2726010600,대구광역시,수성구,수성동4가,,대구광역시 수성구 수성동4가 1005 범어삼환나우빌,분양,개별난방,39264.19,2,240.0,삼환기업,진솔씨앤디,0537416653,,아파트,대구광역시 수성구 범어천로 197,위탁관리,계단식,20070830,0537416654,240,29117.812,0.0,110.0,130.0,0.0,25904.29,25,25,1,6,42017,35.862511256325,128.620840154851
A70683503,수성하이츠,2726010600,대구광역시,수성구,수성동4가,,대구광역시 수성구 수성동4가 1090-8 수성하이츠,분양,중앙난방,84614.0,4,260.0,"쌍용건설(주),쌍용양회공업(주),화성산업(주)","쌍용건설(주),쌍용양회공업(주),화성산업(주)",0537442080,,주상복합,대구광역시 수성구 수성로 393,위탁관리,계단식,20000103,0537422081,260,57528.312,60.0,0.0,0.0,200.0,38761.421,22,22,3,4,42007,35.860968490985,128.61349856837
A70692608,수성태영데시앙,2726010600,대구광역시,수성구,수성동4가,,대구광역시 수성구 수성동4가 1017-1 수성태영데시앙,분양,중앙난방,158287.0,6,718.0,태영건설,대상하우징,0537453030,cafe.naver.com/tsstd,아파트,대구광역시 수성구 들안로 360,위탁관리,계단식,20080430,0537415683,718,91290.78,0.0,140.0,391.0,187.0,91290.8855,31,31,2,15,42016,35.8621949662332,128.618901612528
A10021050,힐스테이트 황금역리저브 1단지,2726010700,대구광역시,수성구,황금동,,대구광역시 수성구 황금동 891-1 힐스테이트 황금역리저브 1단지,분양,개별난방,26332.322,2,152.0,현대건설(주),(주)다은비,0537653586,https://hwanggeumreserve.aptner.com,주상복합,대구광역시 수성구 청수로 127,위탁관리,계단식,20241122,0537673586,152,17445.766,0.0,152.0,0.0,0.0,12562.0448,38,38,2,5,,35.8403473827904,128.622176841544
A10021059,힐스테이트 황금역리저브 2단지,2726010700,대구광역시,수성구,황금동,,대구광역시 수성구 황금동 862-5 힐스테이트 황금역리저브 2단지,분양,개별난방,38949.953,2,185.0,현대건설(주),(주)대한홀딩스,0537628905,,아파트,대구광역시 수성구 청수로25길 24,위탁관리,계단식,20241122,0537638905,185,21583.963,0.0,185.0,0.0,0.0,15206.2425,40,40,4,6,,35.8409964767634,128.622063339413
A10021265,황금미진아파트,2726010700,대구광역시,수성구,황금동,,대구광역시 수성구 황금동 705-1 황금미진아파트,분양,개별난방,0.0,1,120.0,우방,우방,0537663241,,아파트,대구광역시 수성구 청솔로12길 40,위탁관리,혼합식,19941230,0537683241,120,227814.0,54.0,66.0,0.0,0.0,8831.52,1,18,1,0,,35.8500951127475,128.622892197151
A10022041,코아시스105아파트,2726010700,대구광역시,수성구,황금동,,대구광역시 수성구 황금동 843-1 코아시스105아파트,분양,개별난방,30269.0,1,105.0,(주)대동종합건설,(주)한국토지신탁,0537618893,,,대구광역시 수성구 동대구로 149,위탁관리,복도식,20040630,,105,20359.5,0.0,0.0,42.0,63.0,16163.868,23,23,4,2,,35.8438098630295,128.623843109083
A10022484,가든하이츠2단지,2726010700,대구광역시,수성구,황금동,,대구광역시 수성구 황금동 100- 가든하이츠2단지,분양,개별난방,19655.0,2,106.0,(주)청구,(주)청구,0537562926,(주)청구,,대구광역시 수성구 청호로69길 30,자치관리,계단식,19860314,,106,19054.621,0.0,0.0,56.0,50.0,15729.06,12,12,1,5,,35.8492083079177,128.636449509851
A10022670,화성고려파크뷰,2726010700,대구광역시,수성구,황금동,,대구광역시 수성구 황금동 505 화성고려파크뷰,분양,개별난방,22808.244,1,112.0,(주)고려주택,(주)고려주택,0537650611,,아파트,대구광역시 수성구 청수로40길 29,위탁관리,계단식,20030129,0537650610,112,19286.0,0.0,0.0,50.0,62.0,15677.5398,15,15,1,4,42178,35.837865311058,128.630913979474
A10023866,힐스테이트황금엘포레,2726010700,대구광역시,수성구,황금동,,대구광역시 수성구 황금동 692-4 힐스테이트황금엘포레,분양,개별난방,107074.0,9,750.0,현대엔지니어링,(주)아무스,0537669510,,아파트,대구광역시 수성구 청솔로 16,위탁관리,계단식,20220329,0537669511,750,78295.914,0.0,750.0,0.0,0.0,62202.6575,30,30,1,20,42144,35.8482730750847,128.620744214414
A10026333,힐스테이트 황금동,2726010700,대구광역시,수성구,황금동,,대구광역시 수성구 황금동 240 힐스테이트 황금동,분양,개별난방,124513.0,8,782.0,현대건설,수성지구우방타운주택재건축정비사업조합,0532199300,hillstateapt.com,아파트,대구광역시 수성구 청수로 274,위탁관리,계단식,20180425,0532199301,782,85491.89,155.0,561.0,66.0,0.0,64251.0357,36,36,3,15,42179,35.839782613373,128.63755645916
A10026700,한화오벨리스크,2726010700,대구광역시,수성구,황금동,,대구광역시 수성구 황금동 667 한화오벨리스크,분양,개별난방,20897.44,1,76.0,한화건설,위더스건설,0537614601,,아파트,대구광역시 수성구 동대구로 210,위탁관리,계단식,20061208,0537614602,76,15738.08,0.0,0.0,0.0,76.0,10344.7362,26,26,2,4,42110,35.8490065129823,128.625446528235
A70604001,황금동태왕아너스,2726010700,대구광역시,수성구,황금동,,대구광역시 수성구 황금동 99-1 황금동태왕아너스,분양,개별난방,122694.19,4,480.0,(주)태왕,(주)태왕,0537411486,,아파트,대구광역시 수성구 청호로 345,자치관리,계단식,20040730,0537411488,480,88639.24,0.0,0.0,220.0,260.0,72168.062,20,20,2,15,42108,35.8479834880166,128.637202772899
A70604003,캐슬골드파크,2726010700,대구광역시,수성구,황금동,,대구광역시 수성구 황금동 365 캐슬골드파크,분양,개별난방,748654.4,67,4256.0,"(주)롯데건설, (주)화성산업",황금주공아파트주택재건축정비사업조합,0537661790,www.castlegoldpark.co.kr/,아파트,대구광역시 수성구 청수로 213,위탁관리,계단식,20060731,0537661049,4256,560093.56,382.0,1726.0,1615.0,533.0,450023.24,25,25,2,113,42112,35.8404491166943,128.631255404719
A70679501,신천지하이츠,2726010700,대구광역시,수성구,황금동,,대구광역시 수성구 황금동 254-1 신천지하이츠,분양,개별난방,23665.2,3,164.0,우방주택,"kbs, 외환은행, 기업은행 조합",0537611372,,아파트,대구광역시 수성구 청호로 229,자치관리,계단식,19921128,0537611372,164,18433.059,0.0,164.0,0.0,0.0,13930.16,18,18,2,5,42180,35.8379946990715,128.639859360504
A70679502,우방신천지타운,2726010700,대구광역시,수성구,황금동,,대구광역시 수성구 황금동 272 우방신천지타운,분양,개별난방,65217.152,5,425.0,(주)우방,(주)우방,0537625248,,아파트,대구광역시 수성구 청호로46길 17,자치관리,계단식,19910131,0537620105,425,60869.83,0.0,190.0,205.0,30.0,49868.6,15,15,1,16,42181,35.8388594049517,128.641366119062
A70685004,수성2차우방타운,2726010700,대구광역시,수성구,황금동,,대구광역시 수성구 황금동 60 수성2차우방타운,분양,개별난방,55031.0,12,535.0,우방주택,우방주택,0537641431,,아파트,대구광역시 수성구 청호로 330,자치관리,계단식,19860821,0537641431,560,55030.87,0.0,535.0,0.0,0.0,42578.7,5,5,0,0,42084,35.8460327394172,128.640179369794
A70685005,황금제3주공아파트,2726010700,대구광역시,수성구,황금동,,대구광역시 수성구 황금동 965 황금제3주공아파트,임대,중앙난방,42718.0,6,978.0,동아건설,한국토지주택공사,0537646602,www.kohom.co.kr,아파트,대구광역시 수성구 청수로45길 41,위탁관리,복도식,19920902,0537651369,1008,39540.57,978.0,0.0,0.0,0.0,26527.41,15,15,0,12,42112,35.8434510082236,128.631599886381
A10022714,수성푸르지오리버센트 아파트,2726010800,대구광역시,수성구,중동,,대구광역시 수성구 중동 556 수성푸르지오리버센트 아파트,분양,개별난방,87289.03,10,714.0,에스지디벨롭먼트(주),대우건설(주),0537669961,,아파트,대구광역시 수성구 수성로35길 50,위탁관리,계단식,20240229,0537669962,714,87289.02,0.0,512.0,202.0,0.0,65939.2569,29,29,0,19,42154,35.8429581194292,128.610284267178
A10023038,수성센트럴화성파크드림,2726010800,대구광역시,수성구,중동,,대구광역시 수성구 중동 179 수성센트럴화성파크드림,분양,개별난방,44055.9,1,156.0,화성산업,코리아신탁(주),0532865351,,주상복합,대구광역시 수성구 수성로 180,위탁관리,계단식,20230828,0532865352,156,16928.04,0.0,156.0,0.0,0.0,13236.4232,29,29,4,3,42155,35.8410253380818,128.612877900677
A10023317,수성뷰웰리버파크,2726010800,대구광역시,수성구,중동,,대구광역시 수성구 중동 485-1 수성뷰웰리버파크,분양,개별난방,45684.492,4,266.0,(주)동광건설,아이앤씨씨(주),0537630995,,아파트,대구광역시 수성구 수성로41길 41,위탁관리,계단식,20230321,0537630996,266,29130.588,0.0,266.0,0.0,0.0,21790.7452,29,29,2,9,42152,35.8442314942481,128.610501818133
A10023871,수성데시앙리버뷰아파트,2726010800,대구광역시,수성구,중동,,대구광역시 수성구 중동 532-324 수성데시앙리버뷰아파트,분양,개별난방,51320.0,6,278.0,(주)태영건설,(주)우성이앤씨,0537613636,,아파트,대구광역시 수성구 희망로20길 10,위탁관리,계단식,20220330,0537613637,278,34476.08,0.0,151.0,127.0,0.0,26926.8663,19,19,2,8,42150,35.8468801119323,128.60884921793
A10023992,수성골드클래스더센텀,2726010800,대구광역시,수성구,중동,,대구광역시 수성구 중동 356-7 수성골드클래스더센텀,분양,개별난방,98570.0,6,588.0,보광건설(주),(주)삼은개발,0537624700,,아파트,대구광역시 수성구 수성로 185,위탁관리,계단식,20211224,0537624701,588,66598.36,0.0,476.0,112.0,0.0,52969.4256,29,29,2,12,42154,35.8429050240446,128.611132524521
A10025069,수성효성해링턴플레이스,2726010800,대구광역시,수성구,중동,,대구광역시 수성구 중동 541-2 수성효성해링턴플레이스,분양,개별난방,111005.805,7,745.0,"효성, 진흥기업",코리아신탁,0537670662,,아파트,대구광역시 수성구 희망로24길 24,위탁관리,계단식,20200128,0537670663,745,83797.56,0.0,680.0,64.0,1.0,65156.4503,29,29,1,14,42150,35.8467242553961,128.61036617233
A70683802,광명프레지던트,2726010800,대구광역시,수성구,중동,,대구광역시 수성구 중동 411-1 광명프레지던트,분양,개별난방,27209.99,2,233.0,(주)광명주택,(주)광명주택,0537622122,,아파트,대구광역시 수성구 수성로 165,자치관리,복도식,19800819,0537622126,233,27209.99,0.0,207.0,26.0,0.0,19449.784,13,13,1,3,42156,35.8399306830207,128.611577692606
A70677501,수성동일하이빌레이크시티,2726010900,대구광역시,수성구,상동,,대구광역시 수성구 상동 555 수성동일하이빌레이크시티,분양,개별난방,320603.8,16,1411.0,(주)동일토건,(주)디에스씨앤씨,0537615035,,아파트,대구광역시 수성구 수성로 71,위탁관리,계단식,20090430,0537615037,1412,227472.53,0.0,235.0,876.0,300.0,183536.9185,15,15,2,0,42166,35.8312110693562,128.609294680574
A70682801,상동청구타운,2726010900,대구광역시,수성구,상동,,대구광역시 수성구 상동 247 상동청구타운,분양,개별난방,17016.0,2,150.0,(주)청구,(주)청구,0537689240,,아파트,대구광역시 수성구 수성로19길 41,자치관리,혼합식,19941130,0537689240,150,14968.1,75.0,75.0,0.0,0.0,10873.875,11,11,1,6,42165,35.8335906499282,128.609098508319
A70682802,정화우방팔레스,2726010900,대구광역시,수성구,상동,,대구광역시 수성구 상동 72 정화우방팔레스,분양,개별난방,94365.59,5,488.0,(주)우방,(주)우방,0537623560,,아파트,대구광역시 수성구 수성로 135,자치관리,계단식,20030129,0532153560,488,83467.78,0.0,136.0,272.0,80.0,61458.9336,21,21,2,13,42157,35.8380301696074,128.610771196591
A10020837,수성포레스트스위첸,2726011000,대구광역시,수성구,파동,,대구광역시 수성구 파동 118-118 수성포레스트스위첸,분양,개별난방,145504.42,17,755.0,(주)kcc건설,(주)수성의숲,0537635511,,아파트,대구광역시 수성구 파동로30길 30,위탁관리,혼합식,20250103,0537635517,755,71130.69,0.0,549.0,147.0,59.0,71130.6907,15,15,7,45,,35.8195326586548,128.617282271108
A10021310,더펜트하우스수성,2726011000,대구광역시,수성구,파동,,대구광역시 수성구 파동 1004- 더펜트하우스수성,분양,개별난방,0.0,17,143.0,(주)삼도주택,(주)하늘개발,0537190163,,연립주택,대구광역시 수성구 파동로26길 26,위탁관리,혼합식,20210205,0537190164,143,23934.959,0.0,0.0,0.0,143.0,20676.0323,4,2,0,0,,35.8184696042977,128.61825748112
A10021840,파동태왕리더스,2726011000,대구광역시,수성구,파동,,대구광역시 수성구 파동 197-1 파동태왕리더스,분양,개별난방,17328.0,1,117.0,태왕,태왕,0537621005,,아파트,대구광역시 수성구 파동로 105,위탁관리,계단식,20051028,,117,13995.696,0.0,78.0,39.0,0.0,11213.1123,20,20,2,3,,35.8127954030003,128.616546079754
A10021960,대자연2차아파트,2726011000,대구광역시,수성구,파동,,대구광역시 수성구 파동 240- 대자연2차아파트,분양,개별난방,25882.0,5,289.0,우방주택,우방주택,0537626440,,아파트,대구광역시 수성구 파동로 84,자치관리,계단식,19880629,,289,21376.33,0.0,289.0,0.0,0.0,21376.33,5,5,0,0,,35.8121354314704,128.618632856303
A10022684,수성레이크 우방아이유쉘,2726011000,대구광역시,수성구,파동,,대구광역시 수성구 파동 1021 수성레이크 우방아이유쉘,분양,개별난방,59062.496,6,394.0,(주)우방,(주)수성레이크,0537681231,,,대구광역시 수성구 파동로32길 100,위탁관리,계단식,20240329,0537681232,394,39897.848,126.0,268.0,0.0,0.0,30325.8135,25,25,3,10,42227,35.8217675423757,128.614598729511
A10022719,수성해모로하이엔,2726011000,대구광역시,수성구,파동,,대구광역시 수성구 파동 540-14 수성해모로하이엔,혼합,개별난방,112769000.0,11,795.0,HJ중공업,수성용두지구주택재개발정비사업조합,0532438915,,아파트,대구광역시 수성구 파동로 47,위탁관리,계단식,20241015,0532438916,795,72556.98,431.0,364.0,0.0,0.0,54698.8165,21,21,2,24,42237,35.8070577755568,128.621450997395
A10022948,수성더팰리스푸르지오더샵,2726011000,대구광역시,수성구,파동,,대구광역시 수성구 파동 27-17 수성더팰리스푸르지오더샵,분양,개별난방,189067.8,18,1299.0,"대우건설,포스코이엔씨",파동강촌2지구주택재건축정비사업조합,0532439160,,아파트,대구광역시 수성구 파동로 188,위탁관리,계단식,20231030,0532439161,1299,121100.734,643.0,620.0,36.0,0.0,91918.2264,28,28,2,36,42229,35.820065578636,128.612596330647
A10027293,대구수성아이파크,2726011000,대구광역시,수성구,파동,,대구광역시 수성구 파동 1000 대구수성아이파크,분양,개별난방,66822.0,6,455.0,현대산업개발(주),현대산업개발(주),0537615448,,아파트,대구광역시 수성구 파동로22길 15,위탁관리,계단식,20161017,0537617356,455,46547.547,104.0,351.0,0.0,0.0,33642.94,15,15,2,19,42233,35.8134977621815,128.618828677669
A70607001,동신실리안아파트,2726011000,대구광역시,수성구,파동,,대구광역시 수성구 파동 24-9 동신실리안아파트,분양,개별난방,22600.0,3,155.0,(주)동신건설,(주)동신건설,0537648299,,아파트,대구광역시 수성구 파동로 209,위탁관리,계단식,20031229,0537648298,155,19095.34,0.0,127.0,28.0,0.0,14423.0289,15,15,2,7,42223,35.8212530113316,128.611293703586
A70679306,우방대자연1차아파트,2726011000,대구광역시,수성구,파동,,대구광역시 수성구 파동 153 우방대자연1차아파트,분양,개별난방,36257.0,8,408.0,우방주택,우방주택,0532140693,,아파트,대구광역시 수성구 파동로 120,자치관리,계단식,19870718,0532140693,408,34916.33,0.0,408.0,0.0,0.0,31731.93,5,5,0,0,42232,35.8144826954482,128.616828668645
A70679307,수성못코오롱하늘채,2726011000,대구광역시,수성구,파동,,대구광역시 수성구 파동 53 수성못코오롱하늘채,분양,개별난방,133789.02,14,832.0,코오롱글로벌주식회사,파동강촌주택재건축정비사업조합,0537652511,,아파트,대구광역시 수성구 파동로 222,위탁관리,계단식,20130625,0537682512,832,88457.5,157.0,643.0,32.0,0.0,67600.3212,20,20,3,26,42225,35.8230715533368,128.612111425033
A70684704,송원맨션,2726011000,대구광역시,수성구,파동,,대구광역시 수성구 파동 581-28 송원맨션,분양,개별난방,28851.0,3,232.0,(주)보성,(주)보성,0537657288,,아파트,대구광역시 수성구 파동로 223,자치관리,계단식,19891103,0537657288,240,27788.56,0.0,206.0,26.0,0.0,20500.28,13,13,0,9,42223,35.8223508428005,128.61078556087
A70684902,파동청구하이츠,2726011000,대구광역시,수성구,파동,,대구광역시 수성구 파동 311-1 파동청구하이츠,분양,개별난방,21448.36,4,176.0,청구산업개발,청구산업개발,0537677107,,아파트,대구광역시 수성구 파동로12길 39,위탁관리,계단식,19971224,0537677106,176,17824.896,64.0,96.0,16.0,0.0,14153.68,10,10,1,10,42236,35.8100575371384,128.62134925259
A70684903,파동화성파크뷰,2726011000,대구광역시,수성구,파동,,대구광역시 수성구 파동 486-1 파동화성파크뷰,분양,개별난방,29539.12,4,228.0,화성산업,고려주택 대영리츠건설,0537624326,,아파트,대구광역시 수성구 파동로 19,위탁관리,계단식,20041129,0537654326,228,19525.635,0.0,222.0,6.0,0.0,19525.6344,22,22,2,0,42237,35.8063536924703,128.62191303605
A10022536,호반써밋수성,2726011100,대구광역시,수성구,두산동,,대구광역시 수성구 두산동 85 호반써밋수성,분양,개별난방,56477.0,2,301.0,호반건설(주),지엔비대구수성주식회사,0537631478,,주상복합,대구광역시 수성구 청수로24길 71,위탁관리,기타,20240625,,301,37514.0,18.0,158.0,123.0,2.0,27941.4208,48,48,2,7,,35.8371239725655,128.621998098706
A10023587,수성레이크푸르지오,2726011100,대구광역시,수성구,두산동,,대구광역시 수성구 두산동 81-2 수성레이크푸르지오,분양,개별난방,98388.02,2,332.0,대우건설(주),코리아신탁(주),0537648400,,주상복합,대구광역시 수성구 청수로24길 91,위탁관리,계단식,20220826,0537648401,332,39307.85,0.0,246.0,82.0,4.0,30472.0964,48,48,0,8,42171,35.8356036431053,128.62133114732
A70670404,수성화성파크드림,2726011100,대구광역시,수성구,두산동,,대구광역시 수성구 두산동 789 수성화성파크드림,분양,개별난방,69825.83,4,373.0,화성산업(주),수성동아맨션정비사업조합,0537847897,,아파트,대구광역시 수성구 용학로28길 8,위탁관리,계단식,20091217,0537841897,373,51792.484,0.0,135.0,198.0,40.0,41583.9365,20,20,2,0,42217,35.8223491413018,128.624128093217
A70670405,수성SK리더스뷰,2726011100,대구광역시,수성구,두산동,,대구광역시 수성구 두산동 113 수성SK리더스뷰,분양,중앙난방,260238.58,7,788.0,SK건설,(주)기안디앤씨,0537629100,www.suseongsk.kr,주상복합,대구광역시 수성구 동대구로 95,위탁관리,계단식,20100930,0537613359,788,145656.14,0.0,0.0,491.0,297.0,105512.0306,57,56,3,24,42170,35.8387186092948,128.623094441987
A70680002,대우트럼프월드수성,2726011100,대구광역시,수성구,두산동,,대구광역시 수성구 두산동 105 대우트럼프월드수성,분양,개별난방,150512.0,6,967.0,대우건설,SID하우징,0537633727,www.twsuseong.kr,주상복합,대구광역시 수성구 동대구로 59,위탁관리,계단식,20070430,0537611822,967,150511.69,0.0,208.0,516.0,243.0,113959.25,42,42,2,8,42171,35.8364930921015,128.622878228302
A10020516,더파크수성못,2726011200,대구광역시,수성구,지산동,,대구광역시 수성구 지산동 1770- 더파크수성못,분양,개별난방,12187.882,2,108.0,(주)화성개발,(주)아영디앤씨,0532131030,,주상복합,대구광역시 수성구 동대구로 10,위탁관리,계단식,20250428,0532131031,108,12187.882,0.0,102.0,6.0,0.0,9431.4302,1,26,0,5,,35.8306682573025,128.623920180909
A10021593,지산낙원아파트,2726011200,대구광역시,수성구,지산동,,대구광역시 수성구 지산동 1190-2 지산낙원아파트,분양,개별난방,0.0,1,145.0,고려주택,고려주택,0537830131,,아파트,대구광역시 수성구 용학로36길 17,자치관리,계단식,19870903,0536540713,145,8330.5,145.0,0.0,0.0,0.0,7230,1,5,0,0,,35.8206253371974,128.628702558981
A10022207,대우로얄하이츠,2726011200,대구광역시,수성구,지산동,,대구광역시 수성구 지산동 1190- 대우로얄하이츠,분양,개별난방,22190.0,3,128.0,(주)다산개발,(주)대우건설,0537836007,,,대구광역시 수성구 용학로36길 20,자치관리,계단식,19991029,0537836007,128,18248.2,0.0,56.0,0.0,72.0,15153.5392,11,11,1,7,,35.8207441337184,128.627789506978
A10023214,더샵수성라크에르,2726011200,대구광역시,수성구,지산동,,대구광역시 수성구 지산동 1766 더샵수성라크에르,분양,개별난방,137607.83,9,899.0,포스코건설,지산시영1단지주택재건축정비사업조합,0537810983,,아파트,대구광역시 수성구 지산로3길 33,위탁관리,계단식,20240326,0537810984,899,93306.86,180.0,661.0,58.0,0.0,72393.6177,29,29,2,0,42215,35.8229638993116,128.629958624041
A10024413,지산화성파크드림,2726011200,대구광역시,수성구,지산동,,대구광역시 수성구 지산동 1140-3 지산화성파크드림,분양,개별난방,20245.855,2,142.0,(주)화성개발,(주)성창건설,0537814756,,아파트,대구광역시 수성구 지범로17길 85,위탁관리,계단식,20060317,0537814756,142,15904.0,0.0,142.0,0.0,0.0,12067.2594,21,21,1,0,42187,35.827648084354,128.628181149052
A70609001,동서무학맨션,2726011200,대구광역시,수성구,지산동,,대구광역시 수성구 지산동 359-1 동서무학맨션,분양,개별난방,38718.51,1,281.0,(주)동서개발,동서,0537815246,,아파트,대구광역시 수성구 지산로14길 83,자치관리,혼합식,19941024,0532145246,281,33191.0,99.0,120.0,58.0,4.0,24739.69,25,25,2,5,42190,35.826457908759,128.638281265586
A70609004,지산보성맨션,2726011200,대구광역시,수성구,지산동,,대구광역시 수성구 지산동 1270-1 지산보성맨션,분양,개별난방,68381.96,5,526.0,(주)보성주택,(주)보성주택,0537830028,지산보성맨션.apti.co.kr,아파트,대구광역시 수성구 지범로21길 3,자치관리,계단식,19910812,0537831128,542,64769.16,0.0,310.0,216.0,0.0,52407.27,15,15,0,19,42195,35.8243225813888,128.635938173235
A70609202,지산현대,2726011200,대구광역시,수성구,지산동,,대구광역시 수성구 지산동 1272-3 지산현대,분양,개별난방,41390.645,4,387.0,(주) 현대주택,(주)현대주택,0537846990,,아파트,대구광역시 수성구 지범로22길 20,자치관리,계단식,19910618,0537840599,387,39590.1,0.0,387.0,0.0,0.0,32844.69,13,13,0,15,42214,35.8214656611357,128.634569153813
A70678605,지산녹원맨션,2726011200,대구광역시,수성구,지산동,,대구광역시 수성구 지산동 761 지산녹원맨션,분양,개별난방+기타,71586.516,9,542.0,화성산업,화성산업,0537648341,http://cafe.daum.net/nokwoon8,아파트,대구광역시 수성구 무학로 189,위탁관리,계단식,19890523,0537669933,542,69361.984,0.0,266.0,248.0,28.0,55972.32,14,14,0,21,42183,35.8313371589344,128.63029665531
A70678606,지산타운,2726011200,대구광역시,수성구,지산동,,대구광역시 수성구 지산동 1288 지산타운,분양,개별난방,42205.8,3,630.0,도시개발공사,도시개발공사,0537838362,,아파트,대구광역시 수성구 용학로 303,위탁관리,복도식,19911115,0532148204,630,42205.8,630.0,0.0,0.0,0.0,29417.4,15,15,1,8,42197,35.8227028296531,128.640660240637
A70678607,지산5단지,2726011200,대구광역시,수성구,지산동,,대구광역시 수성구 지산동 1297 지산5단지,임대,개별난방,51712.0,5,1076.0,우방주택,우방주택,0537838364,,아파트,대구광역시 수성구 용학로 325,자치관리(직영),복도식,19911115,0537838375,1076,47118.04,1076.0,0.0,0.0,0.0,31684.08,15,15,0,10,42192,35.8245043371489,128.642419153677
A70678801,지산청구타운,2726011200,대구광역시,수성구,지산동,,대구광역시 수성구 지산동 1270 지산청구타운,분양,개별난방,61704.0,4,455.0,(주)청구주택,(주)청구주택,0537826389,,아파트,대구광역시 수성구 지산로 48,자치관리,계단식,19910812,0532146390,455,59790.08,0.0,272.0,149.0,34.0,47748.5,17,17,1,14,42195,35.8248869897708,128.634539290794
A70678802,지산동서맨션,2726011200,대구광역시,수성구,지산동,,대구광역시 수성구 지산동 1269 지산동서맨션,분양,개별난방,62555.0,5,465.0,동서개발,동서개발,0537828381,,아파트,대구광역시 수성구 지산로 56,위탁관리,계단식,19910813,0532148381,473,61558.05,0.0,315.0,120.0,30.0,47577.6,15,15,0,16,42194,35.8263160148188,128.634626028184
A70678903,서한청산맨션,2726011200,대구광역시,수성구,지산동,,대구광역시 수성구 지산동 1269-1 서한청산맨션,분양,개별난방,62395.25,5,468.0,(주)서한,(주)서한,0537838675,www.cs8675.com,아파트,대구광역시 수성구 지범로21길 15,자치관리,계단식,19910828,0537839431,482,57686.16,0.0,318.0,120.0,30.0,47160,15,15,0,16,42194,35.8258030619462,128.636071137072
A70679003,지산에덴맨션,2726011200,대구광역시,수성구,지산동,,대구광역시 수성구 지산동 1272-2 지산에덴맨션,분양,개별난방,47023.24,4,420.0,에덴주택,에덴주택,0537817686,,아파트,대구광역시 수성구 용학로 223,자치관리,계단식,19910918,0537830132,420,43438.008,0.0,420.0,0.0,0.0,34850.4,15,15,0,15,42214,35.8220712419055,128.633779713181
A70679007,지산협화맨션,2726011200,대구광역시,수성구,지산동,,대구광역시 수성구 지산동 1273 지산협화맨션,분양,개별난방,61616.64,5,552.0,협화건설,협화건설,0537841518,,아파트,대구광역시 수성구 지범로22길 23,자치관리,계단식,19911119,0537825569,552,57481.414,0.0,552.0,0.0,0.0,46787.52,15,15,1,19,42213,35.8212225429172,128.636098051758
A70679105,지산영남맨션,2726011200,대구광역시,수성구,지산동,,대구광역시 수성구 지산동 1257-1 지산영남맨션,분양,개별난방,61023.0,6,446.0,영남건설,영남건설,0537823653,,아파트,대구광역시 수성구 지산로 31,위탁관리,계단식,19910720,0537818417,446,58038.94,0.0,236.0,180.0,30.0,47339.7,15,15,0,15,42206,35.8240921567433,128.631849135887
A70679106,지산우방타운,2726011200,대구광역시,수성구,지산동,,대구광역시 수성구 지산동 1271 지산우방타운,분양,개별난방,62989.28,5,460.0,(주)우방,(주)우방,0537840417,,아파트,대구광역시 수성구 지산로 32,자치관리,계단식,19910529,0537847000,460,49186.52,0.0,266.0,168.0,26.0,49185.19,15,15,0,15,42207,35.8235060975779,128.633722707636
A70679108,지산한라타운,2726011200,대구광역시,수성구,지산동,,대구광역시 수성구 지산동 1275 지산한라타운,분양,개별난방,50226.11,4,555.0,(주)한라주택,(주)한라주택,0537815060,,아파트,대구광역시 수성구 지범로22길 9,자치관리,복도식,19911007,0537815061,555,45669.406,555.0,0.0,0.0,0.0,33102,15,15,1,8,42208,35.8226931379621,128.636480540417
A70679109,지산리더스,2726011200,대구광역시,수성구,지산동,,대구광역시 수성구 지산동 1234-1 지산리더스,분양,개별난방,54425.387,4,694.0,화성산업,도시개발공사,0537838361,,아파트,대구광역시 수성구 지산로 5,자치관리,복도식,19911115,0537817361,694,52501.64,664.0,30.0,0.0,0.0,37899.54,15,15,0,8,42215,35.8225596042578,128.631462469062
A70683904,지산서한이다음,2726011200,대구광역시,수성구,지산동,,대구광역시 수성구 지산동 1297-3 지산서한이다음,분양,개별난방,39378.48,3,488.0,서한건설(주),도시개발공사,0537838363,,아파트,대구광역시 수성구 용학로 313,위탁관리,복도식,19911115,0537838363,488,37739.66,473.0,15.0,0.0,0.0,26876.9,15,15,0,7,42192,35.8237829558236,128.641668581053
A70684404,지산화성맨션,2726011200,대구광역시,수성구,지산동,,대구광역시 수성구 지산동 1257 지산화성맨션,분양,개별난방,61836.73,6,436.0,화성산업(주),화성산업(주),0537815626,,아파트,대구광역시 수성구 용학로35길 62,자치관리,계단식,19910715,0532145626,436,56911.84,0.0,228.0,180.0,28.0,46345.76,15,15,1,15,42206,35.824653770157,128.630393738509
A70684501,청구호반맨션,2726011200,대구광역시,수성구,지산동,,대구광역시 수성구 지산동 1208 청구호반맨션,분양,개별난방,41960.76,4,280.0,청구,청구,0537829674,,아파트,대구광역시 수성구 용학로46길 40,자치관리,계단식,19900703,0537829676,280,41340.6,0.0,77.0,175.0,28.0,33629.54,14,14,0,11,42221,35.8183259053484,128.63354108287
A70684510,지산목련아파트,2726011200,대구광역시,수성구,지산동,,대구광역시 수성구 지산동 1200 지산목련아파트,분양,개별난방,40965.29,12,770.0,도시개발공사,도시개발공사,0537834189,,아파트,대구광역시 수성구 용학로42길 13,자치관리,계단식,19860929,0537834189,770,39501.0,770.0,0.0,0.0,0.0,34227.9,5,5,0,0,42220,35.819601926148,128.631889541353
A10023442,더트루엘수성,2726011300,대구광역시,수성구,범물동,,대구광역시 수성구 범물동 859-1 더트루엘수성,분양,개별난방,23470.08,2,158.0,(주)일성건설,(주)동인산업개발,0537817888,cafe.naver.com/truel,아파트,,위탁관리,혼합식,20221229,0537827888,158,16880.756,0.0,158.0,0.0,0.0,13043.6979,24,24,1,6,42247,,
A10024582,수성하늘채르레브,2726011300,대구광역시,수성구,범물동,,대구광역시 수성구 범물동 1397 수성하늘채르레브,분양,개별난방,74621.95,7,709.0,코오롱견설,수성범물지역주택조합,0537190651,,아파트,대구광역시 수성구 지범로48길 21,위탁관리,계단식,20201013,0537190652,709,74621.95,0.0,709.0,0.0,0.0,58132.5006,26,26,2,20,42246,35.8154157882798,128.644888425161
A10025970,범물두성타운,2726011300,대구광역시,수성구,범물동,,대구광역시 수성구 범물동 887 범물두성타운,분양,개별난방,16013.47,1,126.0,(주)두성주택,(주)두성주택,0537828068,,아파트,대구광역시 수성구 지범로 300,위탁관리,혼합식,19960418,0537828068,126,12104.4,70.0,56.0,0.0,0.0,8914.22,14,14,1,3,42248,35.8146544388212,128.648825539478
A70610001,범물신화맨션,2726011300,대구광역시,수성구,범물동,,대구광역시 수성구 범물동 1332 범물신화맨션,분양,개별난방,60754.62,2,260.0,신화주택,신화주택,0537813334,,아파트,대구광역시 수성구 지범로40길 6,자치관리,계단식,19920918,0532143334,260,26832.0,0.0,260.0,0.0,0.0,22084.4,15,15,1,9,42209,35.819020406576,128.640105034049
A70610002,범물보성맨션,2726011300,대구광역시,수성구,범물동,,대구광역시 수성구 범물동 1269 범물보성맨션,분양,중앙난방,63989.0,5,443.0,(주)보성,(주)보성,0537838196,,아파트,대구광역시 수성구 용학로 316,자치관리,계단식,19920820,0532158196,443,56409.27,0.0,234.0,209.0,0.0,46475.41,15,15,1,15,42198,35.8223510682507,128.642629271632
A70610003,보성송정타운,2726011300,대구광역시,수성구,범물동,,대구광역시 수성구 범물동 697-1 보성송정타운,분양,개별난방,60461.87,5,498.0,(주)보성,(주)보성,0537849058,,아파트,대구광역시 수성구 지범로46길 43,자치관리,계단식,19950913,0537829058,499,55894.64,218.0,160.0,120.0,0.0,42860.08,20,20,0,13,42245,35.8136409814239,128.642767332699
A70610004,청아타운,2726011300,대구광역시,수성구,범물동,,대구광역시 수성구 범물동 1372 청아타운,분양,개별난방,94227.016,8,680.0,"우방, 동서","우방,동서",0537837298,,아파트,대구광역시 수성구 범안로 40,위탁관리,계단식,19921125,0532157298,680,89894.4,0.0,360.0,320.0,0.0,73711.8,15,15,1,24,42242,35.816759623352,128.641662132667
A70610104,범물청구타운,2726011300,대구광역시,수성구,범물동,,대구광역시 수성구 범물동 1281 범물청구타운,분양,개별난방,78270.0,6,594.0,청구,청구,0537831955,bc1281.apti.co.kr,아파트,대구광역시 수성구 지범로39길 12,위탁관리,혼합식,19920929,0532151955,594,71625.44,180.0,180.0,234.0,0.0,57541.86,15,15,0,16,42199,35.8199498073821,128.643280717944
A70672301,용지아파트,2726011300,대구광역시,수성구,범물동,,대구광역시 수성구 범물동 1283 용지아파트,임대,개별난방,128212.14,15,2645.0,화성 영남 서한 우방 청구,대구시,0537811952,,아파트,대구광역시 수성구 범안로 79,자치관리(직영),복도식,19920710,0537811954,2646,76416.195,2645.0,0.0,0.0,0.0,76407.51,15,15,0,32,42200,35.8200625973299,128.645976230526
A70676401,범물보성타운,2726011300,대구광역시,수성구,범물동,,대구광역시 수성구 범물동 1279 범물보성타운,분양,개별난방,28523.0,3,285.0,보성주택,보성주택,0537813805,,아파트,대구광역시 수성구 지범로39길 56,자치관리,혼합식,19920820,0532143805,285,27720.0,0.0,285.0,0.0,0.0,21647.55,15,15,0,7,42199,35.8219523975985,128.64417154829
A70676402,범물영남타운,2726011300,대구광역시,수성구,범물동,,대구광역시 수성구 범물동 1269 범물영남타운,분양,중앙난방,63370.984,5,442.0,영남건설(주),영남건설(주),0537815888,,아파트,대구광역시 수성구 용학로 316,자치관리,계단식,19920820,0532145887,442,57093.0,0.0,232.0,210.0,0.0,46730.17,15,15,1,15,42198,35.8223510682507,128.642629271632
A70676605,범물서한화성타운,2726011300,대구광역시,수성구,범물동,,대구광역시 수성구 범물동 1328 범물서한화성타운,분양,개별난방,101871.0,6,612.0,서한화성,서한화성,0537834622,,아파트,대구광역시 수성구 지범로40길 11,위탁관리,혼합식,19921026,0532144622,612,76119.52,0.0,408.0,204.0,0.0,59296,17,17,1,16,42210,35.8187243890721,128.641899425618
A70676706,범물우방미진하이츠,2726011300,대구광역시,수성구,범물동,,대구광역시 수성구 범물동 670 범물우방미진하이츠,분양,개별난방,91721.27,9,661.0,(주)우방,(주)미진주택건설,0537812966,범물우방미진.apti.co.kr,아파트,대구광역시 수성구 지범로 290,자치관리,계단식,20000202,0537846641,661,78810.27,233.0,215.0,120.0,93.0,62386.51,20,20,3,16,42248,35.8144428421095,128.647820901696
A70681105,범물하이츠,2726011300,대구광역시,수성구,범물동,,대구광역시 수성구 범물동 1261 범물하이츠,분양,개별난방,66886.32,6,1000.0,"영남건설(주),청구(주)",도시개발공사,0537816478,,아파트,대구광역시 수성구 용학로 336,위탁관리,복도식,19920415,0537836776,1000,65361.85,1000.0,0.0,0.0,0.0,43871.475,15,15,0,11,42191,35.8242973667054,128.643979368711
A70681202,현대청림타운,2726011300,대구광역시,수성구,범물동,,대구광역시 수성구 범물동 630 현대청림타운,분양,개별난방,46252.156,4,350.0,현대주택,현대주택,0537836370,,아파트,대구광역시 수성구 지범로54길 15,자치관리,계단식,19990722,0537836371,350,38333.86,130.0,112.0,108.0,0.0,30467.62,20,20,0,0,42247,35.8142485733537,128.646103356932
A70681401,범물에덴타운,2726011300,대구광역시,수성구,범물동,,대구광역시 수성구 범물동 1332 범물에덴타운,분양,개별난방,29015.78,2,262.0,(주)에덴주택,에덴주택,0537835633,,아파트,대구광역시 수성구 지범로40길 6,자치관리,계단식,19920918,0537835634,262,27715.695,0.0,262.0,0.0,0.0,21866.52,15,15,0,9,42209,35.819020406576,128.640105034049
A70681408,범물(창신태성한라)맨션,2726011300,대구광역시,수성구,범물동,,대구광역시 수성구 범물동 1336 범물(창신태성한라)맨션,분양,개별난방,107918.7,6,804.0,"창신,태성, 한라주택","창신, 탱성, 한라주택",0537839639,,아파트,대구광역시 수성구 용학로 272,위탁관리,혼합식,19921016,0537824735,804,98216.71,0.0,498.0,306.0,0.0,79156.44,17,17,1,21,42209,35.8196827942711,128.638575626116
A70691403,범물삼주타운,2726011300,대구광역시,수성구,범물동,,대구광역시 수성구 범물동 1382 범물삼주타운,분양,개별난방,45967.0,3,430.0,삼주개발(주),삼주개발(주),0537829977,없음,아파트,대구광역시 수성구 범안로8길 35,자치관리,혼합식,19930107,0537829975,430,42249.9,220.0,210.0,0.0,0.0,31005,15,15,1,9,42244,35.8154585127674,128.641770540409
A10020820,시지센트레빌 아파트,2726011400,대구광역시,수성구,시지동,,대구광역시 수성구 시지동 602- 시지센트레빌 아파트,분양,개별난방,19876.762,2,120.0,동부건설,시지경북타운 가로주택정비사업조합,0537955600,,아파트,대구광역시 수성구 달구벌대로622길 9,위탁관리,계단식,20240217,0537955601,120,12468.783,0.0,120.0,0.0,0.0,9624.948,16,16,2,5,,35.8414118617758,128.697680929731
A10025121,고산역화성파크드림,2726011400,대구광역시,수성구,시지동,,대구광역시 수성구 시지동 378 고산역화성파크드림,분양,개별난방,15924.565,1,126.0,(주)화성,경북아파트주택재건축정비사업조합,0537959553,,주상복합,대구광역시 수성구 달구벌대로 3122,위탁관리,계단식,20191224,0537959554,126,15357.626,0.0,0.0,36.0,90.0,8853.661,20,0,1,3,42255,35.8419893783934,128.698568446136
A10025655,수성알파시티동화아이위시,2726011400,대구광역시,수성구,시지동,,대구광역시 수성구 시지동 591 수성알파시티동화아이위시,분양,개별난방,112754.01,7,698.0,(주)동화주택,(주)동화주택,0537935555,,아파트,대구광역시 수성구 알파시티2로 48,위탁관리,계단식,20190211,0537930559,698,75351.18,209.0,489.0,0.0,0.0,54059.2107,29,29,1,17,42251,35.8381100707043,128.692408044906
A70622001,시지대백맨션,2726011400,대구광역시,수성구,시지동,,대구광역시 수성구 시지동 462-2 시지대백맨션,분양,개별난방,33764.0,4,265.0,대백종합건설,.,0537920881,,아파트,대구광역시 수성구 달구벌대로625길 21,자치관리,혼합식,19921128,0537920881,265,28943.748,60.0,152.0,53.0,0.0,22695.26,19,19,0,7,42262,35.8438963793404,128.699547872586
A70622002,제림은세계아파트,2726011400,대구광역시,수성구,시지동,,대구광역시 수성구 시지동 141-5 제림은세계아파트,분양,개별난방,33839.0,1,299.0,제림주택,제림주택,0537922681,,아파트,대구광역시 수성구 달구벌대로 3081,자치관리,혼합식,19930403,0537922681,299,31088.871,120.0,160.0,0.0,19.0,23350.6,20,20,1,7,42262,35.8438219951649,128.694677198096
A70622003,아이프라임시지,2726011400,대구광역시,수성구,시지동,,대구광역시 수성구 시지동 262 아이프라임시지,분양,개별난방,57955.574,2,301.0,SD건설,뉴랜드21,0537935055,,아파트,대구광역시 수성구 달구벌대로 3110,위탁관리,계단식,20080430,0537935054,301,45810.78,0.0,124.0,0.0,177.0,34815.1355,19,19,0,9,42254,35.8416625650892,128.696666088177
A70622004,제림은탑맨션,2726011400,대구광역시,수성구,시지동,,대구광역시 수성구 시지동 70 제림은탑맨션,분양,개별난방,39840.05,2,346.0,(주)제림주택,1,0537925199,제림은탑맨션.apti.co.kr/,아파트,대구광역시 수성구 천을로 49,자치관리,혼합식,19941103,0537925193,346,36475.68,160.0,140.0,46.0,0.0,27703.34,24,24,1,6,42261,35.8453051287936,128.696142263005
A70622005,시지태왕아너스,2726011400,대구광역시,수성구,시지동,,대구광역시 수성구 시지동 28 시지태왕아너스,분양,개별난방,64177.676,4,407.0,(주)태왕,(주)풍경,0537957933,,아파트,대구광역시 수성구 천을로 91,위탁관리,계단식,20071126,0537957997,407,52794.1,0.0,226.0,181.0,0.0,40102.397,25,25,1,0,42261,35.8450534104903,128.700873803262
A70622009,노변다숲,2726011400,대구광역시,수성구,시지동,,대구광역시 수성구 시지동 499 노변다숲,분양,개별난방,67340.79,5,745.0,도시개발공사,도시개발공사,0537931522,,아파트,대구광역시 수성구 노변공원로 34,위탁관리,복도식,19961207,0537921522,745,58984.5,745.0,0.0,0.0,0.0,42098.1,15,15,1,12,42259,35.8388769705249,128.697560169821
A70677807,노변동서우방,2726011400,대구광역시,수성구,시지동,,대구광역시 수성구 시지동 509 노변동서우방,분양,개별난방,73247.74,6,472.0,"(주)우방, (주)동서개발","(주)우방, (주)동서개발",0537930565,,아파트,대구광역시 수성구 노변공원로 22,자치관리,계단식,19961025,0537930565,472,63675.17,68.0,68.0,336.0,0.0,51265.28,17,17,0,0,42255,35.8401763664273,128.697741362806
A70677810,고산노변타운,2726011400,대구광역시,수성구,시지동,,대구광역시 수성구 시지동 498 고산노변타운,분양,개별난방,102334.0,7,885.0,"(주)동방,(주)동화주택,(주)미진주택","(주)동방,(주)동화주택,(주)미진주택",0537916875,고산노변타운.apti.co.kr,아파트,대구광역시 수성구 시지로 55,자치관리,계단식,19960813,0537916876,885,86190.0,450.0,345.0,90.0,0.0,68254.5,15,15,1,30,42259,35.8387062647311,128.695762918526
A70677811,시지월드메르디앙,2726011400,대구광역시,수성구,시지동,,대구광역시 수성구 시지동 41 시지월드메르디앙,분양,개별난방,91305.96,6,603.0,월드건설,시지한우아파트 주택재건축정비사업조함,0537926281,,아파트,대구광역시 수성구 천을로 70,위탁관리,계단식,20090528,0537956281,603,54242.77,34.0,425.0,144.0,0.0,54242.4598,25,25,2,0,42262,35.8440123782111,128.698533121255
A70677906,노변청구타운,2726011400,대구광역시,수성구,시지동,,대구광역시 수성구 시지동 486 노변청구타운,분양,개별난방,44124.465,4,465.0,(주)청구,(주)청구,0537916095,,아파트,대구광역시 수성구 시지로 21,자치관리,계단식,19960530,0532146095,479,39912.6,345.0,120.0,0.0,0.0,30879.75,15,15,1,16,42253,35.8412991691201,128.693694200576
A70677908,청구전원타운,2726011400,대구광역시,수성구,시지동,,대구광역시 수성구 시지동 349 청구전원타운,분양,개별난방,75133.24,6,678.0,(주)청구,(주)청구,0532162491,,아파트,대구광역시 수성구 시지로 45,위탁관리,혼합식,19901103,0532142491,678,59143.9,12.0,504.0,140.0,22.0,59143.9,12,12,1,23,42254,35.840455163115,128.696211184982
A10021905,신매역우방유쉘,2726011500,대구광역시,수성구,매호동,,대구광역시 수성구 매호동 775- 신매역우방유쉘,분양,개별난방,16358.0,1,121.0,우방건설,주식회사 수,0537955005,US7955005@naver.com,아파트,대구광역시 수성구 천을로23길 21,위탁관리,계단식,20071126,0537953669,121,13301.864,0.0,121.0,0.0,0.0,10280.1237,26,26,0,0,,35.8461206455107,128.704572255412
A10022147,매호화성파크드림,2726011500,대구광역시,수성구,매호동,,대구광역시 수성구 매호동 986-1 매호화성파크드림,분양,개별난방,190587008.0,1,143.0,(주)유성공영,화성산업,0537920803,,아파트,대구광역시 수성구 달구벌대로641길 31,위탁관리,계단식,20060309,0532950803,143,16007.849,0.0,143.0,0.0,0.0,12152.2401,0,20,0,4,,35.8429081695634,128.707804372554
A10026326,매호청구하이츠빌,2726011500,대구광역시,수성구,매호동,,대구광역시 수성구 매호동 721-1 매호청구하이츠빌,분양,개별난방,15625.0,1,128.0,(주)청구,(주)청구,0537924494,,아파트,대구광역시 수성구 천을로23길 26,자치관리,계단식,20001122,0537924491,128,12249.6,48.0,80.0,0.0,0.0,9679.6,20,20,2,4,42267,35.8457435565485,128.705668203954
A70614002,시지우방하이츠,2726011500,대구광역시,수성구,매호동,,대구광역시 수성구 매호동 1033 시지우방하이츠,분양,개별난방,25031.4,2,234.0,(주)우방,"(고려주택건설(주),대한토지신탁(주)",0537945080,,아파트,대구광역시 수성구 달구벌대로645길 22,자치관리,혼합식,19991115,0537945083,234,16238.891,94.0,140.0,0.0,0.0,16238.891,20,20,2,0,42270,35.8414003853773,128.711313564913
A70614006,매호효성백년가약,2726011500,대구광역시,수성구,매호동,,대구광역시 수성구 매호동 750 매호효성백년가약,분양,개별난방,63449.42,6,419.0,(주)효성,디씨엔드이엠(주),0537933371,,아파트,대구광역시 수성구 천을로23길 31,위탁관리,계단식,20060228,0537933372,419,51670.61,0.0,288.0,131.0,0.0,39873.2286,24,24,1,11,42267,35.8467781206884,128.705803146038
A70614007,매호한일유앤아이,2726011500,대구광역시,수성구,매호동,,대구광역시 수성구 매호동 979-4 매호한일유앤아이,분양,개별난방,81494.0,8,490.0,한일건설(주),(주)대전이앤씨,0537920499,매호한일유앤아이.apti.co.kr,아파트,대구광역시 수성구 고산로 162,위탁관리,계단식,20060411,0532190496,491,60047.92,0.0,404.0,86.0,0.0,45151.883,24,24,2,12,42266,35.8455484059194,128.707822363488
A70676301,시지2차서한타운,2726011500,대구광역시,수성구,매호동,,대구광역시 수성구 매호동 997-2 시지2차서한타운,분양,개별난방,24487.79,2,209.0,서한건설,서한건설,0537932688,,아파트,대구광역시 수성구 천을로31길 8,자치관리,계단식,19961112,0537932688,209,17238.38,100.0,69.0,40.0,0.0,17238.38,20,20,1,0,42265,35.8438325893072,128.709309577326
A70676303,매호2차동서타운,2726011500,대구광역시,수성구,매호동,,대구광역시 수성구 매호동 1077-1 매호2차동서타운,분양,개별난방,35001.965,3,282.0,동서개발,동서개발,0537925771,,아파트,대구광역시 수성구 달구벌대로641길 8,위탁관리,계단식,19990323,0532155771,282,27660.4,112.0,170.0,0.0,0.0,21145.16,20,20,0,8,42271,35.8411654618425,128.708749443387
A70676305,매호협화타운,2726011500,대구광역시,수성구,매호동,,대구광역시 수성구 매호동 1055 매호협화타운,분양,개별난방,45239.82,3,404.0,협화주택건설(주),협화주택건설(주),0532135204,aoghguqghk96@hanmail.net,아파트,대구광역시 수성구 천을로 181,자치관리,계단식,19960326,0532135205,404,37898.1,162.0,242.0,0.0,0.0,30153.24,15,15,0,14,42265,35.8431956264875,128.710496620506
A70676308,시지누리타운,2726011500,대구광역시,수성구,매호동,,대구광역시 수성구 매호동 1330 시지누리타운,분양,개별난방,52650.0,4,600.0,도시개발공사,(주)영남건설,0537937890,tlwlsnfl.atp.co.kr,아파트,대구광역시 수성구 달구벌대로637길 21,위탁관리,복도식,19950523,0537927604,600,49150.2,600.0,0.0,0.0,0.0,35145,15,15,0,8,42269,35.8425961901873,128.706422444336
A70676309,매호동서타운,2726011500,대구광역시,수성구,매호동,,대구광역시 수성구 매호동 1040 매호동서타운,분양,개별난방,88654.03,5,687.0,(주)동서개발,(주)동서개발,0537928244,,아파트,대구광역시 수성구 천을로 180,위탁관리,계단식,19951221,0537928597,687,76763.36,280.0,271.0,102.0,34.0,59191.44,18,18,2,0,42269,35.8419910585229,128.710106082203
A70676310,시지두레타운,2726011500,대구광역시,수성구,매호동,,대구광역시 수성구 매호동 1324 시지두레타운,분양,개별난방,48158.03,4,780.0,대구도시개발공사,대구도시개발공사,0537938507,,아파트,대구광역시 수성구 천을로 131,위탁관리,복도식,19950523,0547938504,780,43834.44,780.0,0.0,0.0,0.0,31122,15,15,0,8,42267,35.8445523494249,128.705198654983
A70676311,시지하나타운,2726011500,대구광역시,수성구,매호동,,대구광역시 수성구 매호동 1331 시지하나타운,분양,개별난방,91434.11,8,1200.0,"(주)서한, 형진건설",대구도시공사,0537936188,,아파트,대구광역시 수성구 고산로 123,위탁관리,복도식,19950523,0532148316,1200,84568.8,1200.0,0.0,0.0,0.0,58381.2,15,15,0,16,42268,35.842949715473,128.704574445075
A70676312,시지2차태왕하이츠,2726011500,대구광역시,수성구,매호동,,대구광역시 수성구 매호동 1075-1 시지2차태왕하이츠,분양,개별난방,30225.0,3,248.0,(주)태왕,(주)태왕,0537948180,없음,아파트,대구광역시 수성구 천을로 170,자치관리,계단식,20010413,0532138180,248,27517.016,0.0,248.0,0.0,0.0,20080.711,18,18,1,2,42269,35.842458272724,128.708739660786
A10022277,사월역삼정그린코아카운티,2726011700,대구광역시,수성구,사월동,,대구광역시 수성구 사월동 409-1 사월역삼정그린코아카운티,임대,개별난방,22040.0,1,101.0,삼정건설,HB주택건설,0537914778,,아파트,대구광역시 수성구 달구벌대로 3297,위탁관리,계단식,20231207,0537924778,101,13630.673,0.0,51.0,50.0,0.0,10334.1073,18,18,2,0,,35.8373939670382,128.716335213937
A10025694,시지3차 서한이다음,2726011700,대구광역시,수성구,사월동,,대구광역시 수성구 사월동 650 시지3차 서한이다음,분양,개별난방,59225.0,6,383.0,(주)서한,(주)서한,0537950501,시지3차서한이다음.apti.co.kr,아파트,대구광역시 수성구 달구벌대로669길 20-20,위탁관리,계단식,20181114,0537950502,383,44559.434,0.0,328.0,55.0,0.0,33265.59,15,15,1,0,42273,35.8364851525151,128.724172554694
A70616001,시지 푸르지오,2726011700,대구광역시,수성구,사월동,,대구광역시 수성구 사월동 325 시지 푸르지오,분양,개별난방,54239.34,5,362.0,(주)대우건설,(주)대승디엔씨,0537952500,,아파트,대구광역시 수성구 달구벌대로661길 7,위탁관리,계단식,20060529,0532940689,362,34622.94,0.0,147.0,215.0,0.0,34622.9418,23,23,2,9,42272,35.8373636505494,128.719167852316
A70616002,시지대성유니드,2726011700,대구광역시,수성구,사월동,,대구광역시 수성구 사월동 500 시지대성유니드,분양,개별난방,70068.0,5,413.0,대성산업,가주건설,0537934020,,아파트,대구광역시 수성구 달구벌대로669길 80,위탁관리,계단식,20070629,0532947476,413,44791.945,0.0,70.0,343.0,0.0,44791.9437,18,18,1,12,42273,35.8392532576021,128.721091784391
A70616003,시지6차태왕리더스,2726011700,대구광역시,수성구,사월동,,대구광역시 수성구 사월동 510-2 시지6차태왕리더스,분양,개별난방,59860.29,7,527.0,(주)태왕,(주)아인,0537956500,,아파트,대구광역시 수성구 달구벌대로669길 70,위탁관리,계단식,20041230,0537956501,527,56187.68,0.0,527.0,0.0,0.0,44758.11,15,15,1,0,42273,35.8386347684563,128.721849559172
A70616004,시지2차사월보성타운,2726011700,대구광역시,수성구,사월동,,대구광역시 수성구 사월동 464 시지2차사월보성타운,분양,중앙난방,202118.8,8,1498.0,(주)보성,(주)보성,0537922868,swbosung.com,아파트,대구광역시 수성구 욱수천로 133,위탁관리,혼합식,19960907,0537915268,1498,173231.06,648.0,498.0,276.0,76.0,132228.008,20,20,2,26,42270,35.8403422791312,128.715376473761
A70677401,시지동화아이위시,2726011700,대구광역시,수성구,사월동,,대구광역시 수성구 사월동 642 시지동화아이위시,분양,개별난방,53533.145,4,352.0,(주)동화주택,(주)동화주택,0537921299,,아파트,대구광역시 수성구 달구벌대로669길 20,위탁관리,계단식,20130222,0532874899,352,37364.656,0.0,352.0,0.0,0.0,28794.0766,18,18,2,10,42273,35.8360927851027,128.723036719002
A70677402,시지한신휴플러스,2726011700,대구광역시,수성구,사월동,,대구광역시 수성구 사월동 645 시지한신휴플러스,분양,개별난방,96515.734,6,510.0,한신공영(주),대한주택보증(주),0537916116,sijihansinhyuplus.apti.co.kr,아파트,대구광역시 수성구 달구벌대로669길 50,위탁관리,혼합식,20131203,0537916117,510,72487.08,0.0,241.0,269.0,0.0,54534.7493,18,18,2,0,42273,35.8376866486172,128.722933634286
A10021155,유성푸르나임르노블,2726011800,대구광역시,수성구,신매동,,대구광역시 수성구 신매동 57-17 유성푸르나임르노블,분양,개별난방,26734.014,1,119.0,유성푸르나임르노블,유성푸르나임르노블,0532955717,,주상복합,대구광역시 수성구 달구벌대로 3308,위탁관리,혼합식,20090529,0532945717,119,17408.0,0.0,17.0,102.0,0.0,12707.3096,18,18,3,3,,35.8344092077588,128.717472818093
A10021659,신매효성백년가약청,2726011800,대구광역시,수성구,신매동,,대구광역시 수성구 신매동 280- 신매효성백년가약청,분양,개별난방,21642.0,3,138.0,효성,(주)킴스디앤씨,0537953311,,아파트,대구광역시 수성구 달구벌대로 3233,위탁관리,계단식,20060724,0537953310,138,21202.4,0.0,0.0,138.0,0.0,16874.7494,15,15,2,5,,35.8395816976466,128.710771274403
A10023367,시지라온프라이빗,2726011800,대구광역시,수성구,신매동,,대구광역시 수성구 신매동 610 시지라온프라이빗,분양,개별난방,34204.906,5,207.0,라온건설,(주)한국토지신탁,0537937030,,아파트,대구광역시 수성구 달구벌대로656길 32,위탁관리,계단식,20230131,0537937031,207,22728.477,0.0,207.0,0.0,0.0,35183.583,27,27,2,5,42280,35.8342567216644,128.713447169314
A70617001,사월화성파크드림3단지,2726011800,대구광역시,수성구,신매동,,대구광역시 수성구 신매동 49 사월화성파크드림3단지,분양,개별난방,23861.053,3,167.0,화성(주),화성(주),0537948103,,아파트,대구광역시 수성구 달구벌대로 3304-2,위탁관리,계단식,20060323,0532469103,195,21025.38,0.0,85.0,82.0,0.0,16398.3565,18,18,1,5,42278,35.8348064264972,128.714570494243
A70617004,사월화성파크드림1단지,2726011800,대구광역시,수성구,신매동,,대구광역시 수성구 신매동 10-14 사월화성파크드림1단지,분양,개별난방,32439.16,5,188.0,화성산업(주),화성산업(주),0537948101,,아파트,대구광역시 수성구 달구벌대로 3304,위탁관리,계단식,20060323,0532469104,188,21938.895,0.0,154.0,34.0,0.0,17288.1992,18,18,1,7,42279,35.8358802528262,128.716568307435
A70617005,시지3차태왕하이츠,2726011800,대구광역시,수성구,신매동,,대구광역시 수성구 신매동 100 시지3차태왕하이츠,분양,개별난방,27190.0,3,236.0,(주)태왕,태왕,0537920899,없음,아파트,대구광역시 수성구 욱수천로 77,자치관리,계단식,20011211,0537920899,236,25827.826,0.0,236.0,0.0,0.0,18973.736,20,20,0,7,42281,35.835036091108,128.711172197454
A70617009,시지효성백년가약2단지,2726011800,대구광역시,수성구,신매동,,대구광역시 수성구 신매동 30-6 시지효성백년가약2단지,분양,개별난방,43820.93,4,293.0,효성건설,효성투자개발,0537956114,시지효성백년가약2.apti.co.kr,아파트,대구광역시 수성구 달구벌대로 3280-1,위탁관리,계단식,20080620,0537950154,293,43820.926,0.0,81.0,178.0,34.0,33354.276,18,18,2,9,42278,35.8354816383987,128.714469824472
A70617010,시지효성백년가약1단지,2726011800,대구광역시,수성구,신매동,,대구광역시 수성구 신매동 30-5 시지효성백년가약1단지,분양,개별난방,73581.28,5,299.0,효성건설,효성투자개발,0537955114,시지효성백년가약1.apti.co.kr/,주상복합,대구광역시 수성구 달구벌대로 3280,위탁관리,계단식,20080620,0537952280,299,34547.83,0.0,66.0,199.0,34.0,34547.828,18,18,3,0,42278,35.8364962235474,128.714659096659
A70617011,아이프라임신매,2726011800,대구광역시,수성구,신매동,,대구광역시 수성구 신매동 230 아이프라임신매,분양,개별난방,50809.0,6,309.0,SD건설(주),신한 I&C,0537955554,,아파트,대구광역시 수성구 달구벌대로649길 14,위탁관리,계단식,20081030,0537940299,309,35778.51,0.0,249.0,60.0,0.0,27898.2051,15,15,2,7,42271,35.8389435724765,128.712936644137
A70617012,사월화성파크드림2단지,2726011800,대구광역시,수성구,신매동,,대구광역시 수성구 신매동 46 사월화성파크드림2단지,분양,개별난방,48873.0,4,297.0,화성산업(주),(주)태광하우징,0537948102,사월화성파크드림2단지.apti.co.kr,주상복합,대구광역시 수성구 달구벌대로 3304-1,위탁관리,계단식,20060323,0532469102,297,36530.05,0.0,217.0,16.0,64.0,28741.9095,18,18,1,10,42279,35.8350091812076,128.716028534569
A70617013,시지태왕하이츠,2726011800,대구광역시,수성구,신매동,,대구광역시 수성구 신매동 263 시지태왕하이츠,분양,개별난방,36424.0,4,343.0,(주)태왕,태왕,0537914976,,아파트,대구광역시 수성구 달구벌대로647길 16,위탁관리,계단식,20001209,0532478690,343,31849.13,146.0,197.0,0.0,0.0,24381.831,20,20,1,9,42271,35.8395145505825,128.711632614931
A70617017,시지보성서한타운,2726011800,대구광역시,수성구,신매동,,대구광역시 수성구 신매동 601 시지보성서한타운,분양,개별난방,99870.0,6,664.0,"주)보성, 주)서한","주)보성,주)서한",0537924736,,아파트,대구광역시 수성구 신매로 21,자치관리,계단식,19950208,0537924738,664,73481.68,0.0,204.0,460.0,0.0,73481.68,17,17,0,20,42287,35.8318647629805,128.706005900361
A70617020,시지삼주한라협화타운,2726011800,대구광역시,수성구,신매동,,대구광역시 수성구 신매동 570 시지삼주한라협화타운,분양,개별난방,93338.64,6,954.0,"삼주개발 ,한라주택,협화주택",삼주한라협화,0537911606,,아파트,대구광역시 수성구 신매로 91,위탁관리,혼합식,19940827,0532141606,954,93338.64,738.0,216.0,0.0,0.0,62516.88,15,15,1,21,42274,35.8379616558227,128.707761841882
A70675021,시지천마타운,2726011800,대구광역시,수성구,신매동,,대구광역시 수성구 신매동 579 시지천마타운,분양,개별난방,149681.08,12,1095.0,"영남,청구,화성","영남,청구,화성",0537910131,,아파트,대구광역시 수성구 신매로 71,위탁관리,계단식,19940527,0537910141,1095,140013.16,0.0,375.0,720.0,0.0,124034.85,15,15,1,37,42284,35.8360986312224,128.707224684689
A70678002,시지에덴타운,2726011800,대구광역시,수성구,신매동,,대구광역시 수성구 신매동 594-1 시지에덴타운,분양,개별난방,27424.3,3,210.0,에덴,에덴,0537924516,,아파트,대구광역시 수성구 고산로12길 34,자치관리,계단식,19940827,0532154516,210,24586.5,0.0,75.0,135.0,0.0,24586.5,15,15,0,7,42286,35.8331109006853,128.705703919306
A70678008,신화빌라트,2726011800,대구광역시,수성구,신매동,,대구광역시 수성구 신매동 139-1 신화빌라트,분양,개별난방,30718.96,4,291.0,t신화주택,신화주택,0537930470,,아파트,대구광역시 수성구 달구벌대로650길 29,자치관리,계단식,19961122,0537592881,291,27557.023,122.0,169.0,0.0,0.0,21679.18,20,20,0,10,42276,35.8359438171281,128.710291324684
A70678019,대백신화창신맨션,2726011800,대구광역시,수성구,신매동,,대구광역시 수성구 신매동 569 대백신화창신맨션,분양,개별난방,87457.43,6,870.0,대백.신화.창신주택,대백.신화..창신주택,0537924665,,아파트,대구광역시 수성구 고산로 90,위탁관리,혼합식,19940907,0537924660,870,77454.99,630.0,240.0,0.0,0.0,58110.3,15,15,0,21,42285,35.8381522420352,128.705414783826
A70678022,신매한라하우젠트,2726011800,대구광역시,수성구,신매동,,대구광역시 수성구 신매동 10-31 신매한라하우젠트,분양,개별난방,41401.88,3,255.0,한라주택,한라주택,0537931699,,주상복합,대구광역시 수성구 달구벌대로 3310,위탁관리,계단식,20060721,0537931697,287,27811.574,0.0,255.0,0.0,0.0,21663.7967,18,18,2,7,42279,35.8354490220386,128.717687126077
A70678023,시지반도유보라,2726011800,대구광역시,수성구,신매동,,대구광역시 수성구 신매동 162 시지반도유보라,분양,개별난방,42136.41,4,262.0,주식회사 반도건설,삼두아파트재건축조함,0537910905,,아파트,대구광역시 수성구 욱수천로 87,위탁관리,계단식,20121224,0537910204,262,30232.861,0.0,258.0,4.0,0.0,22466.3215,17,17,2,0,42277,35.8361534594248,128.711762914585
A70678114,시지동서타운,2726011800,대구광역시,수성구,신매동,,대구광역시 수성구 신매동 594 시지동서타운,분양,개별난방,57761.0,3,360.0,동서개발,동서개발,0537926018,,아파트,대구광역시 수성구 신매로 41,위탁관리,계단식,19951027,0537926019,360,40456.8,0.0,120.0,240.0,0.0,40456.8,16,16,0,4,42286,35.8332005678554,128.706820418853
A70678115,시지두성타운,2726011800,대구광역시,수성구,신매동,,대구광역시 수성구 신매동 595 시지두성타운,분양,개별난방,40749.95,3,385.0,우왕건설,(주)두성주택,0537910709,,아파트,대구광역시 수성구 고산로 30,자치관리,혼합식,19940629,0532140709,385,26697.45,235.0,150.0,0.0,0.0,26697.45,15,15,1,9,42286,35.8336371919266,128.704723988409
A70678116,신매태성맨션,2726011800,대구광역시,수성구,신매동,,대구광역시 수성구 신매동 581 신매태성맨션,분양,개별난방,53145.43,3,490.0,태성주택(주),태성주택(주),0537912630,홈페이지없음,아파트,대구광역시 수성구 고산로 50,자치관리,혼합식,19940620,0532142630,490,44663.7,310.0,180.0,0.0,0.0,33884,15,15,1,10,42286,35.8350097443772,128.704994383263
A70678118,시지청솔타운,2726011800,대구광역시,수성구,신매동,,대구광역시 수성구 신매동 580 시지청솔타운,분양,개별난방,67451.68,6,750.0,대구광역시도시개발공사,대구광역시도시개발공사,0537926328,,아파트,대구광역시 수성구 고산로 70,위탁관리,복도식,19951123,0532146328,750,60888.33,750.0,0.0,0.0,0.0,43287.3,15,15,1,12,42285,35.8369269179734,128.70524092265
A70678203,신매우방타운,2726011800,대구광역시,수성구,신매동,,대구광역시 수성구 신매동 246 신매우방타운,분양,개별난방,23219.98,1,221.0,(주)우방,(주)우방,0537935344,,아파트,대구광역시 수성구 달구벌대로651길 33,자치관리,혼합식,19971125,0537935344,221,18218.182,118.0,103.0,0.0,0.0,13883.03,20,20,2,6,42270,35.8405924707463,128.71350465434
A70678307,시지3차신매보성타운,2726011800,대구광역시,수성구,신매동,,대구광역시 수성구 신매동 245 시지3차신매보성타운,분양,개별난방,25181.69,1,251.0,(주)보성,(주)보성,0537920455,,아파트,대구광역시 수성구 달구벌대로651길 23,자치관리,혼합식,19971113,0532140455,251,21384.64,133.0,118.0,0.0,0.0,16227.95,20,20,2,5,42271,35.8393302335852,128.713525310522
A10023150,시지삼정그린코아포레스트,2726011900,대구광역시,수성구,욱수동,,대구광역시 수성구 욱수동 25-2 시지삼정그린코아포레스트,임대,개별난방,115070.984,7,667.0,삼정기업,휴먼,0537932230,,아파트,대구광역시 수성구 욱수천로2길 22,위탁관리,계단식,20230522,0537932231,667,114007.86,0.0,496.0,171.0,0.0,59545.7029,32,32,3,24,42280,35.8301629089159,128.710953784416
A70618001,시지4차태왕하이츠레전드,2726011900,대구광역시,수성구,욱수동,,대구광역시 수성구 욱수동 185-1 시지4차태왕하이츠레전드,분양,개별난방,51909.758,5,402.0,(주)태왕,(주)태왕,0537911299,,아파트,대구광역시 수성구 욱수천로 27,자치관리,계단식,20040217,0537911899,402,44400.48,0.0,366.0,36.0,0.0,34321.5752,23,23,1,10,42282,35.8310098972238,128.709781622271
A70618002,시지태왕5차월드하이츠,2726011900,대구광역시,수성구,욱수동,,대구광역시 수성구 욱수동 130 시지태왕5차월드하이츠,분양,개별난방,55879.0,3,416.0,(주)태왕,(주)태왕,0537910767,,아파트,대구광역시 수성구 욱수천로 7,위탁관리,계단식,20041230,0532130767,416,48158.668,0.0,328.0,88.0,0.0,37591.0728,23,23,0,10,42282,35.8295173422175,128.708927200137
A70691901,웰리치시지,2726011900,대구광역시,수성구,욱수동,,대구광역시 수성구 욱수동 246 웰리치시지,분양,개별난방,75281.0,4,366.0,보국건설,KB투자신탁,0537959669,,아파트,대구광역시 수성구 욱수천로 55,위탁관리,계단식,20080912,0537959668,366,54870.31,0.0,89.0,233.0,44.0,43391.6394,15,15,2,14,42281,35.8332424862692,128.710380625103
A10024251,수성알파시티 청아람,2726012000,대구광역시,수성구,노변동,,대구광역시 수성구 노변동 742 수성알파시티 청아람,혼합,개별난방,114027.766,11,844.0,(주)한진중공업,대구도시공사,0537921005,,아파트,대구광역시 수성구 알파시티2로 96,위탁관리,계단식,20210625,0537921006,844,69068.12,600.0,244.0,0.0,0.0,51383.2202,25,25,2,23,42251,35.8345968156348,128.696791373898
A70623002,수성월드메르디앙,2726012000,대구광역시,수성구,노변동,,대구광역시 수성구 노변동 353 수성월드메르디앙,분양,개별난방,121583.08,9,753.0,월드건설,유성이엔지,0537951980,,아파트,대구광역시 수성구 노변로 55,위탁관리,계단식,20071126,0537951981,753,92641.3,0.0,536.0,145.0,72.0,72519.8696,19,19,2,0,42258,35.8362979733253,128.699214443961
A70675101,노변대백,2726012000,대구광역시,수성구,노변동,,대구광역시 수성구 노변동 440 노변대백,분양,개별난방,50230.008,4,432.0,(주)SD건설,(주)SD건설,0537913574,,아파트,대구광역시 수성구 노변로 11,위탁관리,계단식,19990830,0532143574,451,50050.93,131.0,183.0,118.0,0.0,39315.04,20,20,0,12,42251,35.8326969400141,128.69897342158
