kaptCode,kaptName,bjdCode,as1,as2,as3,as4,kaptAddr,codeSaleNm,codeHeatNm,kaptTarea,kaptDongCnt,kaptdaCnt,kaptBcompany,kaptAcompany,kaptTel,kaptUrl,codeAptNm,doroJuso,codeMgrNm,codeHallNm,kaptUsedate,kaptFax,hoCnt,kaptMarea,kaptMparea60,kaptMparea85,kaptMparea135,kaptMparea136,privArea,kaptTopFloor,ktownFlrNo,kaptBaseFloor,kaptdEcntp,zipcode,위도,경도
A10025875,뜰안채주상복합 아파트,3011010100,대전광역시,동구,원동,,대전광역시 동구 원동 35-3 뜰안채주상복합 아파트,분양,개별난방,12111.35,1,69.0,교진건설,디엔디 산업개발,0422862600,,아파트,대전광역시 동구 대전로 758,자치관리,복도식,20070612,0422862601,69,75156.28,0.0,67.0,2.0,0.0,5260.068,15,15,4,2,34629,36.327592520446,127.435069565447
A10020521,대전스카이자이르네,3011010200,대전광역시,동구,인동,,대전광역시 동구 인동 72-1 대전스카이자이르네,분양,개별난방,34294.844,1,175.0,자이에스앤디(주),워너프로퍼티(주),0427101571,,주상복합,대전광역시 동구 대전로 719,위탁관리,계단식,20250723,0427101572,175,20098.512,0.0,175.0,0.0,0.0,14873.8695,1,39,0,0,,36.3243335420173,127.435949729146
A10022215,세강듀오빌아파트,3011010200,대전광역시,동구,인동,,대전광역시 동구 인동 78-4 세강듀오빌아파트,분양,개별난방,13058.0,1,125.0,세강토건(주),세강토건(주),0422857887,,아파트,대전광역시 동구 대전천동로 478,자치관리,복도식,20040901,0422857887,125,10687.35,125.0,0.0,0.0,0.0,7490.8,0,15,2,0,,36.3245149250557,127.434545628519
A10026863,인동누리보듬아파트,3011010200,대전광역시,동구,인동,,대전광역시 동구 인동 175-50 인동누리보듬아파트,임대,개별난방,10756.223,4,244.0,금성건설,대전광역시,0422712801,,아파트,대전광역시 동구 계족로51번길 38,위탁관리,복도식,20170731,0422712801,244,10756.215,244.0,0.0,0.0,0.0,5943.5712,7,7,0,6,34635,36.3200176893965,127.44104157443
A30002004,어진마을,3011010200,대전광역시,동구,인동,,대전광역시 동구 인동 353 어진마을,분양,개별난방,86371.27,9,813.0,대한토지주택공사,계룡건설.고려산업,0422861900,어진마을.ma-um.co.kr,아파트,대전광역시 동구 계족로 65,위탁관리,계단식,20070413,0422861901,813,75051.28,454.0,359.0,0.0,0.0,56821.73,25,25,1,20,34639,36.3212224022076,127.442182915785
A30074001,인동참좋은,3011010200,대전광역시,동구,인동,,대전광역시 동구 인동 18-1 인동참좋은,임대,개별난방,45409.684,1,280.0,RDM산업개발(주),(주)건강건설,0422710065,,주상복합,대전광역시 동구 대전로 706,위탁관리,복도식,20101209,0422710061,291,32621.26,0.0,280.0,0.0,0.0,23420.5874,15,15,4,5,34632,36.323382121761,127.437393509571
A30076903,인동현대아파트,3011010200,대전광역시,동구,인동,,대전광역시 동구 인동 179-1 인동현대아파트,분양,개별난방,69741.4,10,728.0,현대산업개발(주),현대산업개발(주),0422845326,인동현대apti.co.kr,아파트,대전광역시 동구 대전로 664,위탁관리,혼합식,19870611,0423315326,728,68579.68,52.0,676.0,0.0,0.0,54580.5,13,13,0,27,34635,36.3196821071374,127.440108049477
A30082701,인동모닝빌아파트,3011010200,대전광역시,동구,인동,,대전광역시 동구 인동 29-2 인동모닝빌아파트,혼합,개별난방,22279.0,1,162.0,나성종합건설(주),나성종합건설(주),0422859811,인동모닝빌아파트.ma-um.co.kr,아파트,대전광역시 동구 대전천동로 458,위탁관리,복도식,20060608,0422859811,162,17262.71,0.0,162.0,0.0,0.0,13329.8136,15,15,4,2,34633,36.3230289402632,127.435842012212
A30082702,인동한울,3011010200,대전광역시,동구,인동,,대전광역시 동구 인동 73-1 인동한울,분양,개별난방,25962.0,2,225.0,부성건설(주),부성건설(주),0422858400,,아파트,대전광역시 동구 대흥로206번길 54,위탁관리,혼합식,20030625,0422858401,225,19150.95,150.0,75.0,0.0,0.0,14334.093,15,15,2,0,34631,36.324019504399,127.435176883361
A30078301,효동현대,3011010300,대전광역시,동구,효동,,대전광역시 동구 효동 135-1 효동현대,분양,개별난방,127369.85,9,1056.0,현대산업개발,현대산업개발,0422719391,효동현대.apti.co.kr/default.asp,아파트,대전광역시 동구 대전로 646,위탁관리,계단식,19980919,0423421109,1056,109584.18,231.0,663.0,162.0,0.0,86169.2025,25,25,2,32,34636,36.3180549495173,127.440668271555
A10020979,리더스시티5단지아파트,3011010400,대전광역시,동구,천동,,대전광역시 동구 천동 228-9 리더스시티5단지아파트,혼합,개별난방,268268.9,16,2135.0,"계룡컨소시엄 = 계룡건설산업(주), (주)대우건설, (주)태영건설, 금호건설(주)",한국토지주택공사,0422731110,,아파트,대전광역시 동구 안샘로14번길 7,위탁관리,혼합식,20241219,0422731150,2135,187040.27,1263.0,872.0,0.0,0.0,138884.78,29,29,3,49,,36.317600456574,127.445900921583
A10022216,천동홍익아파트,3011010400,대전광역시,동구,천동,,대전광역시 동구 천동 71-14 천동홍익아파트,분양,,9985.0,1,102.0,주식회사 삼익,주식회사 삼익,0422713257,,아파트,대전광역시 동구 대전로 529,위탁관리,복도식,20000814,0422713257,102,8426.424,102.0,0.0,0.0,0.0,6058.8,15,15,1,2,,36.3109516284645,127.447138317214
A10022472,리더스시티4BL,3011010400,대전광역시,동구,천동,,대전광역시 동구 천동 173- 리더스시티4BL,분양,개별난방,178524.48,10,1328.0,한국토지주택공사,계룡건설,0422869243,,아파트,대전광역시 동구 안샘로 11,위탁관리,계단식,20240722,0422869244,1328,176559.36,456.0,872.0,0.0,0.0,96117.16,29,29,2,30,,36.3184218476739,127.444191024444
A30004002,천동휴먼시아1단지,3011010400,대전광역시,동구,천동,,대전광역시 동구 천동 529 천동휴먼시아1단지,임대,개별난방,87119.984,9,946.0,계룡건설,한국토지주택공사,0422862500,www.345235@kohom.co.kr,아파트,대전광역시 동구 대전로542번길 78,위탁관리,혼합식,20081106,0422862502,946,86828.6,946.0,0.0,0.0,0.0,51895.52,23,23,1,21,34686,36.3146493735451,127.446720482348
A30077701,천동휴먼시아2단지,3011010400,대전광역시,동구,천동,,대전광역시 동구 천동 528 천동휴먼시아2단지,분양,개별난방,100150.73,9,763.0,"남양건설, 신동아건설",한국토지주택공사,0422841300,www.ch1300apt.hanmail.com,아파트,대전광역시 동구 대전로542번길 78-1,위탁관리,계단식,20081106,0422861301,763,66324.71,0.0,669.0,94.0,0.0,66324.71,25,25,0,18,34686,36.3150564288924,127.449079367732
A30077702,위드힐,3011010400,대전광역시,동구,천동,,대전광역시 동구 천동 540 위드힐,분양,개별난방,145904.4,16,960.0,이수건설,LH공사,0422859920,위드힐.com,아파트,대전광역시 동구 대전로542번길 121,위탁관리,계단식,20130603,0422859930,960,144912.28,72.0,799.0,89.0,0.0,82726.9,27,27,0,0,,36.3155193512648,127.442874837147
A30005001,은어송마을4단지,3011010500,대전광역시,동구,가오동,,대전광역시 동구 가오동 555 은어송마을4단지,임대,개별난방,23441.668,6,307.0,대동건설,대한주택공사,0422850080,www.tjapt.kr/apt/60563,아파트,대전광역시 동구 은어송로 116,위탁관리,복도식,20070726,0422850081,307,23274.797,307.0,0.0,0.0,0.0,13138.04,14,14,0,8,34681,36.3098697528759,127.461837882424
A30005002,은어송마을6단지,3011010500,대전광역시,동구,가오동,,대전광역시 동구 가오동 497 은어송마을6단지,분양,개별난방,69001.43,7,451.0,풍림,풍림산업,0422726677,www.은어송6.tjapt.kr,아파트,대전광역시 동구 신기로 100,위탁관리,계단식,20071026,0422726969,451,51771.37,0.0,451.0,0.0,0.0,38096.97,18,18,2,11,34680,36.3096825994309,127.457095919594
A30005004,은어송마을5단지 우미린아파트,3011010500,대전광역시,동구,가오동,,대전광역시 동구 가오동 556 은어송마을5단지 우미린아파트,분양,개별난방,74404.09,8,653.0,우미종합건설,우미종합건설,0422747774,은어송5단지.apti.co.kr,아파트,대전광역시 동구 은어송로 100,위탁관리,계단식,20070130,0422747775,653,60257.96,653.0,0.0,0.0,0.0,39163.1223,23,23,2,17,34681,36.3082363544787,127.459736890217
A30005005,은어송마을1단지,3011010500,대전광역시,동구,가오동,,대전광역시 동구 가오동 658 은어송마을1단지,분양,개별난방,94879.0,8,664.0,풍림산업(주),명성씨엔아이(주),0422730074,은어송마을1단지.com,아파트,대전광역시 동구 동구청로 67,위탁관리,계단식,20070619,0422730075,664,73674.07,0.0,664.0,0.0,0.0,56384.1546,31,31,0,14,34695,36.3047683371941,127.457201735418
A30005006,은어송마을3단지,3011010500,대전광역시,동구,가오동,,대전광역시 동구 가오동 496 은어송마을3단지,분양,개별난방,127524.84,12,696.0,현대산업개발(주),현대산업개발(주),0422830084,www.gaoipark.com,아파트,대전광역시 동구 은어송로 117,위탁관리,계단식,20060726,0422830085,696,65784.76,0.0,414.0,282.0,0.0,65784.7576,20,20,2,20,34681,36.3110924341075,127.460282000469
A30075903,가오주공아파트,3011010500,대전광역시,동구,가오동,,대전광역시 동구 가오동 210 가오주공아파트,분양,개별난방,27941.0,15,460.0,주택공사,(주)한신공영,0422840403,,아파트,대전광역시 동구 대전로448번길 11,자치관리,계단식,19851026,0422830403,470,27742.74,460.0,0.0,0.0,0.0,24782.64,5,5,0,0,34692,36.3070365302761,127.452936121084
A10023828,신흥sk뷰아파트,3011010600,대전광역시,동구,신흥동,,대전광역시 동구 신흥동 161-33 신흥sk뷰아파트,혼합,개별난방,216988.0,12,1588.0,sk에코플랜트,신흥skview주택재개발정비사업조합,0422837600,신흥sk뷰아파트.apti.co.kr,아파트,대전광역시 동구 충무로 255,위탁관리,계단식,20220428,0422837601,1588,145025.33,897.0,691.0,0.0,0.0,107915.1384,33,33,3,34,34642,36.3236238961948,127.443389203493
A10025986,이스트시티2단지,3011010600,대전광역시,동구,신흥동,,대전광역시 동구 신흥동 262 이스트시티2단지,혼합,개별난방,79467.42,5,636.0,남해종합개발,한국주택토지공자충남본부,0422717700,,아파트,대전광역시 동구 동대전로46번길 120,위탁관리,혼합식,20181011,0422718700,636,79277.87,406.0,230.0,0.0,0.0,36191,24,24,2,12,34638,36.3234167741343,127.439909993252
A30011001,신흥마을주공아파트,3011010600,대전광역시,동구,신흥동,,대전광역시 동구 신흥동 212 신흥마을주공아파트,분양,개별난방,77099.14,9,721.0,대한주택공사,경남기업,0422854006,신흥마을아파트.apti.co.kr,아파트,대전광역시 동구 옥천로 38,위탁관리,계단식,20060503,0422854007,721,76674.15,339.0,382.0,0.0,0.0,51013.8,25,25,1,18,34669,36.3205152155895,127.445105481657
A10022892,방주아파트,3011010700,대전광역시,동구,판암동,,대전광역시 동구 판암동 328 방주아파트,분양,개별난방,11342.24,2,133.0,"(주)대부건설 , (주)신생종합건설","(주)대부건설, (주)신생종합건설",0423459345,,아파트,대전광역시 동구 동구청로204번길 46,위탁관리,계단식,19980728,0423459346,133,11342.24,105.0,28.0,0.0,0.0,8643.39,15,15,0,5,34676,36.315420426681,127.458712193601
A10026140,삼정그린코아포레스트2단지아파트,3011010700,대전광역시,동구,판암동,,대전광역시 동구 판암동 834 삼정그린코아포레스트2단지아파트,분양,개별난방,42980.81,4,320.0,삼정기업,삼정기업,0422868530,,아파트,대전광역시 동구 새울로 19,위탁관리,계단식,20180705,0422868531,320,29395.95,129.0,191.0,0.0,0.0,21408.9586,21,21,2,12,34675,36.3207000684555,127.461636844211
A10026152,삼정그린코아포레스트1단지아파트,3011010700,대전광역시,동구,판암동,,대전광역시 동구 판암동 839 삼정그린코아포레스트1단지아파트,분양,개별난방,164013.52,16,1245.0,(주)삼정기업,(주)삼정기업,0422868403,,아파트,대전광역시 동구 동부로10번길 55,위탁관리,혼합식,20180712,0422868404,1245,115958.28,397.0,848.0,0.0,0.0,85396.3828,25,25,2,39,34675,36.3190124980106,127.459702951008
A30013001,판암주공5,3011010700,대전광역시,동구,판암동,,대전광역시 동구 판암동 236 판암주공5,분양,개별난방,88458.8,10,1436.0,대한주택공사,대한주택공사,0422827288,판암주공5.ma-um.co.kr,아파트,대전광역시 동구 동부로 73,위탁관리,복도식,19920820,0422857288,1436,86798.74,1436.0,0.0,0.0,0.0,66424.09,15,15,0,16,34664,36.322511143166,127.458551508013
A30013002,판암주공1차2차,3011010700,대전광역시,동구,판암동,,대전광역시 동구 판암동 178 판암주공1차2차,분양,중앙난방,179303.75,19,2146.0,LH,"쌍용건설, 영진건설, 계룡건설, 신동아건설",0422823052,판암주공1-2단지.apti.co.kr,아파트,대전광역시 동구 옥천로180번길 47-2,위탁관리,복도식,19900315,0422847472,2146,179057.92,1666.0,480.0,0.0,0.0,129960.74,15,15,0,31,34677,36.3160005750067,127.463346481918
A30077302,대전판암3,3011010700,대전광역시,동구,판암동,,대전광역시 동구 판암동 314 대전판암3,임대,중앙난방,35124.0,3,768.0,한국토지주택공사,계룡건설,0422828581,345020@kohom.co.kr,아파트,대전광역시 동구 옥천로 152-9,위탁관리,복도식,19910801,0422836594,768,32520.0,768.0,0.0,0.0,0.0,21953.16,15,15,1,10,34676,36.3162782625416,127.458264451577
A30077402,대전판암4,3011010700,대전광역시,동구,판암동,,대전광역시 동구 판암동 239 대전판암4,임대,,105799.57,15,2415.0,lh,lh,0422710346,www.kohom.co.kr,아파트,대전광역시 동구 동부로 56-7,위탁관리,복도식,19920820,0422710347,2394,98357.29,2415.0,0.0,0.0,0.0,66049.65,15,15,0,30,34674,36.3213220564568,127.460867215847
A30077601,판암주공6,3011010700,대전광역시,동구,판암동,,대전광역시 동구 판암동 233 판암주공6,분양,개별난방,40151.0,3,720.0,대한주택공사,대한주택공사,0422721027,판암주공6.ma-um.co.kr,아파트,대전광역시 동구 동부로 55-58,위탁관리,복도식,19920820,0422836878,720,38241.6,720.0,0.0,0.0,0.0,29332.8,15,15,0,8,34664,36.3240626344011,127.458168701444
A30083201,신한미리내,3011010700,대전광역시,동구,판암동,,대전광역시 동구 판암동 460 신한미리내,분양,개별난방,30553.17,4,276.0,(주)신한,(주)신한,0422724182,http://www.onlineapt.co.kr/apt/60293/,아파트,대전광역시 동구 동구청로203번길 35,위탁관리,계단식,19990731,0422724183,276,25803.68,136.0,140.0,0.0,0.0,20041.48,18,18,0,10,34673,36.3156442618778,127.454825254247
A10024504,e편한세상 대전에코포레 아파트,3011010900,대전광역시,동구,용운동,,대전광역시 동구 용운동 297 e편한세상 대전에코포레 아파트,분양,개별난방,288806.84,18,2267.0,"대림건설(주), 대림산업(주)",용운주공아파트 주택재건축 정비사업조합,0422718841,e편한세상대전에코포레.apti.co.kr/,아파트,대전광역시 동구 용운로 203,위탁관리,계단식,20201127,0422718851,2273,213978.69,979.0,1288.0,0.0,0.0,157145.997,34,34,2,50,34523,36.3273127654815,127.464787200907
A30012001,마젤란21,3011010900,대전광역시,동구,용운동,,대전광역시 동구 용운동 598 마젤란21,분양,개별난방,27680.0,5,210.0,유진건설,유진건설,0422712121,없음,아파트,대전광역시 동구 대학로 102-7,위탁관리,계단식,20060830,0422846377,210,23450.7,0.0,210.0,0.0,0.0,17835.888,15,15,0,7,34519,36.3393114558991,127.458487790063
A30012002,용운삼정하이츠,3011010900,대전광역시,동구,용운동,,대전광역시 동구 용운동 363 용운삼정하이츠,분양,개별난방,28695.0,7,360.0,삼정,삼정,0422824344,용운삼정하이츠.ma-um.co.kr,아파트,대전광역시 동구 동부로73번길 95,자치관리,계단식,19900731,0422824346,360,28694.84,160.0,200.0,0.0,0.0,24334.4,5,5,0,0,34661,36.3263600039184,127.4578861316
A30075207,용운2고층주공아파트,3011010900,대전광역시,동구,용운동,,대전광역시 동구 용운동 147 용운2고층주공아파트,분양,개별난방,56873.27,6,840.0,대한주택공사,대한주택공사,0422843860,,아파트,대전광역시 동구 백룡로 138,위탁관리,복도식,19870907,0422843880,840,51215.664,780.0,60.0,0.0,0.0,36226.8,15,15,0,11,34652,36.329547593493,127.454190808662
A30082203,용운한화꿈에그린아파트,3011010900,대전광역시,동구,용운동,,대전광역시 동구 용운동 703 용운한화꿈에그린아파트,분양,개별난방,102819.984,14,641.0,(주)한화건설,(주)이노건설,0422821007,3058008044@hanmail.net,아파트,대전광역시 동구 대학로50번길 53,위탁관리,계단식,20060126,0422821095,641,80715.14,0.0,435.0,150.0,56.0,62165.4167,15,15,2,23,34526,36.3314207224672,127.456829714237
A30082206,용방마을,3011010900,대전광역시,동구,용운동,,대전광역시 동구 용운동 460 용방마을,분양,개별난방,151048.0,20,1350.0,영남건설,주택공사,0422749100,,아파트,대전광역시 동구 용운로 80,위탁관리,혼합식,20030516,0422749400,1350,151044.05,679.0,671.0,0.0,0.0,92014.5,15,17,1,40,34660,36.3262257427972,127.453367001492
A10025925,이스트시티1단지,3011011000,대전광역시,동구,대동,,대전광역시 동구 대동 539 이스트시티1단지,분양,,185394.0,12,1345.0,금호건설,L.H,0427194930,,아파트,대전광역시 동구 동대전로46번길 30,위탁관리,계단식,20181116,0427194931,1345,141591.45,232.0,1113.0,0.0,0.0,105129.86,29,29,1,25,34637,36.3263167244968,127.43923380045
A30007001,새들뫼휴먼시아2단지,3011011000,대전광역시,동구,대동,,대전광역시 동구 대동 528 새들뫼휴먼시아2단지,임대,개별난방,42271.15,5,375.0,한국토지주택공사,한국토지주택공사,0422719911,새들뫼2단지.apti.co.kr,아파트,대전광역시 동구 계족로 135,위탁관리,혼합식,20100415,0422859340,375,30390.205,375.0,0.0,0.0,0.0,19970.77,20,20,2,5,34640,36.3263798587008,127.443660631395
A30007002,새들뫼휴먼시아1단지아파트,3011011000,대전광역시,동구,대동,,대전광역시 동구 대동 527 새들뫼휴먼시아1단지아파트,분양,개별난방,130984.01,11,897.0,한국토지주택공사,한국토지주택공사,0422859912,,아파트,대전광역시 동구 계족로 137,위탁관리,계단식,20101004,0422859913,897,130984.01,0.0,813.0,84.0,0.0,78778.21,27,27,1,24,34640,36.327460347916,127.442134185313
A30007003,펜타뷰아파트,3011011000,대전광역시,동구,대동,,대전광역시 동구 대동 535 펜타뷰아파트,분양,개별난방,110059.4,10,767.0,한진중공업(주),한국토지주택공사,0422719915,www.onlineapt.co.kr/apt/60030,아파트,대전광역시 동구 계족로140번길 33,위탁관리,계단식,20111020,0422719916,767,109713.51,126.0,565.0,76.0,0.0,64457.36,26,26,1,22,34658,36.3273016015882,127.445907520272
A10021585,무궁화아파트,3011011100,대전광역시,동구,자양동,,대전광역시 동구 자양동 111-1 무궁화아파트,분양,개별난방,7198.0,3,115.0,신진건설,신진건설,0426247891,,아파트,대전광역시 동구 백룡로 50,자치관리,계단식,19850920,,115,7118.2,80.0,35.0,0.0,0.0,6289.65,5,5,0,0,,36.3336265861627,127.451096643084
A30077001,자양동아아파트,3011011100,대전광역시,동구,자양동,,대전광역시 동구 자양동 201 자양동아아파트,분양,개별난방,70579.2,5,590.0,공영토건,공영토건,0426229979,,아파트,대전광역시 동구 성동로 74,위탁관리,계단식,19901030,0426224946,590,70579.2,0.0,410.0,180.0,0.0,59032.9,15,15,1,20,34513,36.3416040596632,127.452191723477
A10021173,평화아파트,3011011400,대전광역시,동구,가양동,,대전광역시 동구 가양동 46-2 평화아파트,분양,개별난방,13659.64,1,129.0,평화건설,확인안됨,0426227917,,아파트,대전광역시 동구 비래서로62번길 5,자치관리,혼합식,19940905,0426257917,129,12061.752,46.0,83.0,0.0,0.0,9796.96,15,15,0,4,,36.353869942061,127.451543515201
A10021731,힐스테이트 가양 더 와이즈,3011011400,대전광역시,동구,가양동,,대전광역시 동구 가양동 452-1 힐스테이트 가양 더 와이즈,분양,개별난방,82358.48,3,358.0,현대건설,와이즈씨앤디,0426263500,,주상복합,대전광역시 동구 동서대로 1722,위탁관리,계단식,20240926,0426263501,358,47017.34,0.0,156.0,200.0,2.0,34957.1976,49,49,4,9,,36.3499004160427,127.440423558015
A10021925,시영(수정)아파트,3011011400,대전광역시,동구,가양동,,대전광역시 동구 가양동 43-1 시영(수정)아파트,분양,개별난방,6481.2,3,110.0,다우주택건설,대전광역시,0426227971,,아파트,대전광역시 동구 비래서로62번길 57,위탁관리,계단식,19841015,0426257971,110,6481.2,110.0,0.0,0.0,0.0,6481.2,5,5,0,0,,36.3516182554551,127.450330345407
A10021932,조일아파트,3011011400,대전광역시,동구,가양동,,대전광역시 동구 가양동 88-1 조일아파트,분양,개별난방,12465.0,1,110.0,조일산업,조일산업,026267621,,아파트,대전광역시 동구 충정로 5,자치관리,복도식,19901224,,110,12234.05,0.0,64.0,46.0,0.0,8541.94,12,12,1,2,,36.3490480744268,127.452082368909
A10022326,"가양2동 임광하이츠2,3동",3011011400,대전광역시,동구,가양동,,"대전광역시 동구 가양동 33-4 가양2동 임광하이츠2,3동",분양,개별난방,15164.0,2,147.0,임광건설,임광건설,0426323979,,아파트,,위탁관리,혼합식,19911015,042633979,147,15163.17,48.0,99.0,0.0,0.0,10916.97,10,10,1,2,,36.3527575704199,127.449071105194
A10023173,가양한울아파트,3011011400,대전광역시,동구,가양동,,대전광역시 동구 가양동 28-6 가양한울아파트,분양,개별난방,14446.897,2,110.0,(주)부성종합건설,(주)부성종합건설,0426287400,,아파트,대전광역시 동구 동서대로1770번길 76,위탁관리,계단식,20040730,0426287401,110,11266.46,0.0,110.0,0.0,0.0,8891.9827,14,14,1,0,34527,36.3520899869754,127.447026875738
A10023487,하이플러스 아파트,3011011400,대전광역시,동구,가양동,,대전광역시 동구 가양동 25-1 하이플러스 아파트,분양,개별난방,53820.58,9,430.0,고운건설,신도주택재건축정비사업조합,0426256007,,아파트,대전광역시 동구 동서대로1754번길 60,위탁관리,계단식,20230518,0426256008,430,37575.164,323.0,105.0,2.0,0.0,27657.129,24,24,2,14,34527,36.3509660453101,127.446086215304
A30009002,대주파크빌아파트,3011011400,대전광역시,동구,가양동,,대전광역시 동구 가양동 652-1 대주파크빌아파트,분양,개별난방,85992.0,7,670.0,대주건설주식회사,가양주공아파트재건축주택조합,0426245171,대주파크빌아파트apti.co.kr,아파트,대전광역시 동구 충정로 136,위탁관리,계단식,20060112,0426245172,670,63656.484,0.0,670.0,0.0,0.0,51447.0452,25,25,2,17,34509,36.3438330509853,127.448885517065
A30009003,임광하이츠1동,3011011400,대전광역시,동구,가양동,,대전광역시 동구 가양동 29-3 임광하이츠1동,분양,,5590.0,,64.0,,,0426727585,,아파트,대전광역시 동구 동서대로1778번길 48,위탁관리,계단식,,,64,5507.0,0.0,64.0,0.0,0.0,4802.04,0,5,0,0,34527,36.3529418912854,127.446947634181
A30009202,큰솔3차,3011011400,대전광역시,동구,가양동,,대전광역시 동구 가양동 162-11 큰솔3차,분양,개별난방,15662.042,1,259.0,대유주택건설(주),대유주택건설(주),0426280830,가양동큰솔아파트.apti.co.kr,아파트,대전광역시 동구 충정로18번길 60,자치관리,복도식,20020731,0423450830,259,10964.02,259.0,0.0,0.0,0.0,7662.4598,11,11,2,2,34507,36.3470063265434,127.450759851649
A30070301,아침마을,3011011400,대전광역시,동구,가양동,,대전광역시 동구 가양동 705 아침마을,분양,개별난방,118903.0,16,1025.0,한국토지주택공사,한국토지주택공사,0426211296,https://xn--hz2b13s6qb42m.apti.co.kr/aptHome/,아파트,대전광역시 동구 우암로 192,위탁관리,계단식,20110812,0426241296,1025,118902.29,0.0,923.0,102.0,0.0,89830.15,25,25,1,33,34593,36.3407503783996,127.439754823848
A10027524,신진크로바맨션,3011011500,대전광역시,동구,용전동,,대전광역시 동구 용전동 178 신진크로바맨션,분양,개별난방,15405.0,1,105.0,신진건설산업(주),신진건설산업(주),0426233720,,아파트,,자치관리,혼합식,19850608,0426233720,105,15405.0,0.0,0.0,45.0,60.0,12483.9,15,15,1,3,,36.3510930330349,127.431605159095
A30020001,용전한울아파트,3011011500,대전광역시,동구,용전동,,대전광역시 동구 용전동 131-1 용전한울아파트,분양,개별난방,10536.65,1,177.0,부성종합건설(주),부성종합건설(주),0426251598,,아파트,대전광역시 동구 계족로450번길 52,위탁관리,복도식,20020204,0426251599,177,8194.945,177.0,0.0,0.0,0.0,6138.741,12,12,2,2,34548,36.3514435181781,127.435227416652
A30020003,용전푸른,3011011500,대전광역시,동구,용전동,,대전광역시 동구 용전동 57-21 용전푸른,분양,개별난방,19283.025,1,298.0,광도건설(주),광도건설(주),0426339765,용전푸른.apti.co.kr/aptHome/,아파트,대전광역시 동구 계족로512번길 96,위탁관리,복도식,20000415,0426389765,298,19283.025,298.0,0.0,0.0,0.0,12575.3808,15,15,1,0,34543,36.3542679012445,127.436309878593
A30071001,"큰솔1,2차아파트",3011011500,대전광역시,동구,용전동,,"대전광역시 동구 용전동 48-1 큰솔1,2차아파트",분양,개별난방,24885.3,2,382.0,대유주택건설,대유주택건설,0426260146,큰솔2차아파트.ma-um.co.kr,아파트,대전광역시 동구 계족로512번길 42,위탁관리,복도식,19991230,0426260144,382,19455.64,382.0,0.0,0.0,0.0,12838.3306,13,13,0,5,34542,36.3561551456163,127.434378062299
A30076502,새피앙,3011011500,대전광역시,동구,용전동,,대전광역시 동구 용전동 181-1 새피앙,분양,개별난방,30988.75,3,285.0,(주)신호종합개발,(주)신호종합개발,0423352885,새피앙.ma-um.co.kr,아파트,대전광역시 동구 홍도로46번길 20,위탁관리,혼합식,19970421,0426332885,285,27025.283,129.0,156.0,0.0,0.0,20889.72,15,15,1,9,34546,36.3506685469694,127.42951355023
A30076605,신동아,3011011500,대전광역시,동구,용전동,,대전광역시 동구 용전동 1 신동아,분양,개별난방,95042.0,13,914.0,신동아건설,신동아건설,0426254875,용전신동아.apti.co.kr,아파트,대전광역시 동구 한밭대로1237번길 52,위탁관리,계단식,19900927,0426254879,914,94360.305,0.0,764.0,150.0,0.0,78176.14,15,15,0,31,34538,36.358800667236,127.438118601887
A30076806,용전 한숲,3011011500,대전광역시,동구,용전동,,대전광역시 동구 용전동 194-3 용전 한숲,분양,개별난방,134431.25,15,1036.0,대림,대림,0426231518,용전한숲.ma-um.co.kr,아파트,대전광역시 동구 계족로489번길 73,위탁관리,계단식,19990830,0426351881,1036,102598.76,276.0,528.0,232.0,0.0,86946.54,19,19,1,31,34545,36.3541289250846,127.428519631901
A30070901,효촌마을아파트,3011011600,대전광역시,동구,성남동,,대전광역시 동구 성남동 520 효촌마을아파트,분양,개별난방,90897.75,11,818.0,(주)국제종합토건,한국토지주택공사,0426289131,효촌마을아파트.ma-um.co.kr,아파트,대전광역시 동구 계족로368번길 11,위탁관리,혼합식,20030415,0426289132,818,74784.58,446.0,372.0,0.0,0.0,56485.08,20,20,1,21,34583,36.3455856287696,127.43468049757
A30070902,큰솔5차아파트,3011011600,대전광역시,동구,성남동,,대전광역시 동구 성남동 157-1 큰솔5차아파트,분양,개별난방,16860.0,1,152.0,대유주택건설 주식회사,대유주택건설주식회사,0426316652,큰솔5차아파트.ma-um.co.kr,아파트,대전광역시 동구 동서대로1572번길 165,위탁관리,복도식,20031107,0426369545,152,13060.49,92.0,60.0,0.0,0.0,9531.8984,15,15,2,2,34591,36.3416585382553,127.433948667289
A30070903,스마트뷰,3011011600,대전광역시,동구,성남동,,대전광역시 동구 성남동 528 스마트뷰,분양,개별난방,163601.08,12,1115.0,한신공영,LH,0426319177,api.co.kr,아파트,대전광역시 동구 성남로 15,위탁관리,계단식,20111201,0426319179,1115,127288.266,0.0,1019.0,96.0,0.0,97337.09,25,25,3,0,34582,36.3428306688841,127.432862743407
A30076401,석촌마을아파트,3011011600,대전광역시,동구,성남동,,대전광역시 동구 성남동 518 석촌마을아파트,분양,개별난방,53294.24,5,451.0,(주)계룡건설,한국토지주택공사,0426733451,,아파트,대전광역시 동구 우암로 186,위탁관리,혼합식,20000724,0426733452,451,37539.32,326.0,125.0,0.0,0.0,28632.92,15,15,2,10,34593,36.3409849500445,127.438357753641
A10023421,홍도갤러리휴리움아파트,3011011700,대전광역시,동구,홍도동,,대전광역시 동구 홍도동 23-3 홍도갤러리휴리움아파트,분양,개별난방,50576.8,5,419.0,다우건설,홍도동1구역주택재건축정비사업조합,0426215123,https://홍도동갤러리휴리움.apti.co.kr,아파트,대전광역시 동구 한남로67번길 193,위탁관리,계단식,20230228,0426225123,419,34721.01,334.0,85.0,0.0,0.0,25094.3052,29,66,2,9,34557,36.3452891193349,127.425193584535
A30019005,파밀리에,3011011700,대전광역시,동구,홍도동,,대전광역시 동구 홍도동 1001 파밀리에,분양,개별난방,102993.93,13,679.0,신동아건설,신동아건설,0426398220,홍도동파밀리에.apti.co.kr,아파트,대전광역시 동구 동산초교로55번길 20,위탁관리,계단식,20070731,0426398221,679,72898.99,0.0,679.0,0.0,0.0,56248.1712,15,15,2,22,34555,36.3480958280907,127.422932829123
A30077801,경성맨션아파트,3011011700,대전광역시,동구,홍도동,,대전광역시 동구 홍도동 23-1 경성맨션아파트,분양,개별난방,18468.97,2,152.0,경성건설,경성건설,0426235111,www.apti.co.kr,아파트,대전광역시 동구 동산초교로23번길 15,위탁관리,복도식,19850621,0426235116,163,17893.2,0.0,152.0,0.0,0.0,12626.64,8,8,0,2,34557,36.34596547593,127.425439661729
A30078103,청룡아파트,3011011700,대전광역시,동구,홍도동,,대전광역시 동구 홍도동 56-1 청룡아파트,분양,개별난방,29502.0,13,425.0,계룡건설,계룡건설,0426736424,게시판공고,아파트,대전광역시 동구 동산초교로22번길 17,위탁관리(직영+위탁),계단식,19790413,0426396424,425,27867.686,220.0,205.0,0.0,0.0,25865.5,5,5,0,0,34555,36.3469440984985,127.428028427051
A30078202,현암아파트,3011011700,대전광역시,동구,홍도동,,대전광역시 동구 홍도동 16-1 현암아파트,분양,개별난방,19565.795,3,207.0,(주)경원건설,(주)경원건설,0426255241,,아파트,대전광역시 동구 대전로994번길 75,위탁관리,혼합식,19950928,0423836252,207,17297.562,161.0,46.0,0.0,0.0,12871.6,13,13,0,5,34561,36.3440830101545,127.424908541568
A30083504,홍도아파트,3011011700,대전광역시,동구,홍도동,,대전광역시 동구 홍도동 14-1 홍도아파트,분양,개별난방,42911.44,5,571.0,"서우주택건영(주), (주)화성","서우주택건영(주), (주)화성",0423410526,홍도아파트.co.kr,아파트,대전광역시 동구 동서대로 1579,위탁관리,복도식,19961025,0426727702,571,38957.41,538.0,33.0,0.0,0.0,28303.51,18,18,0,0,34557,36.3444209369978,127.426808991521
A10020809,"대라수어썸브릿지 1,2단지아파트",3011011800,대전광역시,동구,삼성동,,"대전광역시 동구 삼성동 106-28 대라수어썸브릿지 1,2단지아파트",분양,개별난방,59665.82,4,282.0,대라수건설,"디엘에스주택(주), 대라주택건설(주)",0426235123,924386715631,아파트,대전광역시 동구 삼성시장2길 28,위탁관리,계단식,20240627,0426235124,282,33255.69,0.0,282.0,0.0,0.0,23943.96,28,28,1,8,,36.3378827145301,127.430757800855
A10021107,빌라맨션,3011011800,대전광역시,동구,삼성동,,대전광역시 동구 삼성동 279-1 빌라맨션,분양,개별난방,20771.38,2,120.0,동신건설,동신건설,0426247813,,아파트,대전광역시 동구 대전천동로 618,자치관리,혼합식,19801219,0426247812,120,19632.0,0.0,0.0,0.0,120.0,18407.628,2,12,1,2,,36.3344288143307,127.425160953886
A10022087,맑은미소아파트,3011011800,대전광역시,동구,삼성동,,대전광역시 동구 삼성동 108-3 맑은미소아파트,분양,개별난방,14364.0,1,112.0,동양주택종합건설(주),동양주택종합건설(주),0426372355,,,대전광역시 동구 대전로 872,자치관리,복도식,20060215,0426392355,112,10780.42,56.0,56.0,0.0,0.0,8051.2558,15,15,3,2,,36.3370214065315,127.430447865334
A30017002,한밭자이아파트,3011011800,대전광역시,동구,삼성동,,대전광역시 동구 삼성동 479 한밭자이아파트,분양,개별난방,156603.05,13,1063.0,GS건설(주),한국토지신탁/넥서스,0426280003,hanbatxi.apti.co.kr,아파트,대전광역시 동구 대전로 935,위탁관리,계단식,20060821,0426280084,1063,123051.22,204.0,739.0,120.0,0.0,91230.3139,31,31,1,23,34569,36.3406403331339,127.424429355764
A30017005,대전삼성1,3011011800,대전광역시,동구,삼성동,,대전광역시 동구 삼성동 482 대전삼성1,임대,개별난방,38679.426,5,427.0,신창건설,LH,0426237900,www.kohom.or.kr,아파트,대전광역시 동구 우암로 133,위탁관리,혼합식,20070917,0426238900,427,22257.0,427.0,0.0,0.0,0.0,22576.69,23,23,1,10,34611,36.3399860583485,127.431905991608
A30071201,삼성타운2단지,3011011800,대전광역시,동구,삼성동,,대전광역시 동구 삼성동 481 삼성타운2단지,분양,개별난방,21292.63,3,186.0,신창건설,한국토지공사,0426395100,,아파트,대전광역시 동구 우암로 133-1,위탁관리,계단식,20070917,0426395101,186,21292.63,87.0,99.0,0.0,0.0,13586.16,18,18,1,6,34611,36.3406924462129,127.432142250486
A30081601,솔랑마을,3011011800,대전광역시,동구,삼성동,,대전광역시 동구 삼성동 369-1 솔랑마을,분양,개별난방,28741.93,3,253.0,(주)동진건설,(주)동진건설,0426264755,없음,아파트,대전광역시 동구 대전로 968,위탁관리,계단식,20000117,0426734755,253,23808.13,116.0,137.0,0.0,0.0,18512.88,20,20,0,1,34562,36.3431605975901,127.42350387643
A10020554,주택관리공단(주) 낭월다가온 청년주택,3011013600,대전광역시,동구,낭월동,,대전광역시 동구 낭월동 190-1 주택관리공단(주) 낭월다가온 청년주택,임대,개별난방,20345.38,1,162.0,파인건설(주),대전도시공사,0423410250,,주상복합,대전광역시 동구 산내로 1326,위탁관리,복도식,20250627,0423410251,162,13394.324,162.0,0.0,0.0,0.0,5565.6885,1,16,4,0,,36.2818519353644,127.467712207819
A30022002,낭월오투그란데,3011013600,대전광역시,동구,낭월동,,대전광역시 동구 낭월동 304 낭월오투그란데,분양,개별난방,139336.33,11,877.0,제일건설,제일건설,0422860097,낭월오투그란데.apti.co.kr,아파트,대전광역시 동구 산내로 1375,위탁관리,계단식,20080822,0422860098,877,104616.45,0.0,753.0,124.0,0.0,77674.1191,32,32,2,19,34701,36.2857259416909,127.464636308964
A30022003,석천들주공아파트,3011013600,대전광역시,동구,낭월동,,대전광역시 동구 낭월동 611 석천들주공아파트,임대,개별난방,86143.45,15,1072.0,--,--,0422861118,,아파트,대전광역시 동구 산내로1257번길 40,위탁관리,계단식,20041102,0422741117,1072,86143.445,1072.0,0.0,0.0,0.0,59408.18,18,18,0,37,34705,36.2773962481135,127.467727697357
A30074301,남대전e-편한세상,3011013600,대전광역시,동구,낭월동,,대전광역시 동구 낭월동 723 남대전e-편한세상,분양,개별난방,85336.93,11,713.0,대림산업,하나다올신탁,0422740171,211.199.172.215/welcome/welcome.aspx,아파트,대전광역시 동구 산내로 1330,위탁관리,계단식,20110928,0422740173,713,85336.586,0.0,488.0,225.0,0.0,65966.727,24,24,1,21,34703,36.2823506436904,127.469163056934
A30076004,대전산내,3011013600,대전광역시,동구,낭월동,,대전광역시 동구 낭월동 205 대전산내,임대,개별난방,32638.0,11,624.0,영진건설,한국토지주택공사,0422718241,www.kohom.or.kr,아파트,대전광역시 동구 산내로 1352-25,위탁관리,계단식,19901121,0422718436,624,30723.24,624.0,0.0,0.0,0.0,24687,6,6,0,0,34702,36.2846924599743,127.468426178276
A10022382,은어송하늘채리버뷰,3011013900,대전광역시,동구,대성동,,대전광역시 동구 대성동 454- 은어송하늘채리버뷰,분양,개별난방,150776000.0,8,934.0,코오롱글로벌주식회사,한국자산신탁(주),0422869620,,아파트,대전광역시 동구 대전로 357,위탁관리,계단식,20240731,0422869621,934,98841.805,122.0,812.0,0.0,0.0,76041.3542,33,33,2,19,,36.2986045963155,127.457822605845
A10027361,은어송 코오롱하늘채2차 아파트,3011013900,대전광역시,동구,대성동,,대전광역시 동구 대성동 420 은어송 코오롱하늘채2차 아파트,분양,개별난방,60435.664,6,408.0,코오롱글로벌(주),대성동2구역 주택재개발 정비사업 조합,0422727200,은어송코오롱하늘채2차.apti.kr,아파트,대전광역시 동구 대전로340번길 15,위탁관리,혼합식,20160928,0422727800,408,42324.816,104.0,304.0,0.0,0.0,30279.32,20,20,2,13,34698,36.2989087326307,127.45979837474
A30021002,은어송마을2단지아파트,3011013900,대전광역시,동구,대성동,,대전광역시 동구 대성동 130 은어송마을2단지아파트,분양,개별난방,207089.05,16,1241.0,코오롱건설 주식회사,코오롱씨앤씨주식회사,0422858220,은어송마을2단지.apti.co.kr,아파트,대전광역시 동구 동구청로 35,위탁관리,계단식,20070214,0422858225,1241,154893.28,0.0,701.0,540.0,0.0,117331.6387,31,31,0,31,34696,36.3018765068255,127.458317347606
A30076101,대성삼익세라믹,3011013900,대전광역시,동구,대성동,,대전광역시 동구 대성동 30 대성삼익세라믹,분양,개별난방,64103.0,7,633.0,삼도건설,삼도건설,0422718712,,아파트,대전광역시 동구 대전로340번길 20,위탁관리,계단식,19910826,0423318712,633,62344.082,0.0,633.0,0.0,0.0,51428.115,15,15,0,22,34698,36.2981124521757,127.460991376821
