kaptCode,kaptName,bjdCode,as1,as2,as3,as4,kaptAddr,codeSaleNm,codeHeatNm,kaptTarea,kaptDongCnt,kaptdaCnt,kaptBcompany,kaptAcompany,kaptTel,kaptUrl,codeAptNm,doroJuso,codeMgrNm,codeHallNm,kaptUsedate,kaptFax,hoCnt,kaptMarea,kaptMparea60,kaptMparea85,kaptMparea135,kaptMparea136,privArea,kaptTopFloor,ktownFlrNo,kaptBaseFloor,kaptdEcntp,zipcode,위도,경도
A10027989,신화명리버뷰자이아파트,2632010100,부산광역시,북구,금곡동,,부산광역시 북구 금곡동 1021 신화명리버뷰자이아파트,분양,개별난방,115725.47,8,792.0,GS건설,GS건설,0513639331,http://shmrvxi.aptner.com/,아파트,부산광역시 북구 금곡대로470번길 29,위탁관리,계단식,20150619,0513639334,792,83225.96,125.0,667.0,0.0,0.0,62725.836,29,29,2,18,46508,35.2512280459782,129.012371521078
A10028138,동원역삼정그린코아,2632010100,부산광역시,북구,금곡동,,부산광역시 북구 금곡동 832 동원역삼정그린코아,분양,개별난방,77532.0,6,526.0,(주)삼정,(주)삼정지씨 건설,0513657506,,아파트,부산광역시 북구 효열로 135,위탁관리,계단식,20141211,0513657507,531,50738.273,199.0,327.0,0.0,0.0,36937.6654,29,29,3,2,46507,35.2580364464243,129.014187207907
A61673901,이안금곡아파트,2632010100,부산광역시,북구,금곡동,,부산광역시 북구 금곡동 1909 이안금곡아파트,분양,개별난방,29778.86,3,215.0,대우자동차판매/건설부문,대우,0513613752,,아파트,부산광역시 북구 금곡대로550번길 6,위탁관리,계단식,20060728,0513613753,215,23608.16,0.0,215.0,0.0,0.0,18252.6891,25,25,0,5,46508,35.2565111028652,129.011931841894
A61673902,율리벽산블루밍,2632010100,부산광역시,북구,금곡동,,부산광역시 북구 금곡동 1915 율리벽산블루밍,분양,개별난방,92327.89,8,589.0,(주)벽산건설,금곡제2구역주택재개발정비사업조합,0513619914,,아파트,부산광역시 북구 효열로 1,위탁관리,혼합식,20140329,0513615700,597,64345.99,104.0,485.0,0.0,0.0,46408.509,25,25,2,1,46509,35.2489684522194,129.014089697572
A61674824,부산율리마을,2632010100,부산광역시,북구,금곡동,,부산광역시 북구 금곡동 1882 부산율리마을,임대,개별난방,70999.34,5,840.0,한국토지주택공사,한국토지주택공사,0513618454,kohom.or.kr,아파트,부산광역시 북구 화명신도시로 255,위탁관리,계단식,20040524,0513618455,840,70496.445,840.0,0.0,0.0,0.0,44813.34,24,24,1,15,46521,35.2453932447009,129.010592292094
A61674912,화명뜨란채,2632010100,부산광역시,북구,금곡동,,부산광역시 북구 금곡동 1895 화명뜨란채,분양,개별난방,106361.13,9,981.0,두산중공업,주택공사,0513346618,www.joyapt.com/2255,아파트,부산광역시 북구 화명신도시로 219,위탁관리,계단식,20040702,0519396618,987,68479.89,441.0,540.0,0.0,0.0,68479.89,25,25,1,0,46522,35.242884949859,129.010879993085
A61676006,금곡한솔아파트,2632010100,부산광역시,북구,금곡동,,부산광역시 북구 금곡동 56-1 금곡한솔아파트,분양,개별난방,69549.07,6,532.0,"벽산, 삼협","벽산, 삼협",0513623254,www.joyapt.com/2805,아파트,부산광역시 북구 효열로 265,위탁관리,계단식,19950527,0513624957,532,62307.08,0.0,0.0,532.0,0.0,49836.235,20,20,0,14,46505,35.2660364322743,129.018303147659
A61676118,금곡주공1단지,2632010100,부산광역시,북구,금곡동,,부산광역시 북구 금곡동 53-1 금곡주공1단지,임대,중앙난방,49521.05,5,1099.0,"한라건설(주),(주)동신주택,마이즈(주) 등.",한국토지주택공사,0513632116,www.kohom.co.kr,아파트,부산광역시 북구 효열로 268,위탁관리,복도식,19940813,0513632119,1116,45770.33,1099.0,0.0,0.0,0.0,31193.28,15,15,1,14,46510,35.2677341935495,129.018995206358
A61676215,금곡주공2단지,2632010100,부산광역시,북구,금곡동,,부산광역시 북구 금곡동 98-1 금곡주공2단지,임대,중앙난방,66386.36,10,1460.0,"기계(옥내) 삼협개발(주),(주)해걍",한국토지주택공사,0513612010,www.kohom.or.kr,아파트,부산광역시 북구 금곡대로616번길 10-9,위탁관리,복도식,19940813,0513612011,1460,42152.2,1460.0,0.0,0.0,0.0,42187.95,15,15,0,20,46507,35.2598827791739,129.015196459368
A61676316,금곡주공3단지아파트,2632010100,부산광역시,북구,금곡동,,부산광역시 북구 금곡동 57-1 금곡주공3단지아파트,분양,개별난방,100534.0,14,1484.0,국제종합토건,대한주택공사,0513632126,,아파트,부산광역시 북구 효열로220번길 23,위탁관리,복도식,19940829,0513632127,1491,96386.62,1484.0,0.0,0.0,0.0,70234.74,15,15,0,21,46512,35.2645788964271,129.021859138241
A61676422,금곡주공4단지,2632010100,부산광역시,북구,금곡동,,부산광역시 북구 금곡동 1108 금곡주공4단지,임대,중앙난방,84192.0,13,1937.0,한국토지주택공사,한국토지주택공사,0513612115,www.kohom.co.kr,아파트,부산광역시 북구 효열로 76,위탁관리,복도식,19940708,0513612117,1937,79418.49,1937.0,0.0,0.0,0.0,53291.34,15,15,0,26,46514,35.2536085912779,129.01534596506
A61676509,금곡주공5단지아파트,2632010100,부산광역시,북구,금곡동,,부산광역시 북구 금곡동 1112-2 금곡주공5단지아파트,분양,개별난방,47228.0,7,713.0,한라건설,한라건설,0513612035,,아파트,부산광역시 북구 효열로37번길 22,위탁관리,복도식,19941105,0513612036,713,44008.71,713.0,0.0,0.0,0.0,31110.75,20,20,1,4,46509,35.2499619789442,129.013375171263
A61676605,금곡주공6단지아파트,2632010100,부산광역시,북구,금곡동,,부산광역시 북구 금곡동 1110 금곡주공6단지아파트,분양,개별난방,38182.0,4,504.0,대한주택공사,대한주택공사,0513622010,wwww.joyapt.com/home/user/764,아파트,부산광역시 북구 효열로 40,위탁관리,복도식,19950816,0513622011,504,37165.44,504.0,0.0,0.0,0.0,24761.82,25,25,0,8,46514,35.2489583498651,129.015421319804
A61676723,금곡주공7단지,2632010100,부산광역시,북구,금곡동,,부산광역시 북구 금곡동 811 금곡주공7단지,임대,개별난방,47701.0,8,802.0,한국토지주택공사,한국토지주택공사,0513622602,www.kohom.co.kr,아파트,부산광역시 북구 금곡대로550번길 23,위탁관리,복도식,19960506,0513622603,802,45039.25,802.0,0.0,0.0,0.0,31615.72,20,20,1,11,46507,35.2567697648929,129.013284080271
A61676814,금곡9단지주공,2632010100,부산광역시,북구,금곡동,,부산광역시 북구 금곡동 810 금곡9단지주공,분양,개별난방,87209.0,14,1366.0,대한주택공사,대한주택공사,0513622061,cafe.daum.net/kg810,아파트,부산광역시 북구 효열로 134,위탁관리,복도식,19960506,0513622062,1366,87194.8,1366.0,0.0,0.0,0.0,57010.44,20,20,1,18,46513,35.2582359902722,129.015202701014
A61677013,화명한일유앤아이,2632010100,부산광역시,북구,금곡동,,부산광역시 북구 금곡동 1898 화명한일유앤아이,분양,개별난방,124244.266,12,1026.0,한일건설,부산도시개발공사,0513610444,,아파트,부산광역시 북구 화명신도시로 194,위탁관리,계단식,20020208,0513610414,1026,107930.05,314.0,712.0,0.0,0.0,78309.58,25,25,1,24,46523,35.2425002245561,129.012496205717
A61681001,"금곡유림2차아파트(205동,206동)",2632010100,부산광역시,북구,금곡동,,"부산광역시 북구 금곡동 94-1 금곡유림2차아파트(205동,206동)",분양,개별난방,31432.65,2,240.0,유림종합건설,유림종합건설,0513631265,,아파트,부산광역시 북구 금곡대로616번길 57,위탁관리(직영+위탁),계단식,19941206,0513631265,240,30447.0,0.0,0.0,210.0,30.0,24552.6,15,15,1,8,46505,35.2632688745984,129.015996918577
A61681003,금곡유림2차아파트(201-203),2632010100,부산광역시,북구,금곡동,,부산광역시 북구 금곡동 96-1 금곡유림2차아파트(201-203),분양,개별난방,32362.19,3,240.0,유림건설,유림건설,0513620244,,아파트,부산광역시 북구 효열로 193,위탁관리,계단식,19941130,0519390244,240,29851.8,0.0,0.0,240.0,0.0,23975.4,15,15,1,8,46506,35.2627469857172,129.017068871206
A61681107,금곡화목타운,2632010100,부산광역시,북구,금곡동,,부산광역시 북구 금곡동 97-10 금곡화목타운,분양,개별난방,51632.54,5,576.0,(주)화목주택,(주)화목주택,0513616767,,아파트,부산광역시 북구 효열로220번길 22,위탁관리,계단식,19941111,0519376767,576,51621.12,0.0,576.0,0.0,0.0,39232.12,18,18,1,16,46512,35.2619495613495,129.019930267402
A61681108,금곡조성협진아파트,2632010100,부산광역시,북구,금곡동,,부산광역시 북구 금곡동 97-11 금곡조성협진아파트,분양,개별난방,51079.68,6,576.0,"(주)협진주택,조성건설(주)","(주)협진주택,조성건설(주)",0513614405,,아파트,부산광역시 북구 효열로162번길 41,위탁관리,계단식,19941017,0513624510,576,51079.68,0.0,576.0,0.0,0.0,39150.72,18,18,0,16,46512,35.2615892682778,129.019418223118
A61681304,금곡유림1차아파트,2632010100,부산광역시,북구,금곡동,,부산광역시 북구 금곡동 1425 금곡유림1차아파트,분양,개별난방,26792.29,1,256.0,유림종합건설(주),유림종합건설(주),0513613725,,아파트,부산광역시 북구 금곡대로470번길 33,자치관리,혼합식,19941006,0519373725,256,25732.04,92.0,164.0,0.0,0.0,19348.32,23,23,1,5,46508,35.252527794074,129.013096865724
A61684110,화명리버빌2차아파트,2632010100,부산광역시,북구,금곡동,,부산광역시 북구 금곡동 1885 화명리버빌2차아파트,분양,개별난방,89451.28,9,722.0,(주)명지건설,도시개발공사,0513650994,,아파트,부산광역시 북구 화명신도시로 244,위탁관리,계단식,20030617,0513650995,722,71315.48,214.0,508.0,0.0,0.0,54870.26,24,24,0,18,46520,35.2461885230218,129.011659906096
A10023708,화명플리체비스타동원아파트,2632010200,부산광역시,북구,화명동,,부산광역시 북구 화명동 265 화명플리체비스타동원아파트,분양,개별난방,66601.95,6,447.0,동원개발(주),화명3구역주택재개발정비사업조합,0513640573,,아파트,부산광역시 북구 대천천길 109,위탁관리,계단식,20220712,0513640574,447,48083.67,135.0,312.0,0.0,0.0,32804.2865,29,29,2,11,46516,35.2426989387134,129.018175856845
A10024341,화명푸르지오헤리센트,2632010200,부산광역시,북구,화명동,,부산광역시 북구 화명동 1554-4 화명푸르지오헤리센트,혼합,개별난방,138589.56,9,886.0,(주)대우건설,화명 제2구역 주택재개발 정비사업조합,0519253330,,아파트,부산광역시 북구 산성로 28,위탁관리,계단식,20210324,0519253331,886,90854.59,247.0,639.0,0.0,0.0,66703.9216,35,35,3,0,46530,35.2391676993315,129.016022012086
A10027790,e편한세상 화명힐스 아파트,2632010200,부산광역시,북구,화명동,,부산광역시 북구 화명동 1358 e편한세상 화명힐스 아파트,혼합,개별난방,146139.62,10,800.0,주식회사 삼호,화명1구역주택재개발조합,0513621782,,아파트,부산광역시 북구 화명대로 68,위탁관리,혼합식,20151029,0513621785,800,91158.71,68.0,368.0,364.0,0.0,69998,24,24,4,4,46533,35.2341460173073,129.014088301293
A10027836,화명2차 동원로얄듀크비스타아파트,2632010200,부산광역시,북구,화명동,,부산광역시 북구 화명동 2337 화명2차 동원로얄듀크비스타아파트,분양,개별난방,65088.6,2,422.0,(주)동원개발,(주)동원개발,0513626994,,아파트,부산광역시 북구 금곡대로 175,위탁관리,복도식,20150720,0513626947,422,47829.863,0.0,422.0,0.0,0.0,35769.866,37,37,2,8,46541,35.2249014351514,129.009476548103
A61612002,화명동롯데캐슬멤버스,2632010200,부산광역시,북구,화명동,,부산광역시 북구 화명동 1130-9 화명동롯데캐슬멤버스,분양,개별난방,44342.508,4,299.0,롯데건설(주),(주)샘터인베스터,0513617645,,아파트,부산광역시 북구 금곡대로 240,위탁관리,계단식,20071102,0513617646,299,44170.31,0.0,50.0,249.0,0.0,34900.8106,26,26,2,0,46537,35.2298378855786,129.013424732131
A61612006,우신,2632010200,부산광역시,북구,화명동,,부산광역시 북구 화명동 1426-1 우신,분양,개별난방,30235.0,11,480.0,우신건설,우신건설,0513352552,,아파트,부산광역시 북구 산성로12번길 27,자치관리,계단식,19871113,0513352552,480,27429.256,480.0,0.0,0.0,0.0,24584.25,5,5,0,0,46531,35.2375466309547,129.016707037471
A61612010,화명2차현대아파트,2632010200,부산광역시,북구,화명동,,부산광역시 북구 화명동 2307 화명2차현대아파트,분양,개별난방,96500.13,8,743.0,현대산업개발(주),"현대산업개발(주), 부산광역시 도시개발공사",0513642111,,아파트,부산광역시 북구 화명신도시로 48,위탁관리,계단식,20011023,0513642112,743,87319.445,212.0,294.0,237.0,0.0,64883.5931,22,22,2,18,46541,35.227309697318,129.01001401447
A61612011,화명대우이안아파트,2632010200,부산광역시,북구,화명동,,부산광역시 북구 화명동 2262 화명대우이안아파트,분양,개별난방,133092.0,10,989.0,대우자판(주),대우자판(주),0519391600,www.iaan-apt.com,아파트,부산광역시 북구 화명신도시로 145,위탁관리,계단식,20021026,0519391602,989,113152.72,275.0,586.0,80.0,48.0,82319.3436,24,24,1,24,46524,35.2371706524696,129.009954863836
A61612013,화명코오롱하늘채1차아파트,2632010200,부산광역시,북구,화명동,,부산광역시 북구 화명동 2290 화명코오롱하늘채1차아파트,분양,개별난방,171091.05,11,1280.0,코오롱건설,코오롱건설,0513421922,,아파트,부산광역시 북구 화명신도시로 70,위탁관리,계단식,20020420,0513421923,1280,150535.23,360.0,514.0,272.0,134.0,114161.37,24,24,0,28,46526,35.2307920262206,129.011545185865
A61612016,화명수정강변타운,2632010200,부산광역시,북구,화명동,,부산광역시 북구 화명동 2322 화명수정강변타운,분양,개별난방,178183.0,16,1780.0,대우건설,주택공사,0513417520,,아파트,부산광역시 북구 학사로17번길 31,위탁관리,혼합식,20010804,0513417521,1780,178182.7,1270.0,510.0,0.0,0.0,115401.61,25,25,1,38,46542,35.2213244327728,129.0060121223
A61612017,대림쌍용강변타운,2632010200,부산광역시,북구,화명동,,부산광역시 북구 화명동 2306 대림쌍용강변타운,분양,개별난방,260818.48,17,1895.0,"대림산업(주),쌍용건설(주)","대림산업(주),쌍용건설(주)",0513437330,http://www.hebibi.com/2099,아파트,부산광역시 북구 화명신도시로 39,위탁관리,계단식,20040804,0513437332,1895,215519.16,553.0,782.0,560.0,0.0,172611.51,29,29,2,0,46540,35.2264392828181,129.00705947304
A61612018,화명롯데낙천대,2632010200,부산광역시,북구,화명동,,부산광역시 북구 화명동 2264 화명롯데낙천대,분양,개별난방,270497.0,15,1950.0,(주)롯데건설,(주)롯데건설,0513332264,,아파트,부산광역시 북구 화명신도시로 156,위탁관리,계단식,20021029,0513332296,1950,236468.7,545.0,781.0,528.0,96.0,174044.364,30,30,1,39,46525,35.2374576879253,129.011867869707
A61612019,화명대림타운,2632010200,부산광역시,북구,화명동,,부산광역시 북구 화명동 1170-1 화명대림타운,분양,개별난방,441737.53,35,3382.0,(주)흥아,대림산업(주),0513621710,,아파트,부산광역시 북구 금곡대로 268,위탁관리,계단식,19980601,0519311711,3382,348003.5,1384.0,1450.0,348.0,200.0,271948.72,25,25,3,69,46536,35.2314080166544,129.015133073984
A61673301,화명현대,2632010200,부산광역시,북구,화명동,,부산광역시 북구 화명동 733 화명현대,분양,개별난방,38038.543,3,240.0,현대산업개발(주),현대산업개발(주),0513651066,없음,아파트,부산광역시 북구 화명대로 87,위탁관리,계단식,19990917,0513616669,240,32520.0,0.0,0.0,240.0,0.0,27128.1,15,15,1,8,46532,35.2351114770405,129.017222935657
A61673302,삼한힐파크아파트,2632010200,부산광역시,북구,화명동,,부산광역시 북구 화명동 732 삼한힐파크아파트,분양,개별난방,116097.0,8,807.0,(주)삼한종합건설,(주)삼한종합건설,0513639968,www.shhillpark.com,아파트,부산광역시 북구 화명대로 119,위탁관리,계단식,20031106,0519399968,807,86077.85,0.0,807.0,0.0,0.0,68590.158,24,24,1,19,46532,35.2355961916313,129.019849258614
A61673303,화명대우푸르지오,2632010200,부산광역시,북구,화명동,,부산광역시 북구 화명동 752 화명대우푸르지오,분양,개별난방,47414.824,3,316.0,대우건설,대우건설,0513638500,,아파트,부산광역시 북구 화명대로 104,위탁관리,계단식,20000325,0513638501,322,31324.055,0.0,0.0,316.0,0.0,31324.055,20,20,2,0,46534,35.2342271642497,129.019249112682
A61673304,화명동원로얄듀크,2632010200,부산광역시,북구,화명동,,부산광역시 북구 화명동 1150 화명동원로얄듀크,분양,개별난방,222659.0,13,1627.0,(주)동원개발,(주)동원개발,0513336994,,아파트,부산광역시 북구 금곡대로 228,위탁관리,계단식,20041130,0519396994,1627,173984.0,498.0,929.0,200.0,0.0,133747.9711,25,25,3,39,46537,35.2290967917765,129.014084050757
A61673305,화명유림아파트,2632010200,부산광역시,북구,화명동,,부산광역시 북구 화명동 749 화명유림아파트,분양,개별난방,50985.047,6,506.0,유림종합건설(주),대건주택,0513638100,,아파트,부산광역시 북구 화명대로 110,위탁관리,계단식,20000330,0513638101,506,43019.11,506.0,0.0,0.0,0.0,30320.026,21,21,1,13,46534,35.2350594490376,129.020400500987
A61673306,화명그린힐아파트,2632010200,부산광역시,북구,화명동,,부산광역시 북구 화명동 754 화명그린힐아파트,분양,개별난방,28927.89,4,277.0,(주)남흥건설,부산도시개발공사,0513645536,없음,아파트,부산광역시 북구 화명대로94번길 45,위탁관리,계단식,20030501,0513645537,277,20651.846,277.0,0.0,0.0,0.0,15344.378,20,20,2,1,46534,35.2323176560653,129.017722782897
A61673307,화명그린파크,2632010200,부산광역시,북구,화명동,,부산광역시 북구 화명동 1258-1 화명그린파크,분양,개별난방,20339.5,8,360.0,도시개발공사,부산시주택사업소,0513367459,,아파트,부산광역시 북구 금곡대로 280-9,자치관리,계단식,19881202,0513627420,360,20033.111,360.0,0.0,0.0,0.0,16452.96,6,6,0,0,46533,35.2326561780843,129.014816003891
A61673308,화명롯데캐슬카이저,2632010200,부산광역시,북구,화명동,,부산광역시 북구 화명동 2324 화명롯데캐슬카이저,분양,개별난방,1047100.0,48,5239.0,롯데건설,롯데건설,0513654044,kaiser.aptner.com,아파트,부산광역시 북구 금곡대로 166,위탁관리,계단식,20120627,0513654046,5239,744341.94,320.0,1477.0,2374.0,1068.0,591659.33,35,35,3,51,46539,35.2263603201003,129.012210130511
A61674703,화명코오롱아파트,2632010200,부산광역시,북구,화명동,,부산광역시 북구 화명동 310 화명코오롱아파트,분양,개별난방,57671.0,6,450.0,코오롱건설(주),코오롱,0513620635,,아파트,부산광역시 북구 양달로 80-11,위탁관리,계단식,19970304,0513621100,450,40679.26,0.0,286.0,164.0,0.0,40679.26,15,15,1,16,46516,35.2430508865362,129.023417097844
A61679206,벽산강변타운아파트,2632010200,부산광역시,북구,화명동,,부산광역시 북구 화명동 188 벽산강변타운아파트,분양,개별난방,118239.57,12,1044.0,석천,벽산,0513620077,,아파트,부산광역시 북구 양달로9번길 21,위탁관리,계단식,19951117,0513620078,1044,107151.984,0.0,1044.0,0.0,0.0,84877.56,18,18,1,30,46518,35.245398335453,129.01353176912
A61679207,도시화명그린(21B)아파트,2632010200,부산광역시,북구,화명동,,부산광역시 북구 화명동 295 도시화명그린(21B)아파트,분양,개별난방,52983.72,5,720.0,남도개발(주),도시개발공사,0513625561,,아파트,부산광역시 북구 양달로 69,위탁관리,복도식,19960427,0513626815,720,35582.4,720.0,0.0,0.0,0.0,35582.4,20,20,1,0,46515,35.2449544851875,129.022813992369
A61679208,화명경남아너스빌,2632010200,부산광역시,북구,화명동,,부산광역시 북구 화명동 196 화명경남아너스빌,분양,개별난방,71146.5,7,570.0,(주)경남기업,(주)경남기업,0513616423,www.joyapt.com/1139,아파트,부산광역시 북구 대천천길 37,위탁관리,계단식,19981224,0513616424,571,57031.5,0.0,330.0,200.0,40.0,57031.507,20,20,2,16,46517,35.241106239451,129.015548138623
A61679209,도시화명그린25아파트,2632010200,부산광역시,북구,화명동,,부산광역시 북구 화명동 313 도시화명그린25아파트,분양,개별난방,36542.0,4,390.0,한남/로얄종합건설.중앙건설,도시개발공사,0513626812,www.aptree.co.kr/home/user/2804,아파트,부산광역시 북구 양달로 80-18,위탁관리,복도식,19960427,0513626833,390,32231.395,390.0,0.0,0.0,0.0,23329.8,15,15,1,6,46516,35.2432282693769,129.02180874304
A61683302,도시화명그린21A아파트,2632010200,부산광역시,북구,화명동,,부산광역시 북구 화명동 206 도시화명그린21A아파트,분양,개별난방,30321.32,3,400.0,정우종합건설(주),부산도시개발공사,0513626814,,아파트,부산광역시 북구 양달로 53,위탁관리,복도식,19960608,0513626824,400,28640.0,400.0,0.0,0.0,0.0,19932,20,20,1,0,46515,35.2431536155592,129.017384479827
A61683305,그린숲속(화명그린24),2632010200,부산광역시,북구,화명동,,부산광역시 북구 화명동 512 그린숲속(화명그린24),분양,개별난방,75384.34,6,900.0,도시개발공사,(주)삽협개발,0513626813,,아파트,부산광역시 북구 산성로 88,위탁관리,복도식,19960608,0513624840,900,53838.0,900.0,0.0,0.0,0.0,53838,16,16,1,13,46529,35.240429013506,129.02353823947
A61685214,화명코오롱하늘채2차,2632010200,부산광역시,북구,화명동,,부산광역시 북구 화명동 2288 화명코오롱하늘채2차,분양,개별난방,185747.86,11,1344.0,코오롱건설,코오롱건설,0513355788,hmhanulche2.aptner.com,아파트,부산광역시 북구 화명신도시로 100,위탁관리,계단식,20021206,0519375788,1344,163152.34,388.0,528.0,305.0,123.0,121873.601,27,27,1,30,46526,35.2315659682026,129.012318725109
A10022543,만덕동원맨션,2632010300,부산광역시,북구,만덕동,,부산광역시 북구 만덕동 839-1 만덕동원맨션,분양,개별난방,22730.3,6,277.0,동원건설,동원건설,0513389879,,아파트,부산광역시 북구 덕천로276번길 5,자치관리,계단식,19880420,0513429879,277,20485.72,128.0,149.0,0.0,0.0,17298.57,6,6,1,0,,35.208669843027,129.035615074414
A10023725,백양산 베스티움에코포레,2632010300,부산광역시,북구,만덕동,,부산광역시 북구 만덕동 861-7 백양산 베스티움에코포레,분양,개별난방,79041.0,12,593.0,(주)동부토건,만덕동신타운재건축조합,0513368932,,아파트,부산광역시 북구 상리로 86,위탁관리,계단식,20220425,0513368933,593,57716.57,352.0,241.0,0.0,0.0,41592.2263,15,15,4,0,46608,35.2071617886075,129.043239180592
A10024318,e편한세상 금정산 아파트,2632010300,부산광역시,북구,만덕동,,부산광역시 북구 만덕동 818 e편한세상 금정산 아파트,혼합,개별난방,261833.0,11,1969.0,"디엘이앤씨(주), 경동건설(주)","한국토지주택공사, 디엘이앤씨(주), 경동건설(주)",0513361663,,아파트,부산광역시 북구 상학로 36,위탁관리,혼합식,20210412,0513361664,1969,189971.02,864.0,1105.0,0.0,0.0,137240.0887,28,28,4,8,46557,35.2157515534228,129.038054428315
A10025235,더래디언트금정산,2632010300,부산광역시,북구,만덕동,,부산광역시 북구 만덕동 960 더래디언트금정산,분양,개별난방,221835.88,14,1677.0,(주)우미건설,한국토지주택공사,0513369570,,아파트,부산광역시 북구 상학로 35,위탁관리,계단식,20191015,0513369571,1677,164353.3,729.0,928.0,20.0,0.0,120954.73,29,29,3,0,46557,35.2150395342966,129.03721493208
A10027832,백양디이스트,2632010300,부산광역시,북구,만덕동,,부산광역시 북구 만덕동 955 백양디이스트,분양,개별난방,334502.2,30,3160.0,동문건설(주),만덕주공아파트 재건축조함,0513369886,bdmapt.co.kr,아파트,부산광역시 북구 덕천로276번길 60,위탁관리,계단식,20151021,0513369500,3160,334502.2,669.0,2223.0,268.0,0.0,248199.9391,29,29,3,74,46611,35.2058687951711,129.033190025409
A61672001,만덕대진아파트,2632010300,부산광역시,북구,만덕동,,부산광역시 북구 만덕동 670 만덕대진아파트,분양,개별난방,20712.22,11,356.0,대진기업,대진기업,0513326888,,아파트,부산광역시 북구 만덕1로 92,자치관리,계단식,19790831,0513326885,356,20403.3,356.0,0.0,0.0,0.0,17901.96,5,5,0,0,46559,35.2139945921926,129.027429644979
A61672002,만덕3휴먼시아,2632010300,부산광역시,북구,만덕동,,부산광역시 북구 만덕동 954 만덕3휴먼시아,분양,개별난방,49575.0,4,402.0,LH,LH,0513331110,,아파트,부산광역시 북구 만덕1로51번길 11,위탁관리,계단식,20091111,0513331120,402,37066.86,186.0,216.0,0.0,0.0,26629.54,25,25,3,12,46561,35.2135120517582,129.031393827958
A61672003,금정산 센트럴포레,2632010300,부산광역시,북구,만덕동,,부산광역시 북구 만덕동 830-49 금정산 센트럴포레,분양,개별난방,28238.65,2,216.0,동성산업(주) / (주)삼호,한국토지주택공사,0513349251,,아파트,부산광역시 북구 만덕1로 25-9,위탁관리,계단식,20111006,0513349252,216,21196.566,108.0,108.0,0.0,0.0,15641.1,27,27,2,4,46561,35.2135866505363,129.035128103305
A61673103,신만덕쌍용예가,2632010300,부산광역시,북구,만덕동,,부산광역시 북구 만덕동 953 신만덕쌍용예가,분양,개별난방,83454.0,6,600.0,쌍용건설,쌍용건설,0513310384,,아파트,부산광역시 북구 만덕3로 49,위탁관리,계단식,20050629,0513310394,600,62148.75,200.0,300.0,100.0,0.0,47392.99,26,26,3,12,46563,35.2124756476365,129.030737502154
A61675505,만덕동일아파트,2632010300,부산광역시,북구,만덕동,,부산광역시 북구 만덕동 658 만덕동일아파트,분양,개별난방,47924.66,6,499.0,동일주택,(주)동일,0513432479,,아파트,부산광역시 북구 만덕1로104번가길 57,위탁관리,계단식,19981202,0519372479,499,47924.66,239.0,200.0,60.0,0.0,37467,20,20,2,15,46556,35.2162788522155,129.028435440996
A61675601,만덕 상록한신휴플러스아파트,2632010300,부산광역시,북구,만덕동,,부산광역시 북구 만덕동 943-1 만덕 상록한신휴플러스아파트,분양,개별난방,102914.75,11,882.0,한신공영(주),공무원연금관리공단,0513357194,,아파트,부산광역시 북구 함박봉로140번길 16,위탁관리,계단식,20060331,0513357195,882,84190.95,434.0,448.0,0.0,0.0,64084.669,15,15,0,30,46617,35.203972397957,129.03263165167
A61675806,만덕삼성아파트,2632010300,부산광역시,북구,만덕동,,부산광역시 북구 만덕동 290-1 만덕삼성아파트,분양,개별난방,62538.0,6,600.0,삼성종합건설(주),삼성종합건설(주),0513368774,,아파트,부산광역시 북구 만덕2로 10,위탁관리,복도식,19890224,0513316201,600,59801.85,150.0,450.0,0.0,0.0,42822,15,15,0,12,46566,35.2109245971145,129.036768960273
A61678209,만덕그린코아아파트,2632010300,부산광역시,북구,만덕동,,부산광역시 북구 만덕동 216-7 만덕그린코아아파트,분양,개별난방,179583.83,16,1468.0,"(주)반도주택,삼정주택","(주)반도주택,삼정주택",0513381428,kl1428@in-apt.co.kr,아파트,부산광역시 북구 덕천로234번길 47,위탁관리,계단식,19910128,0513372575,1468,171476.2,0.0,958.0,450.0,60.0,142932,15,15,0,49,46605,35.2074079470518,129.030722714168
A61678706,럭키만덕1차아파트,2632010300,부산광역시,북구,만덕동,,부산광역시 북구 만덕동 774 럭키만덕1차아파트,분양,개별난방,91544.0,11,900.0,럭키개발,럭키개발,0513312853,,아파트,부산광역시 북구 덕천로 194,위탁관리,계단식,19910803,0513343095,900,90090.0,0.0,900.0,0.0,0.0,74326.5,15,15,0,31,46606,35.2079235626477,129.028112471704
A61678804,럭키만덕2차아파트,2632010300,부산광역시,북구,만덕동,,부산광역시 북구 만덕동 911-3 럭키만덕2차아파트,분양,개별난방,82789.32,7,714.0,럭키개발(주),럭키개발(주),0513420054,,아파트,부산광역시 북구 덕천로234번길 34,위탁관리,계단식,19920707,0513430054,714,77890.98,0.0,714.0,0.0,0.0,60647.16,15,15,0,24,46603,35.2098416026819,129.027896884029
A61679609,부산만덕3단지 주공아파트,2632010300,부산광역시,북구,만덕동,,부산광역시 북구 만덕동 944-6 부산만덕3단지 주공아파트,임대,개별난방,102739.0,12,1350.0,대룡건사,대한주택공사,0513357733,www.kohom.or.kr,아파트,부산광역시 북구 함박봉로140번길 21,위탁관리,계단식,20031111,0513357738,1350,102439.01,1350.0,0.0,0.0,0.0,73634,15,15,0,47,46617,35.2028368917968,129.033733979918
A61682501,만덕현대아파트,2632010300,부산광역시,북구,만덕동,,부산광역시 북구 만덕동 234-1 만덕현대아파트,분양,개별난방,22790.295,1,211.0,현대산업개발주식회사,현대산업개발주식회사,0519429700,cafe.daum.net/MDHDLOVE,아파트,부산광역시 북구 만덕3로 45,위탁관리,계단식,19970603,0519399700,211,19579.934,115.0,96.0,0.0,0.0,15001.695,24,24,1,5,46562,35.212323894117,129.028544990633
A61682607,만덕대성타워,2632010300,부산광역시,북구,만덕동,,부산광역시 북구 만덕동 927-1 만덕대성타워,분양,개별난방,104108.5,5,816.0,(주)대성종합건설,(주)대성종합건설,0513425300,,아파트,부산광역시 북구 덕천로259번길 30,위탁관리,계단식,19911122,0513425301,816,99701.22,0.0,614.0,202.0,0.0,78963.32,21,21,0,21,46565,35.2118089608169,129.035126434691
A61682702,신만덕유림노르웨이숲아파트,2632010300,부산광역시,북구,만덕동,,부산광역시 북구 만덕동 390 신만덕유림노르웨이숲아파트,분양,개별난방,28943.0,2,218.0,(주)유림건설,KB부동산신탁,0513333301,,아파트,부산광역시 북구 덕천로 345,자치관리,계단식,20030708,0513336319,218,22432.72,32.0,186.0,0.0,0.0,17730,22,22,4,0,46610,35.2093716980131,129.041145777591
A61682802,만덕2휴먼시아,2632010300,부산광역시,북구,만덕동,,부산광역시 북구 만덕동 831-15 만덕2휴먼시아,분양,개별난방,36157.047,4,360.0,한국토지주택공사,한국토지주택공사,0513420793,cafe.daum.net/md360,아파트,부산광역시 북구 만덕1로 25-12,위탁관리,계단식,20011102,0513420794,360,36084.86,214.0,146.0,0.0,0.0,24491.76,25,25,2,7,46561,35.2138791865827,129.033947631591
A61682804,만덕협성파크,2632010300,부산광역시,북구,만덕동,,부산광역시 북구 만덕동 670-1 만덕협성파크,분양,개별난방,46117.24,3,445.0,협성개발,협성개발,0513433130,,아파트,부산광역시 북구 만덕1로 82,위탁관리,계단식,19971004,0519373130,445,42173.92,150.0,295.0,0.0,0.0,32070.87,25,25,1,10,46559,35.2147368682937,129.02840903516
A61682902,벽산라인훼미리타운1차아파트,2632010300,부산광역시,북구,만덕동,,부산광역시 북구 만덕동 761-1 벽산라인훼미리타운1차아파트,분양,개별난방,33183.48,2,322.0,라인건설,벽산,0513428941,,아파트,부산광역시 북구 만덕대로178번길 29,위탁관리,계단식,19941114,0513312040,322,33183.48,136.0,148.0,38.0,0.0,25827.98,19,19,0,9,46570,35.2117353739109,129.025309474486
A61682907,만덕동원,2632010300,부산광역시,북구,만덕동,,부산광역시 북구 만덕동 925-1 만덕동원,분양,개별난방,90598.44,6,988.0,동진주택,동원개발,0513351575,www.hebibi.com,아파트,부산광역시 북구 덕천로234번길 7,위탁관리,계단식,19921223,0519251575,988,87462.64,598.0,390.0,0.0,0.0,67633.52,15,15,0,33,46604,35.209485655516,129.030615805591
A61682908,벽산라인타운 아파트,2632010300,부산광역시,북구,만덕동,,부산광역시 북구 만덕동 774-7 벽산라인타운 아파트,분양,개별난방,150935.12,10,1166.0,벽산건설,벽산건설,0513350337,bs1166@in-apt.co.kr,아파트,부산광역시 북구 덕천로 182,위탁관리,계단식,19981214,0513350338,1177,110563.24,480.0,586.0,100.0,0.0,86309.54,25,25,0,27,46602,35.2102722134884,129.023603697746
A61683003,만덕베르빌아파트,2632010300,부산광역시,북구,만덕동,,부산광역시 북구 만덕동 823-8 만덕베르빌아파트,분양,개별난방,47292.0,2,430.0,건설알포매,만덕1주거개선 조합,0513417957,만덕베르빌아파트.ma-um.co.kr,아파트,부산광역시 북구 만덕1로 8,위탁관리,계단식,20010731,0513417958,430,38911.0,247.0,183.0,0.0,0.0,30299.815,23,23,0,10,46557,35.2134632665354,129.03774784349
A10020621,포레나 부산덕천3차,2632010400,부산광역시,북구,덕천동,,부산광역시 북구 덕천동 361- 포레나 부산덕천3차,분양,개별난방,61220.863,4,429.0,(주)한화,덕천3구역 재건축 정비사업 조합,0513384112,,아파트,부산광역시 북구 만덕대로 127,위탁관리,계단식,20250520,0513384113,429,38756.36,237.0,192.0,0.0,0.0,29535.0354,1,27,2,11,,35.2139753248583,129.01754424911
A10022905,포레나부산덕천2차,2632010400,부산광역시,북구,덕천동,,부산광역시 북구 덕천동 359-1 포레나부산덕천2차,분양,개별난방,110655.15,8,795.0,(주)한화건설,덕천2구역재건축조합,0513433736,,아파트,부산광역시 북구 만덕대로 101,위탁관리,계단식,20231129,0513433737,795,73877.35,322.0,473.0,0.0,0.0,56627.7168,26,26,2,22,46555,35.2135475612397,129.015417583227
A10023684,포레나부산덕천아파트,2632010400,부산광역시,북구,덕천동,,부산광역시 북구 덕천동 357-12 포레나부산덕천아파트,분양,개별난방,88456.0,6,636.0,(주)한화건설,덕천2-1주택정비조합,0513382785,,아파트,부산광역시 북구 만덕대로 81,위탁관리,계단식,20220823,0513382786,636,60054.9,243.0,393.0,0.0,0.0,45254.1407,25,25,2,19,46555,35.2127277626499,129.012184959816
A10024999,덕천역 이즈 카운티 아파트,2632010400,부산광역시,북구,덕천동,,부산광역시 북구 덕천동 355-4 덕천역 이즈 카운티 아파트,분양,개별난방,25644.963,2,250.0,이즈건설(주),이즈건설(주),0513417333,,주상복합,부산광역시 북구 금곡대로8번길 87,위탁관리,계단식,20191029,0513387334,250,19901.963,150.0,100.0,0.0,0.0,14224.26,26,26,2,5,46548,35.2121249318227,129.009822897172
A61610001,부영벽산파라빌,2632010400,부산광역시,북구,덕천동,,부산광역시 북구 덕천동 372-1 부영벽산파라빌,분양,개별난방,29227.79,3,212.0,벽산건설,부영건설,0513312305,,아파트,부산광역시 북구 만덕대로155번길 14,위탁관리,계단식,20050517,0513312306,212,22528.2,44.0,168.0,0.0,0.0,16872.3924,22,22,1,6,46554,35.2138958764613,129.021980780882
A61610002,아남프라자아파트,2632010400,부산광역시,북구,덕천동,,부산광역시 북구 덕천동 397-1 아남프라자아파트,분양,개별난방,36799.18,1,275.0,아남건설주식회사,아남건설주식회사,0513326609,,주상복합,부산광역시 북구 금곡대로8번길 33,위탁관리,복도식,20000412,0513419641,275,28499.176,112.0,95.0,68.0,0.0,20510.91,20,20,6,6,46548,35.2115061664524,129.007223409773
A61610003,덕천동롯데아파트,2632010400,부산광역시,북구,덕천동,,부산광역시 북구 덕천동 132-65 덕천동롯데아파트,분양,개별난방,81878.0,7,705.0,(주)롯데기공,남일대건설,0513434574,,아파트,부산광역시 북구 함박봉로 26,위탁관리,계단식,20041206,0513434575,705,70721.0,254.0,409.0,42.0,0.0,55020.656,25,25,2,17,46590,35.2095334334768,129.021080144507
A61670501,덕천삼정그린코아,2632010400,부산광역시,북구,덕천동,,부산광역시 북구 덕천동 373-1 덕천삼정그린코아,분양,개별난방,84736.375,8,560.0,"(주)삼정,삼정기업",덕천대진 재건축조합,0513380971,,아파트,부산광역시 북구 만덕대로155번길 15,위탁관리,계단식,20071224,0513380972,560,61663.58,60.0,300.0,200.0,0.0,50181.8438,24,24,2,13,46554,35.2140284510103,129.02011285035
A61677404,덕천주공2단지,2632010400,부산광역시,북구,덕천동,,부산광역시 북구 덕천동 808 덕천주공2단지,임대,중앙난방,67191.51,7,1507.0,한국토지주택공사,한국토지주택공사,0513316454,,아파트,부산광역시 북구 덕천로 74,위탁관리,복도식,19911030,0513385969,1507,62333.26,1507.0,0.0,0.0,0.0,42397.74,15,15,0,18,46589,35.2090145018988,129.01715015865
A61677608,기비골마을아파트,2632010400,부산광역시,북구,덕천동,,부산광역시 북구 덕천동 814-4 기비골마을아파트,분양,개별난방+기타,59572.74,8,825.0,"(주)한보, (주)동양건설",도시개발공사,0513418183,,주상복합,부산광역시 북구 만덕1로104번길 29,위탁관리,복도식,19940923,0513418184,829,59519.85,825.0,0.0,0.0,0.0,40941.75,21,21,1,8,46551,35.2160617248043,129.023770929231
A61681409,부산도시공사 덕천2지구 아파트,2632010400,부산광역시,북구,덕천동,,부산광역시 북구 덕천동 814-1 부산도시공사 덕천2지구 아파트,임대,중앙난방,39369.46,8,990.0,국제종합토건(주),부산도시공사,0513428167,,아파트,부산광역시 북구 만덕대로155번길 86-9,위탁관리,복도식,19941125,0513428168,990,39272.707,990.0,0.0,0.0,0.0,27135.9,15,15,0,16,46551,35.2180355880224,129.021109556679
A61681501,덕천벽산아파트,2632010400,부산광역시,북구,덕천동,,부산광역시 북구 덕천동 128-3 덕천벽산아파트,분양,개별난방,21534.21,1,180.0,벽산건설,벽산건설,0513384526,dcbs180@in-apt.co.kr,아파트,부산광역시 북구 만덕3로16번길 51,자치관리,계단식,19921222,0513384528,180,20569.064,0.0,180.0,0.0,0.0,15130.35,15,15,2,6,46572,35.2117199246877,129.02296796584
A61681502,한성아파트,2632010400,부산광역시,북구,덕천동,,부산광역시 북구 덕천동 406 한성아파트,분양,개별난방,16459.2,6,340.0,한성주택조합,한성주택조합,0513352006,,아파트,부산광역시 북구 만덕대로142번길 31,자치관리,계단식,19830402,0513352006,340,14611.5,340.0,0.0,0.0,0.0,14335.8,5,5,0,0,46572,35.2118779302876,129.020678850629
A61681904,덕천대방아파트,2632010400,부산광역시,북구,덕천동,,부산광역시 북구 덕천동 388-1 덕천대방아파트,분양,개별난방,36264.234,1,280.0,대방건설,대방건설,0513411707,,아파트,부산광역시 북구 만덕대로90번길 13,자치관리,혼합식,19931228,0513411707,280,29752.06,120.0,100.0,60.0,0.0,23103,20,20,1,6,46568,35.2115938954906,129.015002865562
A61682301,청우파크맨션,2632010400,부산광역시,북구,덕천동,,부산광역시 북구 덕천동 811 청우파크맨션,분양,개별난방,18750.1,2,173.0,147,김진호,0513410950,,아파트,부산광역시 북구 덕천로 107,위탁관리,계단식,19930220,0513410951,173,14566.306,0.0,173.0,0.0,0.0,14621.96,15,15,1,6,46575,35.2102201319472,129.016881987485
A61682303,덕천주공1단지아파트,2632010400,부산광역시,북구,덕천동,,부산광역시 북구 덕천동 802 덕천주공1단지아파트,분양,개별난방,79143.2,10,1320.0,대한주택공사,대한주택공사,0513316453,,아파트,부산광역시 북구 덕천로 72,위탁관리,복도식,19911030,0513436972,1320,77201.7,1320.0,0.0,0.0,0.0,56397.9,15,15,1,16,46593,35.2063338690432,129.012317564896
A10022618,경원골든아파트,2632010500,부산광역시,북구,구포동,,부산광역시 북구 구포동 857-10 경원골든아파트,분양,개별난방,13022.25,1,129.0,(주)경원건설,(주)경원건설,0513372159,,아파트,부산광역시 북구 모분재로149번길 27,자치관리,혼합식,19930918,0513386900,129,13022.25,0.0,129.0,0.0,0.0,10503.72,20,20,0,3,46627,35.1981261997561,129.012623233598
A10024201,리버파크반도유보라,2632010500,부산광역시,북구,구포동,,부산광역시 북구 구포동 1300 리버파크반도유보라,분양,개별난방,116274.52,11,790.0,반도건설,구포9구역주택재개발정비사업조합,0513376994,,아파트,부산광역시 북구 백양대로 1136,위탁관리,계단식,20210621,0513386994,790,77407.89,291.0,499.0,0.0,0.0,57031.1388,28,28,3,20,46629,35.2042466425221,129.002397767837
A10025171,윤창BH타운,2632010500,부산광역시,북구,구포동,,부산광역시 북구 구포동 452 윤창BH타운,분양,개별난방,19983.74,1,156.0,(주)윤창종합건설,주식회사 코람코자산신탁,0513434145,,주상복합,부산광역시 북구 낙동대로1762번가길 20,위탁관리,복도식,20181228,0513434146,182,17159.14,24.0,132.0,0.0,0.0,9426.12,15,15,2,3,46583,35.2075381767431,129.001421134333
A10025349,구포2차봄여름가을겨울,2632010500,부산광역시,북구,구포동,,부산광역시 북구 구포동 1060-188 구포2차봄여름가을겨울,혼합,,20848.99,2,231.0,(주)수근종합건설,(주)수영주택건설,0513438872,,아파트,부산광역시 북구 가람로 32,위탁관리,복도식,20190618,0513438873,231,18389.81,231.0,0.0,0.0,0.0,11789.51,18,18,2,5,46585,35.2047931217659,128.997990844812
A10026293,해피투모로우아파트,2632010500,부산광역시,북구,구포동,,부산광역시 북구 구포동 972-54 해피투모로우아파트,분양,개별난방,23039.627,3,190.0,(주)중아건설,진성하우징주식회사,0513372920,,아파트,부산광역시 북구 낙동북로 692,위탁관리,계단식,20180427,0513372921,191,17470.6,76.0,114.0,0.0,0.0,13050.4388,20,20,2,0,46635,35.2000794160839,128.999407785919
A10027166,구포봄여름가을겨울,2632010500,부산광역시,북구,구포동,,부산광역시 북구 구포동 394 구포봄여름가을겨울,분양,개별난방,22338.742,2,203.0,수근종합건설,수근종합건설,0513339610,없음,아파트,부산광역시 북구 낙동대로1762번길 50,위탁관리,복도식,20170124,0513339611,203,20091.906,70.0,133.0,0.0,0.0,12286.995,20,20,2,3,46584,35.2072754763356,129.000200646452
A61609001,구포대진,2632010500,부산광역시,북구,구포동,,부산광역시 북구 구포동 0 구포대진,,,0.0,1,170.0,,,0513370495,,아파트,,기타,,19810613,,0,0.0,170.0,0.0,0.0,0.0,8487.62,1,5,0,0,,,
A61609002,동원로얄듀크비스타,2632010500,부산광역시,북구,구포동,,부산광역시 북구 구포동 1296 동원로얄듀크비스타,분양,개별난방,170269.0,4,1079.0,(주)동원개발,(주)신세기건설,0513342700,www.gdrdv.com,아파트,부산광역시 북구 낙동대로1738번길 10,위탁관리,기타,20140717,0513342702,1079,92141.68,0.0,900.0,179.0,0.0,92141.6781,48,48,4,17,46501,35.2080229910109,128.99883167146
A61609206,구포유림노르웨이숲,2632010500,부산광역시,북구,구포동,,부산광역시 북구 구포동 1293 구포유림노르웨이숲,분양,개별난방,154213.31,13,1176.0,유림종합건설(주),유림종합건설(주),0513354112,,아파트,부산광역시 북구 낙동북로 737,위탁관리,계단식,20050615,0513354113,1176,107343.58,786.0,350.0,40.0,0.0,81530.9064,21,21,0,0,46638,35.1961752229541,129.002949307881
A61609304,구포대우아파트,2632010500,부산광역시,북구,구포동,,부산광역시 북구 구포동 849-1 구포대우아파트,분양,개별난방,22453.0,1,225.0,대우,대우자동차주택조합,0513369127,,아파트,부산광역시 북구 모분재로105번길 43-7,위탁관리,계단식,19921001,07082339127,225,21942.148,0.0,225.0,0.0,0.0,17444.25,15,15,1,8,46620,35.1984025690726,129.010341234213
A61675204,구포대성아파트,2632010500,부산광역시,북구,구포동,,부산광역시 북구 구포동 923-119 구포대성아파트,분양,개별난방,32220.0,8,499.0,대성건설,대성건설,0513343232,,아파트,부산광역시 북구 구남언덕로20번길 7,위탁관리,계단식,19860725,0513343434,512,31482.3,499.0,0.0,0.0,0.0,26295.54,5,5,0,0,46647,35.2006408139128,128.994132445749
A61680201,구포에이스타운아파트,2632010500,부산광역시,북구,구포동,,부산광역시 북구 구포동 986-56 구포에이스타운아파트,분양,개별난방,16255.0,1,164.0,신동성개발주식회사,"국제밸브,대창단조,대창크랑크직장주택조합",0513414206,www.acetown.wo.to,아파트,부산광역시 북구 백양대로 1098,자치관리,복도식,19971112,0513414206,164,10917.15,93.0,71.0,0.0,0.0,10917.15,20,20,1,2,46634,35.2022489761702,128.999762466077
A61680506,벽산그린필드1차아파트,2632010500,부산광역시,북구,구포동,,부산광역시 북구 구포동 857-3 벽산그린필드1차아파트,분양,개별난방,29395.68,3,238.0,대광건설,벽산건설,0513335258,,아파트,부산광역시 북구 모분재로105번길 53,위탁관리,계단식,19920727,0519235259,238,28634.816,0.0,178.0,60.0,0.0,21975.72,15,15,1,8,46627,35.1977933758362,129.011334266405
A61680507,태평양그린아파트,2632010500,부산광역시,북구,구포동,,부산광역시 북구 구포동 851 태평양그린아파트,분양,개별난방,32337.88,2,299.0,철도차량정비창직장주택조합,철도차량정비창직장주택조합,0513436081,,아파트,부산광역시 북구 모분재로149번길 53,위탁관리,계단식,19940909,0519376081,299,31523.898,125.0,174.0,0.0,0.0,21357.12,22,22,0,9,46627,35.1985094445072,129.011843877344
A61680703,구포협진태양아파트,2632010500,부산광역시,북구,구포동,,부산광역시 북구 구포동 1084-3 구포협진태양아파트,분양,개별난방,34598.0,1,207.0,(주)협진주택,(주)협진주택,0513379834,www.hebibi.com,아파트,부산광역시 북구 백양대로 1025,위탁관리,계단식,19971224,0519177252,207,19932.55,115.0,71.0,21.0,0.0,15015.31,25,25,3,0,46650,35.1978202211816,128.995085475357
A61680705,구포삼정그린코아아파트,2632010500,부산광역시,북구,구포동,,부산광역시 북구 구포동 1095-2 구포삼정그린코아아파트,분양,개별난방,82918.66,7,668.0,삼정주택,삼정,0513383006,gpsj668@in-apt.co.kr,아파트,부산광역시 북구 백양대로1016번길 10,위탁관리,계단식,19990115,0519373006,671,68178.74,272.0,282.0,114.0,0.0,52291.26,21,21,0,17,46637,35.1955122900511,128.995071289777
A61680707,구포현대아파트,2632010500,부산광역시,북구,구포동,,부산광역시 북구 구포동 1103-2 구포현대아파트,분양,개별난방,172558.27,16,1741.0,동덕현대,주택조합,0513358191,cafe.naver.com/gupohyundai,아파트,부산광역시 북구 백양대로 1003,위탁관리,혼합식,19940228,0513385644,1741,172558.27,60.0,1681.0,0.0,0.0,134344.32,15,15,1,58,46651,35.1955368874101,128.993534496345
A61680901,벽산그린타운,2632010500,부산광역시,북구,구포동,,부산광역시 북구 구포동 1246-4 벽산그린타운,분양,개별난방,17654.05,1,174.0,백년건설,백년건설,0513382879,,아파트,부산광역시 북구 시랑로182번길 19,자치관리,계단식,19930927,0519122879,174,15110.148,102.0,72.0,0.0,0.0,11132.7,17,17,1,6,46646,35.1947270126054,129.013820065223
A61680903,태경해피타운,2632010500,부산광역시,북구,구포동,,부산광역시 북구 구포동 1251-2 태경해피타운,분양,개별난방,23018.201,1,211.0,태경 건설,태경 건설,0513424074,,아파트,부산광역시 북구 시랑로138번길 8,위탁관리,복도식,19920908,0513324074,211,23018.201,0.0,211.0,0.0,0.0,17930.78,18,18,1,6,46644,35.1944778929723,129.009777167194
A61680905,구포태평양아파트,2632010500,부산광역시,북구,구포동,,부산광역시 북구 구포동 1247-10 구포태평양아파트,분양,개별난방,22359.26,1,232.0,동양,철도청직장주택조합,0519376546,,아파트,부산광역시 북구 시랑로 176,위탁관리,혼합식,19920909,0513366546,232,21897.67,0.0,232.0,0.0,0.0,16641.71,15,15,1,7,46646,35.195394187999,129.013584587438
A61683602,삼경장미아파트,2632010500,부산광역시,북구,구포동,,부산광역시 북구 구포동 53-23 삼경장미아파트,분양,개별난방,19115.55,1,181.0,(주)삼경,(주)삼경,0513429051,,아파트,부산광역시 북구 시랑로21번길 50,위탁관리,혼합식,19950224,0513429051,181,18083.91,102.0,79.0,0.0,0.0,12735.5,23,23,0,4,46619,35.2037969387401,129.006768472109
A10020162,성림누리아라아파트,2632010500,부산광역시,북구,구포동,,부산광역시 북구 구포동 1294 성림누리아라아파트,분양,지역난방,0.0,,0.0,,,0513334002,,아파트,부산광역시 북구 구남로 9,,,20071210,,0,0.0,0.0,0.0,0.0,0.0,,0,0,0,0,,35.1982818958006,128.994598448858
