kaptCode,kaptName,bjdCode,as1,as2,as3,as4,kaptAddr,codeSaleNm,codeHeatNm,kaptTarea,kaptDongCnt,kaptdaCnt,kaptBcompany,kaptAcompany,kaptTel,kaptUrl,codeAptNm,doroJuso,codeMgrNm,codeHallNm,kaptUsedate,kaptFax,hoCnt,kaptMarea,kaptMparea60,kaptMparea85,kaptMparea135,kaptMparea136,privArea,kaptTopFloor,ktownFlrNo,kaptBaseFloor,kaptdEcntp,zipcode,위도,경도
A10025433,수영sk뷰 1단지,2650010100,부산광역시,수영구,망미동,,부산광역시 수영구 망미동 1176 수영sk뷰 1단지,분양,개별난방,168493.72,11,1147.0,sk건설,망미1구역주택재개발정비사업조합,0517546614,https://www.joyapt.com/7735,아파트,부산광역시 수영구 망미배산로 56,위탁관리,계단식,20190603,0517546615,1147,116763.56,483.0,664.0,0.0,0.0,84578.669,35,35,5,25,48206,35.1767886824248,129.101455155274
A10025468,수영sk뷰2차아파트,2650010100,부산광역시,수영구,망미동,,부산광역시 수영구 망미동 1168 수영sk뷰2차아파트,혼합,,10757.009,2,98.0,sk건설,망미1구역주택재개발정비사업조합,0517541534,,아파트,부산광역시 수영구 망미배산로 56,위탁관리,혼합식,20190603,0517541535,98,6470.0757,98.0,0.0,0.0,0.0,4511.8796,11,11,3,3,48206,35.1767886824248,129.101455155274
A10025719,망미한성기린아파트,2650010100,부산광역시,수영구,망미동,,부산광역시 수영구 망미동 209-4 망미한성기린아파트,분양,개별난방,12228.52,1,113.0,(주)한성기린,(주)한성기린,0517562743,,아파트,부산광역시 수영구 수미로71번길 20,자치관리,복도식,19941230,0517562746,113,11114.41,47.0,66.0,0.0,0.0,8344.92,19,19,2,2,48215,35.1741877981349,129.118812173918
A10026821,망미 이진캐스빌 아파트,2650010100,부산광역시,수영구,망미동,,부산광역시 수영구 망미동 1159 망미 이진캐스빌 아파트,분양,개별난방,47124.145,6,343.0,주식회사 이진주택,주식회사이진주택,0517537736,,아파트,부산광역시 수영구 망미로30번길 51,위탁관리,계단식,20170830,0517527738,343,32110.006,0.0,343.0,0.0,0.0,23185.8005,26,26,5,11,48239,35.1700008969317,129.101130180846
A61313001,망미삼성아파트,2650010100,부산광역시,수영구,망미동,,부산광역시 수영구 망미동 777 망미삼성아파트,분양,중앙난방,90171.78,13,672.0,삼성물산,삼성물산,0517582157,,아파트,부산광역시 수영구 망미로30번길 23,위탁관리,계단식,19911128,0517579786,672,75675.93,0.0,300.0,240.0,132.0,75676.98,15,15,0,22,48238,35.1686144727757,129.100818604991
A61313002,망미동the#파크리치,2650010100,부산광역시,수영구,망미동,,부산광역시 수영구 망미동 693-1 망미동the#파크리치,분양,개별난방,181148.6,8,862.0,포스코건설(주),(주)대경산업개발,0517525969,cafe.naver.com/parkrich862,아파트,부산광역시 수영구 연수로315번길 16,위탁관리,계단식,20070905,0517525970,862,136292.64,0.0,96.0,602.0,164.0,106857.4214,28,28,2,22,48211,35.1736824174031,129.107339690735
A61313201,센텀수영강변1차e-편한세상아파트,2650010100,부산광역시,수영구,망미동,,부산광역시 수영구 망미동 1154 센텀수영강변1차e-편한세상아파트,분양,개별난방,62948.83,6,480.0,수영구,메리츠화재해상보험주식회사,0517591877,www.samsungtms.co.kr,아파트,부산광역시 수영구 좌수영로 176,위탁관리,계단식,20040624,0517611870,480,51460.8,0.0,480.0,0.0,0.0,40769.136,23,23,1,12,48213,35.1793315555201,129.117663405744
A61313202,센텀수영강변2차e-편한세상아파트,2650010100,부산광역시,수영구,망미동,,부산광역시 수영구 망미동 1128 센텀수영강변2차e-편한세상아파트,분양,개별난방,59311.0,7,486.0,"대림,우남",신라개발,0517592934,cafe.daum.net/ssr2-e,아파트,부산광역시 수영구 좌수영로 204,위탁관리,계단식,20040825,0517592935,486,47429.95,169.0,317.0,0.0,0.0,37048.932,25,25,0,11,48213,35.1819093168633,129.116440491449
A61313203,수영강변대림3차 e-편한세상아파트,2650010100,부산광역시,수영구,망미동,,부산광역시 수영구 망미동 1136 수영강변대림3차 e-편한세상아파트,분양,개별난방,72465.0,4,530.0,대림산업(주),(주)트렌드코리아건설,0517572552,,아파트,부산광역시 수영구 좌수영로 192,위탁관리,계단식,20050704,0517571552,530,57616.406,0.0,530.0,0.0,0.0,45011.84,29,29,1,12,48213,35.1820724535399,129.116974870884
A61376503,망미로얄베스토피아아파트,2650010100,부산광역시,수영구,망미동,,부산광역시 수영구 망미동 941-1 망미로얄베스토피아아파트,분양,개별난방,59326.4,5,490.0,로얄건설,로얄건설,0517590020,,아파트,부산광역시 수영구 과정로85번길 70,위탁관리,계단식,19930604,0517585152,490,59326.4,0.0,402.0,44.0,44.0,45248.14,14,14,1,21,48201,35.1787482625696,129.102626672718
A61376701,망미한신아파트,2650010100,부산광역시,수영구,망미동,,부산광역시 수영구 망미동 880-84 망미한신아파트,분양,개별난방,32617.256,3,224.0,한신주택,한신주택,0519393004,,아파트,부산광역시 수영구 망미배산로70번길 45,자치관리,계단식,19890909,0517591383,224,31914.236,0.0,100.0,74.0,50.0,26699.415,13,13,0,9,48200,35.1775579993849,129.099683746844
A61376802,현대한누리아파트,2650010100,부산광역시,수영구,망미동,,부산광역시 수영구 망미동 979-72 현대한누리아파트,분양,개별난방,46973.0,4,458.0,현대건설,연합직장주택조합,0517581229,www.hdhnr.com,아파트,부산광역시 수영구 금련로43번길 32,위탁관리,계단식,19931122,0517551229,458,45931.88,0.0,458.0,0.0,0.0,36915.78,15,15,0,18,48239,35.1696756099189,129.098057062161
A61375702,수영현대아파트,2650010200,부산광역시,수영구,수영동,,부산광역시 수영구 수영동 541 수영현대아파트,분양,개별난방,114939.48,11,1180.0,현대산업개발(주),현대산업개발(주),0517554063,,아파트,부산광역시 수영구 수영로741번길 20,자치관리,혼합식,19880414,0517554039,1180,92034.36,167.0,893.0,120.0,0.0,91997.82,15,15,1,35,48222,35.1673047822004,129.122786494183
A61375703,수영강동원로얄듀크,2650010200,부산광역시,수영구,수영동,,부산광역시 수영구 수영동 552 수영강동원로얄듀크,분양,개별난방,67421.37,5,423.0,(주)동원개발,(주)21세기개발,0517539588,hebibi.com/7162,아파트,부산광역시 수영구 수미로14번길 35,위탁관리,혼합식,20140214,0517539688,423,34914.684,0.0,423.0,0.0,0.0,34914.808,26,26,2,10,48230,35.1722324996562,129.111749709703
A61383101,수영협성르네상스타운,2650010200,부산광역시,수영구,수영동,,부산광역시 수영구 수영동 432-1 수영협성르네상스타운,분양,개별난방,110760.33,7,684.0,(주)협성종합건업,(주)협성종합건업,0517518521,hyupsung8521@hanmail.net,아파트,부산광역시 수영구 수영로741번길 46,위탁관리,계단식,20040723,0519599200,684,82895.56,100.0,384.0,150.0,50.0,65330.3312,25,25,1,16,48221,35.1711046086256,129.120999627385
A10022868,테넌바움294,2650010300,부산광역시,수영구,민락동,,부산광역시 수영구 민락동 115-2 테넌바움294,분양,개별난방,58010.59,2,294.0,(주)협성건설,(주)씨엘건설,0517542122,,주상복합,부산광역시 수영구 광안해변로 323,위탁관리,계단식,20231127,0517542123,294,33712.617,0.0,292.0,0.0,2.0,25004.3131,39,39,6,9,48289,35.1569571883719,129.129031951673
A10023958,광안KCC스위첸하버뷰,2650010300,부산광역시,수영구,민락동,,부산광역시 수영구 민락동 181-79 광안KCC스위첸하버뷰,분양,개별난방,28032.088,2,294.0,KCC건설,엠디엠플러스,0517610991,,주상복합,,위탁관리,복도식,20211130,0517610996,294,28032.088,294.0,0.0,0.0,0.0,10790.5502,18,18,3,4,48283,35.1536742572992,129.126146583215
A10025075,e편한세상 오션테라스,2650010300,부산광역시,수영구,민락동,,부산광역시 수영구 민락동 113-10 e편한세상 오션테라스,분양,개별난방,185428.11,14,1038.0,주식회사 삼호,(주)생보부동산신탁,0517598010,,아파트,부산광역시 수영구 광안해변로326번길 10,위탁관리,계단식,20200116,0517598012,1038,125149.305,0.0,578.0,452.0,8.0,97890.7506,26,26,3,27,48281,35.1560922571174,129.128683849328
A10026760,센텀비스타동원아파트,2650010300,부산광역시,수영구,민락동,,부산광역시 수영구 민락동 778 센텀비스타동원아파트,분양,개별난방,149705.36,5,840.0,(주)동원개발,(주)동진건설산업,0517598861,centumvista.com,아파트,부산광역시 수영구 수영로 754,위탁관리,기타,20170731,0517598863,840,98186.69,0.0,661.0,179.0,0.0,75458.7517,29,29,2,18,48272,35.1672489290806,129.120800367051
A10027074,센텀비스타동원2차,2650010300,부산광역시,수영구,민락동,,부산광역시 수영구 민락동 774 센텀비스타동원2차,분양,개별난방,67137.97,4,405.0,(주)동원개발,엠에스파트너스(주),0517557537,,아파트,부산광역시 수영구 무학로63번길 142,위탁관리,계단식,20170329,0517557538,405,45854.254,0.0,405.0,0.0,0.0,34400.8286,32,32,2,9,48272,35.1674750533115,129.118971576322
A10027253,E편한세상 광안비치아파트,2650010300,부산광역시,수영구,민락동,,부산광역시 수영구 민락동 773 E편한세상 광안비치아파트,분양,개별난방,64477.0,4,396.0,(주)삼호,(주)생보신탁,0517598173,https://cafe.naver.com/ebeach7598173,아파트,부산광역시 수영구 민락수변로7번길 60,위탁관리,계단식,20160929,0517598174,396,44829.24,0.0,396.0,0.0,0.0,33626.88,26,26,2,8,48281,35.1555179926384,129.126522212849
A10028161,경동센텀메르빌,2650010300,부산광역시,수영구,민락동,,부산광역시 수영구 민락동 336-48 경동센텀메르빌,분양,개별난방,19382.0,2,157.0,경동건설(주),극동유리건설부문(주),0517552920,http://cafe.naver.com/kdcentum,아파트,부산광역시 수영구 광안해변로 446,위탁관리,계단식,20141105,0517552921,157,14651.241,0.0,157.0,0.0,0.0,10845.2379,33,33,1,0,48275,35.1610704817119,129.129892823757
A61376903,진로비치아파트,2650010300,부산광역시,수영구,민락동,,부산광역시 수영구 민락동 113-21 진로비치아파트,분양,개별난방,58223.625,5,499.0,진로건설(주),진로건설(주),0517534760,,아파트,부산광역시 수영구 광안해변로 314,위탁관리,계단식,19970524,0517534761,499,50634.85,204.0,235.0,60.0,0.0,40147.94,15,15,1,17,48282,35.156903754398,129.127595982583
A61377105,센텀비치푸르지오아파트,2650010300,부산광역시,수영구,민락동,,부산광역시 수영구 민락동 108-1 센텀비치푸르지오아파트,분양,개별난방,182385.84,10,1082.0,(주)대우건설,해명주택,0517544431,www.cbprugio.com,아파트,부산광역시 수영구 광안해변로 418,위탁관리,계단식,20030818,0517544432,1082,141318.28,0.0,564.0,394.0,124.0,113285.1,31,31,2,24,48278,35.1599861941994,129.131517870961
A61377106,부산더샵센텀포레,2650010300,부산광역시,수영구,민락동,,부산광역시 수영구 민락동 356-5 부산더샵센텀포레,혼합,개별난방,170252.0,12,1006.0,포스코 건설,민락 제1구역 주택재개발 정비사업조합,0517558900,http://centumforet.postown.net/apartments/intro,아파트,부산광역시 수영구 수영로 776,위탁관리,계단식,20140731,0517558903,1014,116618.05,196.0,550.0,211.0,49.0,89073.5269,27,27,4,27,48272,35.1665131584013,129.12203899217
A61377204,롯데캐슬자이안트아파트,2650010300,부산광역시,수영구,민락동,,부산광역시 수영구 민락동 110-8 롯데캐슬자이안트아파트,분양,개별난방,117039.47,6,591.0,롯데건설,롯데건설,0517612930,http://www.giantapt.com/index.html,아파트,부산광역시 수영구 광안해변로 386,위탁관리,계단식,20031129,0517612931,591,86209.13,0.0,196.0,192.0,203.0,70623.6998,35,35,2,12,48279,35.1582247902295,129.132568315554
A61382701,수영만아이파크,2650010300,부산광역시,수영구,민락동,,부산광역시 수영구 민락동 336-36 수영만아이파크,분양,개별난방,44408.062,4,213.0,현대산업개발(주),현대산업개발(주),0517515855,,아파트,부산광역시 수영구 광안해변로 448,위탁관리,계단식,20061120,0517515856,213,24866.63,0.0,100.0,0.0,113.0,24866.1473,29,29,1,0,48275,35.1619333343148,129.129928495542
A61382802,광안현대하이페리온,2650010300,부산광역시,수영구,민락동,,부산광역시 수영구 민락동 266 광안현대하이페리온,분양,개별난방,59664.324,5,265.0,현대건설(주),(주)우진F&C,0517524900,,아파트,부산광역시 수영구 광남로223번길 31,위탁관리,계단식,20070129,0517524902,265,47140.13,0.0,0.0,26.0,239.0,40680.3249,15,15,0,12,48274,35.1620570381139,129.122025138106
A10021168,광안협성엠파이어2차 아파트,2650010400,부산광역시,수영구,광안동,,부산광역시 수영구 광안동 142-6 광안협성엠파이어2차 아파트,분양,개별난방,14999.0,1,119.0,(주)협성건설,(주)협성건설,0517542600,,주상복합,부산광역시 수영구 수영로588번길 7,위탁관리,복도식,20130212,0517582600,120,13321.999,119.0,0.0,0.0,0.0,6348.9356,1,19,4,0,,35.1583516793015,129.113652288614
A10021462,광안예서더불어아파트,2650010400,부산광역시,수영구,광안동,,부산광역시 수영구 광안동 774-8 광안예서더불어아파트,분양,개별난방,10665.0,1,112.0,예서건설,예서건설,0517548554,,주상복합,부산광역시 수영구 호암로9번길 7,위탁관리,복도식,20151215,0517547554,112,9059.042,70.0,42.0,0.0,0.0,6694.45,15,15,1,2,,35.1559771983561,129.112228808951
A10022575,광안포디움프레스티지1,2650010400,부산광역시,수영구,광안동,,부산광역시 수영구 광안동 199-7 광안포디움프레스티지1,분양,중앙난방,13864500.0,1,162.0,흥우건설(주),(주)크리스카 홀딩스,0517530045,,,부산광역시 수영구 광남로 96,위탁관리,복도식,20231123,0517530048,169,10333134.0,162.0,0.0,0.0,0.0,7108.92,20,19,4,2,48303,35.1504646660951,129.115012161536
A10023518,광안경동리인,2650010400,부산광역시,수영구,광안동,,부산광역시 수영구 광안동 195-9 광안경동리인,분양,개별난방,15901.06,1,96.0,경동건설,대경,0517552992,,아파트,,위탁관리,계단식,20220125,0517555580,137,8385.124,42.0,54.0,0.0,0.0,12585.5895,20,20,3,5,48303,35.1523637346758,129.116560781443
A10023802,광안비치올리브씨아파트,2650010400,부산광역시,수영구,광안동,,부산광역시 수영구 광안동 191-1 광안비치올리브씨아파트,분양,개별난방,15446.079,1,175.0,(주)동화이앤씨,(주)동화이앤씨,0517545701,aptree.kr/home/user/8265/,주상복합,,위탁관리,복도식,20210319,0517545702,175,12423.126,175.0,0.0,0.0,0.0,7973.64,20,20,1,4,48303,35.1544039279275,129.118277940394
A10024377,광안에일린의뜰,2650010400,부산광역시,수영구,광안동,,부산광역시 수영구 광안동 1222-9 광안에일린의뜰,분양,개별난방,37446.0,4,225.0,아이에스동서(주),광안2구역주택재건축정비사업조합,0517516994,,아파트,부산광역시 수영구 호암로 45,위탁관리,계단식,20220128,0517516995,225,23629.152,0.0,225.0,0.0,0.0,17555.0598,19,19,3,7,48259,35.1575593502289,129.107697984424
A10024695,광안자이아파트,2650010400,부산광역시,수영구,광안동,,부산광역시 수영구 광안동 1257 광안자이아파트,분양,개별난방,108221.04,8,971.0,지에스건설(주),광안제1구역 주택재건축정비사업조합,0517173420,ga.xisnd.co.kr,아파트,부산광역시 수영구 호암로29번길 50,위탁관리,계단식,20200806,0517173421,971,107687.54,72.0,814.0,85.0,0.0,79198.57,34,34,3,24,48263,35.1552831735431,129.109801726186
A10026397,광안더샵아파트,2650010400,부산광역시,수영구,광안동,,부산광역시 수영구 광안동 187-2 광안더샵아파트,분양,개별난방,44285.57,2,263.0,포스코건설,광안맨션주택재건축정비사업조합,0517612501,,아파트,부산광역시 수영구 수영로 506,위탁관리,계단식,20171115,0517612503,263,30350.1,0.0,201.0,62.0,0.0,23018.07,30,30,30,6,48301,35.1508731024495,129.111658510471
A10027941,힐탑 더블시티,2650010400,부산광역시,수영구,광안동,,부산광역시 수영구 광안동 662-1 힐탑 더블시티,분양,개별난방,23446.996,1,298.0,(주)힐탑건설,(주)한정엔지니어링,0517510733,,도시형 생활주택(주상복합),부산광역시 수영구 수영로 641,위탁관리,복도식,20150624,0517510735,298,20016.113,298.0,0.0,0.0,0.0,13832.5086,21,21,3,2,48247,35.1632174456374,129.113822664967
A61310005,광안 SK VIEW,2650010400,부산광역시,수영구,광안동,,부산광역시 수영구 광안동 473-2 광안 SK VIEW,분양,개별난방,79640.01,5,361.0,sk건설,"(주)지엔에스 인터네셔널,  와이디개발(주)",0517515563,,주상복합,부산광역시 수영구 광안로 12,위탁관리,계단식,20060330,0517515564,361,55411.13,0.0,48.0,313.0,0.0,39961.106,36,36,5,5,48298,35.156408551562,129.113578524482
A61310006,광안롯데골드로즈,2650010400,부산광역시,수영구,광안동,,부산광역시 수영구 광안동 99-5 광안롯데골드로즈,분양,개별난방,19028.74,1,299.0,롯데건설(주),북악종합건설(주),0517527485,,주상복합,부산광역시 수영구 수영로 648,위탁관리,복도식,20060620,0517527486,299,11724.3,298.0,1.0,0.0,0.0,11724.3,20,20,3,3,48269,35.1633709652213,129.114789905501
A61310007,광안쌍용예가디오션,2650010400,부산광역시,수영구,광안동,,부산광역시 수영구 광안동 1330 광안쌍용예가디오션,분양,개별난방,141083.7,6,928.0,쌍용건설,디자인시티,0517550046,yegato.aptner.co.kr,아파트,부산광역시 수영구 광안로 20,위탁관리,계단식,20141128,0517550075,928,112336.29,39.0,765.0,120.0,4.0,81453.8416,43,43,2,22,48298,35.1560597268621,129.114667093976
A61375202,광원아파트,2650010400,부산광역시,수영구,광안동,,부산광역시 수영구 광안동 526-1 광원아파트,분양,개별난방,74912.0,4,589.0,광원건설,광원,0517583190,,아파트,부산광역시 수영구 광일로 63,위탁관리,계단식,19951128,0519133192,589,64257.41,265.0,196.0,128.0,0.0,49297.98,25,25,1,13,48250,35.1614978181642,129.107336656838
A61375603,비치-그린아파트,2650010400,부산광역시,수영구,광안동,,부산광역시 수영구 광안동 529 비치-그린아파트,분양,개별난방,120721.91,9,1038.0,"(죽)국제종합건설, 자유건설",도시개발공사,0517555826,aptworld.co.kr/비치그린,아파트,부산광역시 수영구 광일로 49,위탁관리,혼합식,19960224,0517520577,1038,98790.11,437.0,601.0,0.0,0.0,77140.02,22,22,2,23,48250,35.163078915946,129.109265797747
A61380402,광안동삼정그린코아,2650010400,부산광역시,수영구,광안동,,부산광역시 수영구 광안동 172-1 광안동삼정그린코아,분양,개별난방,42214.0,2,231.0,"(주)삼정,(주)삼정기업","(주)삼정,(주)삼정기업",0517510389,,아파트,부산광역시 수영구 수영로540번길 57,위탁관리,혼합식,20050329,0519030380,231,25579.299,22.0,0.0,209.0,0.0,25579.298,24,24,2,0,48299,35.1534393784812,129.115625610949
A61380501,태평양하이츠타운,2650010400,부산광역시,수영구,광안동,,부산광역시 수영구 광안동 182-4 태평양하이츠타운,분양,개별난방,22985.066,1,198.0,태평양개발(주),(주)거안종합상사. 광신건업,0517537784,,아파트,부산광역시 수영구 남천바다로21번길 51,자치관리,혼합식,19970304,0519397784,198,20932.299,94.0,88.0,16.0,0.0,14330.58,16,16,1,5,48302,35.1513400600731,129.114252627938
A61380903,광안협성엠파이어,2650010400,부산광역시,수영구,광안동,,부산광역시 수영구 광안동 735-1 광안협성엠파이어,분양,개별난방,56797.4,5,369.0,(주)협성,협성건설,0517599813,,아파트,부산광역시 수영구 장대골로19번길 20,위탁관리,계단식,20050429,0519003961,369,39918.598,26.0,290.0,53.0,0.0,31945.4647,28,28,3,8,48255,35.1583053997881,129.110834220008
A61380904,광안유림노르웨이아침 아파트,2650010400,부산광역시,수영구,광안동,,부산광역시 수영구 광안동 744-32 광안유림노르웨이아침 아파트,분양,개별난방,29271.58,1,423.0,유림종합건설,유림종합건설,0517578343,,주상복합,부산광역시 수영구 장대골로7번길 45,위탁관리,복도식,20041124,0517578344,424,22497.6,423.0,0.0,0.0,0.0,13260.78,24,24,3,4,48260,35.1569272983278,129.112403595217
A61381101,상아아파트,2650010400,부산광역시,수영구,광안동,,부산광역시 수영구 광안동 1046-7 상아아파트,분양,개별난방,32689.0,3,296.0,화인건설,화인건설,0517538483,,아파트,부산광역시 수영구 광서로 54,자치관리,계단식,19880705,0517548483,310,31810.6,0.0,220.0,50.0,26.0,26352.46,15,15,1,11,48245,35.1640915705852,129.107121125676
A61381201,광안동일스위트,2650010400,부산광역시,수영구,광안동,,부산광역시 수영구 광안동 1069-3 광안동일스위트,분양,개별난방,28799.0,3,210.0,(주)동일건설,(주)동일건설,0517513248,,아파트,부산광역시 수영구 망미번영로38번길 104,위탁관리,계단식,20050530,0517513249,210,16887.479,1.0,153.0,56.0,0.0,16887.4782,19,19,2,8,48242,35.1676625259308,129.113596989383
A10022622,남천파크,2650010500,부산광역시,수영구,남천동,,부산광역시 수영구 남천동 255 남천파크,분양,개별난방,0.0,2,130.0,****,****,0516232611,,아파트,부산광역시 수영구 수영로384번길 7,자치관리,계단식,19831122,0516272611,130,11378.315,0.0,130.0,0.0,0.0,10093.35,5,5,1,0,48311,35.1403319628361,129.107948064073
A10022855,힐스테이트 남천 더퍼스트,2650010500,부산광역시,수영구,남천동,,부산광역시 수영구 남천동 340-1 힐스테이트 남천 더퍼스트,분양,개별난방,35704.0,2,217.0,(주)현대엔지니어링,정원유엔피,0516257333,,주상복합,부산광역시 수영구 수영로 377,위탁관리,계단식,20231228,0516287333,217,23350.994,0.0,217.0,0.0,0.0,17087.1535,34,34,5,3,48318,35.1405830753071,129.105883181804
A10023420,남천자이아파트,2650010500,부산광역시,수영구,남천동,,부산광역시 수영구 남천동 148-28 남천자이아파트,분양,개별난방,151226.0,7,913.0,GS건설,남천2구역 주택재건축 정비사업조합,0517108556,xi.co.kr/nc,아파트,부산광역시 수영구 남천동로 46,위탁관리,계단식,20230119,0517108557,917,101258.0,116.0,659.0,132.0,6.0,77499.17,36,36,2,27,48309,35.140188289197,129.112930577566
A10023607,더샵남천프레스티지아파트,2650010500,부산광역시,수영구,남천동,,부산광역시 수영구 남천동 599 더샵남천프레스티지아파트,혼합,개별난방,158311.0,10,975.0,포스코건설,남천2구역 재개발정비사업조합,0519110881,thesharpnamchun.net,아파트,부산광역시 수영구 수영로 389,위탁관리,계단식,20220926,0519110882,975,108473.62,229.0,504.0,242.0,0.0,157849.526,35,35,3,34,48318,35.1423137657431,129.105669413733
A10024057,남천 우성스마트시티뷰,2650010500,부산광역시,수영구,남천동,,부산광역시 수영구 남천동 556-7 남천 우성스마트시티뷰,분양,개별난방,15018.757,1,97.0,우성종합건설,우성종합건설,0516268956,wsc.aptner.com/,아파트,,위탁관리,혼합식,20200424,0516268958,97,10203.306,0.0,97.0,0.0,0.0,8227.3987,22,22,2,2,,35.1378286101295,129.109373589311
A10025358,남천금호어울림더비치,2650010500,부산광역시,수영구,남천동,,부산광역시 수영구 남천동 148-17 남천금호어울림더비치,분양,개별난방,71544.91,4,421.0,금호산업(주),남천삼익빌라아파트주택재건축정비사업조합,0516269210,https://kumho_namchun.hthomeservice.com/#/danjiview?_k=7i6yux,아파트,부산광역시 수영구 남천동로 91,위탁관리,계단식,20190719,0516269211,421,49593.062,0.0,345.0,76.0,0.0,74572.546,26,26,2,0,48306,35.1446539093726,129.112189299968
A61301001,남천화목타운아파트,2650010500,부산광역시,수영구,남천동,,부산광역시 수영구 남천동 47-1 남천화목타운아파트,분양,개별난방,19861.242,3,180.0,화목,화목,0516226615,,아파트,부산광역시 수영구 수영로 481,자치관리,계단식,19840823,0519026616,180,19074.46,0.0,180.0,0.0,0.0,14886.6,10,10,0,9,48265,35.1488819977033,129.110371525762
A61301003,삼익비치아파트,2650010500,부산광역시,수영구,남천동,,부산광역시 수영구 남천동 148-4 삼익비치아파트,분양,중앙난방,360000.0,33,3060.0,삼익주낵,삼익주택,0516225975,www.samickbeach.com,아파트,부산광역시 수영구 광안해변로 100,자치관리,혼합식,19791011,0516215266,3060,346930.8,264.0,1692.0,972.0,132.0,271524.84,12,12,0,76,48305,35.1437530945303,129.115366260128
A61370401,남천엑슬루타워,2650010500,부산광역시,수영구,남천동,,부산광역시 수영구 남천동 323 남천엑슬루타워,분양,개별난방,76834.95,2,299.0,(주)풍림건설,(주)씨티웰건설,0516213553,www.hebibi.com/2975,주상복합,부산광역시 수영구 황령대로473번길 15,위탁관리,계단식,20120508,0516213554,299,41707.54,0.0,0.0,141.0,158.0,41707.54,42,42,7,6,48312,35.1399316610651,129.106487767528
A61376401,남천협진태양아파트,2650010500,부산광역시,수영구,남천동,,부산광역시 수영구 남천동 3-5 남천협진태양아파트,분양,개별난방,26494.0,2,210.0,(주)협진주택,(주)협진주택,0516239725,,아파트,부산광역시 수영구 광안해변로 141,자치관리,계단식,19840629,0516269725,210,25466.605,0.0,150.0,30.0,30.0,21331.65,15,15,0,7,48304,35.1477032308366,129.114105636214
A61381601,남천우성보라아파트,2650010500,부산광역시,수영구,남천동,,부산광역시 수영구 남천동 171 남천우성보라아파트,분양,개별난방,36137.0,2,192.0,(주)우성건설,보라주택,0516215349,,아파트,부산광역시 수영구 수영로408번길 54,위탁관리,계단식,19890428,0516265349,192,35436.2,0.0,28.0,0.0,164.0,29707.272,14,14,1,7,48309,35.140875624877,129.110727233856
A61381602,남천동원로얄듀크,2650010500,부산광역시,수영구,남천동,,부산광역시 수영구 남천동 490 남천동원로얄듀크,분양,개별난방,78739.26,6,422.0,(주)동원종합건설,"(주)동원종합건설,  (주)반도종합건설",0516259770,,아파트,부산광역시 수영구 황령대로 431,자치관리,계단식,20000504,0516259773,422,51645.66,40.0,126.0,106.0,150.0,51645.66,22,22,2,11,48318,35.1422136267472,129.103289894918
A61381805,남천코오롱하늘채골든비치,2650010500,부산광역시,수영구,남천동,,부산광역시 수영구 남천동 151 남천코오롱하늘채골든비치,분양,개별난방,219114.22,13,987.0,코오롱건설,삼익재건축조합,0516222334,www.nkhapt.com/,아파트,부산광역시 수영구 남천동로 41,위탁관리,계단식,20090116,0516222328,987,155109.55,0.0,149.0,540.0,298.0,122645.44,26,26,0,13,48306,35.143325702137,129.1118428469
A61381903,남천뉴비치아파트,2650010500,부산광역시,수영구,남천동,,부산광역시 수영구 남천동 556-3 남천뉴비치아파트,분양,중앙난방,103282.0,8,990.0,삼익,삼익,0516223725,www.joyapt.com/2044,아파트,부산광역시 수영구 광안해변로15번길 68,자치관리,혼합식,19860528,0516252777,990,102475.02,330.0,360.0,180.0,120.0,83824.65,15,15,0,26,48310,35.1384626993821,129.110007910423
A10020194,광안역성원상떼빌,2650010400,부산광역시,수영구,광안동,,부산광역시 수영구 광안동 143-1 광안역성원상떼빌,분양,개별난방,31682.86,1,165.0,성원건설(주),성원건설,0517510741,,주상복합,부산광역시 수영구 수영로582번길 10,위탁관리,계단식,20070427,0517510742,165,18046.066,1.0,1.0,76.0,87.0,18046.066,1,0,0,3,,35.1574319393608,129.113586571518
