kaptCode,kaptName,bjdCode,as1,as2,as3,as4,kaptAddr,codeSaleNm,codeHeatNm,kaptTarea,kaptDongCnt,kaptdaCnt,kaptBcompany,kaptAcompany,kaptTel,kaptUrl,codeAptNm,doroJuso,codeMgrNm,codeHallNm,kaptUsedate,kaptFax,hoCnt,kaptMarea,kaptMparea60,kaptMparea85,kaptMparea135,kaptMparea136,privArea,kaptTopFloor,ktownFlrNo,kaptBaseFloor,kaptdEcntp,zipcode,위도,경도
A10023116,충정로현대아파트,1141010100,서울특별시,서대문구,충정로2가,,서울특별시 서대문구 충정로2가 185-15 충정로현대아파트,분양,개별난방,10484.0,1,83.0,현대건설,현대건설,023132711,,아파트,서울특별시 서대문구 충정로7길 30,자치관리(직영),혼합식,19921229,023132712,83,8099.44,0.0,71.0,12.0,0.0,7170.3,18,18,1,0,03736,37.5636891831715,126.963256372911
A10022194,충정우리유앤미아파트,1141010200,서울특별시,서대문구,충정로3가,,서울특별시 서대문구 충정로3가 466- 충정우리유앤미아파트,분양,개별난방,17995.0,1,108.0,(주)우리건설,.,023130400,.,아파트,,위탁관리,계단식,20080528,07081170400,108,11806.257,0.0,108.0,0.0,0.0,9147.96,19,19,3,0,,37.561919631786,126.962415725304
A10024966,더스타일하우스디센트럴,1141010200,서울특별시,서대문구,충정로3가,,서울특별시 서대문구 충정로3가 480 더스타일하우스디센트럴,임대,개별난방,40212.273,2,499.0,대보건설,원석디엔씨,0266774422,,주상복합,서울특별시 서대문구 경기대로 26-26,위탁관리,복도식,20200117,0266774423,511,19805.508,499.0,0.0,0.0,0.0,11826.2177,26,26,6,0,03737,37.5613492622768,126.962294567236
A12070201,충정리시온,1141010200,서울특별시,서대문구,충정로3가,,서울특별시 서대문구 충정로3가 465 충정리시온,분양,개별난방,20416.42,1,258.0,대림,마포로 제5구역 6-1지구 도심 재개발주택조합,023926112,cafe.daum.net/rezion465,주상복합,서울특별시 서대문구 서소문로 27,위탁관리,복도식,20040923,023926132,258,20375.8,258.0,0.0,0.0,0.0,10871.28,21,21,5,2,03741,37.5602879536746,126.964843138591
A12003001,충정로 skview 아파트,1141010300,서울특별시,서대문구,합동,,서울특별시 서대문구 합동 118 충정로 skview 아파트,분양,개별난방,29092.0,3,180.0,SK건설,SK건설,023131322,,아파트,서울특별시 서대문구 서소문로 43-8,위탁관리,계단식,20081031,023131323,180,19014.902,26.0,154.0,0.0,0.0,14639.315,20,20,2,0,03741,37.5619316835111,126.965906287936
A12005001,냉천동부센트레빌,1141010500,서울특별시,서대문구,냉천동,,서울특별시 서대문구 냉천동 260 냉천동부센트레빌,분양,개별난방,34455.83,3,237.0,동부건설,냉천동 재개발조합,023933026,,아파트,서울특별시 서대문구 독립문로14길 74,위탁관리,혼합식,20020321,023933027,237,25860.51,99.0,79.0,59.0,0.0,19415.89,17,17,2,7,03745,37.5666069058543,126.96001226599
A12070101,돈의문센트레빌,1141010500,서울특별시,서대문구,냉천동,,서울특별시 서대문구 냉천동 261 돈의문센트레빌,분양,개별난방,94117.0,14,561.0,동부건설,충정로 냉천구역 주택 재개발 조합,023648522,https://cent.apti.co.kr,아파트,서울특별시 서대문구 독립문로14길 33,위탁관리,계단식,20110407,023648523,561,60127.77,164.0,264.0,133.0,0.0,47566.42,15,15,0,0,03746,37.566139089896,126.961583473485
A12004001,서대문천연뜨란채아파트,1141010600,서울특별시,서대문구,천연동,,서울특별시 서대문구 천연동 145 서대문천연뜨란채아파트,분양,개별난방,100204.85,15,1008.0,"요진산업(주),제이알종합건설(주)",대한주택공사,0263822800,,아파트,서울특별시 서대문구 독립문로8길 54,위탁관리,혼합식,20060313,0263822801,1008,99586.8,868.0,140.0,0.0,0.0,58486.51,18,18,2,26,03743,37.5675621422573,126.958448691465
A12007001,독립문삼호,1141010800,서울특별시,서대문구,영천동,,서울특별시 서대문구 영천동 100 독립문삼호,분양,개별난방,117342.6,8,895.0,삼호건설,삼호건설,023652461,,아파트,서울특별시 서대문구 독립문로 10,위탁관리,계단식,19950623,023620695,895,101828.99,0.0,655.0,240.0,0.0,80064.18,18,18,0,27,03743,37.5703103898017,126.958794223203
A12008001,독립문파크빌,1141010900,서울특별시,서대문구,현저동,,서울특별시 서대문구 현저동 1019 독립문파크빌,분양,개별난방,30146.26,4,290.0,우정건설,SH공사,023935258,dpdp5258@daum.net,아파트,서울특별시 서대문구 통일로 279-75,위탁관리,복도식,20001213,023931478,290,23133.3,290.0,0.0,0.0,0.0,17226,15,15,2,5,03732,37.5749616046902,126.951468226859
A12008003,독립문극동,1141010900,서울특별시,서대문구,현저동,,서울특별시 서대문구 현저동 200 독립문극동,분양,개별난방,172036.0,12,1300.0,극동건설(주),독립문 극동아파트 조합,023930180,,아파트,서울특별시 서대문구 독립문공원길 17,위탁관리,계단식,19981210,0267496899,1300,140733.08,350.0,582.0,368.0,0.0,110170.05,23,23,3,29,03733,37.5720347102743,126.956767247418
A12079601,독립문극동임대,1141010900,서울특별시,서대문구,현저동,,서울특별시 서대문구 현저동 201 독립문극동임대,임대,개별난방,30818.62,2,600.0,극동건설,SH공사,023137404,happy.i-sh.co.kr/main.do?deptid=70125,아파트,서울특별시 서대문구 독립문공원길 17,위탁관리,복도식,19981210,023127404,600,16200.0,600.0,0.0,0.0,0.0,16200,15,15,3,6,03733,37.5726613892026,126.954468824263
A10023016,북아현경남아파트(101동),1141011000,서울특별시,서대문구,북아현동,,서울특별시 서대문구 북아현동 1006 북아현경남아파트(101동),분양,개별난방,14185.78,1,106.0,경남기업(주),북아현1동8통지구재건축조합,023636040,,아파트,서울특별시 서대문구 북아현로 40,위탁관리,혼합식,19960521,023636042,106,11308.308,47.0,49.0,10.0,0.0,8118.98,10,10,0,3,03755,37.5609481554157,126.956330208466
A10024719,힐스테이트신촌,1141011000,서울특별시,서대문구,북아현동,,서울특별시 서대문구 북아현동 1017 힐스테이트신촌,혼합,개별난방,184229.03,15,1226.0,현대건설주식회사,북아현1-1재개발주택조합,023134551,shill.aptner.com,아파트,서울특별시 서대문구 이화여대8길 123,위탁관리,계단식,20200804,023134552,1226,117387.78,631.0,561.0,34.0,0.0,84233.885,20,20,0,39,03763,37.5622057682356,126.951051271738
A10026370,e편한세상신촌아파트,1141011000,서울특별시,서대문구,북아현동,,서울특별시 서대문구 북아현동 1013 e편한세상신촌아파트,혼합,개별난방,306274.0,22,1910.0,대림산업,북아현1-3 재개발 조합,023139072,,아파트,서울특별시 서대문구 북아현로1길 17,위탁관리,혼합식,20180503,023139075,1910,186309.11,823.0,1043.0,44.0,0.0,136385.01,34,34,5,49,03773,37.5582659643517,126.950153860719
A10027851,신촌푸르지오 아파트,1141011000,서울특별시,서대문구,북아현동,,서울특별시 서대문구 북아현동 174 신촌푸르지오 아파트,혼합,개별난방,148182.33,16,940.0,대우건설,주택조합,023628828,,아파트,서울특별시 서대문구 북아현로1길 50,위탁관리,혼합식,20151023,023628830,940,92567.51,394.0,452.0,94.0,0.0,68588.83,20,20,5,36,03770,37.559690000903,126.952811165218
A12079501,북아현두산,1141011000,서울특별시,서대문구,북아현동,,서울특별시 서대문구 북아현동 1009 북아현두산,분양,개별난방,87371.0,6,956.0,두산건설(주),북아현시민아파트재건축주택조합,023123547,,아파트,서울특별시 서대문구 이화여대8길 62,위탁관리,복도식,19990303,023122146,956,75847.89,956.0,0.0,0.0,0.0,57321.76,18,18,2,11,03769,37.5591524524316,126.950146932156
A10020829,홍제중앙하이츠아파트,1141011100,서울특별시,서대문구,홍제동,,서울특별시 서대문구 홍제동 342- 홍제중앙하이츠아파트,분양,개별난방,0.0,1,123.0,,,023946822,,아파트,서울특별시 서대문구 홍제내2길 67,,,20010917,,0,0.0,47.0,72.0,4.0,0.0,9306.33,1,16,0,0,,37.5867074167045,126.93665530286
A10021965,고은맨숀아파트,1141011100,서울특별시,서대문구,홍제동,,서울특별시 서대문구 홍제동 156-200 고은맨숀아파트,분양,개별난방,6202.0,2,136.0,광산기업주식회사,광산기업주식회사,023910875,,,서울특별시 서대문구 모래내로 453,자치관리,계단식,19750617,,136,8892.561,20.0,116.0,0.0,0.0,8617.38,0,5,0,0,,37.5857116829706,126.94481754879
A10023330,무악재한화,1141011100,서울특별시,서대문구,홍제동,,서울특별시 서대문구 홍제동 464 무악재한화,분양,개별난방,17562.63,2,139.0,(주)한화건설,(주)한화건설,027375545,,아파트,서울특별시 서대문구 통일로 357,위탁관리,계단식,20010519,027375546,141,17328.2,0.0,87.0,52.0,0.0,13244.58,19,19,2,5,03730,37.5821293274892,126.949639814477
A10023560,서대문푸르지오센트럴파크,1141011100,서울특별시,서대문구,홍제동,,서울특별시 서대문구 홍제동 57-5 서대문푸르지오센트럴파크,혼합,개별난방,73733.47,11,832.0,(주)대우건설,홍제동 제1주택재건출 정비사업조합,027397250,,아파트,서울특별시 서대문구 통일로 339,위탁관리,혼합식,20221028,027397252,832,73733.47,543.0,273.0,16.0,0.0,107661.38,18,18,8,1,03731,37.5812603609936,126.950591497251
A10023959,홍제역 해링턴플레이스아파트,1141011100,서울특별시,서대문구,홍제동,,서울특별시 서대문구 홍제동 270-1 홍제역 해링턴플레이스아파트,혼합,개별난방,183986.6,18,1116.0,효성중공업(주),홍제 제3구역 주택재개발정비사업조합,023941117,,아파트,서울특별시 서대문구 세무서8길 30,위탁관리,계단식,20240327,023941106,1116,108864.84,521.0,555.0,40.0,0.0,80061.21,20,20,3,47,03626,37.5906020621487,126.946917348053
A10024620,인왕산어울림 아파트,1141011100,서울특별시,서대문구,홍제동,,서울특별시 서대문구 홍제동 467 인왕산어울림 아파트,분양,개별난방,26171.39,2,123.0,금호건설,금호건설,027341240,,,,위탁관리,계단식,20060704,027381240,123,19300.678,0.0,0.0,109.0,14.0,15679.27,15,15,2,5,,37.5838125684033,126.950935686248
A10025767,홍제센트럴아이파크,1141011100,서울특별시,서대문구,홍제동,,서울특별시 서대문구 홍제동 473 홍제센트럴아이파크,혼합,개별난방,135059.77,14,906.0,현대산업개발,홍제 제2구역주택재개발정비사업조합,027209425,,아파트,서울특별시 서대문구 통일로 395,위탁관리,혼합식,20200622,027209426,906,91359.625,288.0,559.0,59.0,0.0,136522.0822,18,18,4,31,03730,37.5845073711947,126.945497402073
A10027681,홍제금호어울림아파트,1141011100,서울특별시,서대문구,홍제동,,서울특별시 서대문구 홍제동 451-13 홍제금호어울림아파트,혼합,개별난방,46677.53,10,296.0,금호건설,무궁화재건축정비조합,023940842,,주상복합,서울특별시 서대문구 모래내로 411,위탁관리,계단식,20160203,023940843,296,30321.45,78.0,218.0,0.0,0.0,23110.9741,13,13,2,0,03644,37.5850572917686,126.940908608914
A12009001,홍제유원하나제2,1141011100,서울특별시,서대문구,홍제동,,서울특별시 서대문구 홍제동 454 홍제유원하나제2,임대,개별난방,5849.1,1,150.0,유원건설,유원건설,023797218,http://happy.i-sh.co.kr/intro.do,아파트,서울특별시 서대문구 세검정로 134,위탁관리,복도식,19960807,023797219,150,5848.5,150.0,0.0,0.0,0.0,4306.5,15,18,0,1,03620,37.5951296272667,126.952165445079
A12009002,인왕산한신휴플러스,1141011100,서울특별시,서대문구,홍제동,,서울특별시 서대문구 홍제동 469 인왕산한신휴플러스,분양,개별난방,34557.215,1,115.0,한신공영,힌신공영,027230096,,주상복합,서울특별시 서대문구 통일로 397,위탁관리,계단식,20091202,027230097,115,20116.322,0.0,62.0,53.0,0.0,11566.588,15,15,5,0,,37.585252170243,126.947368473304
A12009101,홍제남양,1141011100,서울특별시,서대문구,홍제동,,서울특별시 서대문구 홍제동 457 홍제남양,분양,개별난방,28848.76,3,192.0,남양건설(주),백련연합 재건축 주택조합,023956308,,아파트,서울특별시 서대문구 홍제내길 168,자치관리,혼합식,19990930,023956309,192,20596.6,72.0,76.0,44.0,0.0,15760.72,23,23,3,0,03640,37.5887847328743,126.93816134376
A12009102,홍제현대아파트,1141011100,서울특별시,서대문구,홍제동,,서울특별시 서대문구 홍제동 331 홍제현대아파트,분양,개별난방,86368.43,8,704.0,현대산업개발,홍제11구역 재개발조합,023950791,,아파트,서울특별시 서대문구 통일로39가길 57,위탁관리,계단식,19920708,023962958,704,80523.56,0.0,440.0,264.0,0.0,63142.32,15,15,1,22,03638,37.5888686374104,126.941383174425
A12009201,홍제성원아파트,1141011100,서울특별시,서대문구,홍제동,,서울특별시 서대문구 홍제동 456 홍제성원아파트,분양,개별난방,32437.29,3,242.0,성원산업개발(주),태진연립주택조합,027200959,,아파트,서울특별시 서대문구 모래내로 430,위탁관리,혼합식,19980511,027230959,242,22272.12,152.0,30.0,60.0,0.0,16636.44,17,17,3,0,03728,37.5836699249845,126.942886344639
A12009202,홍제삼성래미안,1141011100,서울특별시,서대문구,홍제동,,서울특별시 서대문구 홍제동 461 홍제삼성래미안,분양,개별난방,56189.0,6,474.0,삼성래미안,삼성래미안,027301248,,아파트,서울특별시 서대문구 통일로 319,위탁관리,혼합식,20010613,0263511248,474,42193.08,268.0,116.0,90.0,0.0,32648.58,15,15,3,11,03731,37.5783538682014,126.95129779809
A12009203,홍제무악청구1차,1141011100,서울특별시,서대문구,홍제동,,서울특별시 서대문구 홍제동 453 홍제무악청구1차,분양,개별난방,104807.0,14,862.0,(주)청구,직장주택조합,023790269,www.muakapt.com,아파트,서울특별시 서대문구 통일로 348,위탁관리,계단식,19940630,023916975,862,102585.16,0.0,862.0,0.0,0.0,73080.36,18,18,2,31,03635,37.5819153538654,126.95204947944
A12009302,인왕산벽산아파트,1141011100,서울특별시,서대문구,홍제동,,서울특별시 서대문구 홍제동 465 인왕산벽산아파트,분양,개별난방,30535.22,2,236.0,벽산건설,벽산건설,023918905,없음,아파트,서울특별시 서대문구 세무서길 106-12,위탁관리,계단식,20030620,0263837769,236,25005.19,64.0,144.0,28.0,0.0,19274.95,18,18,2,4,03625,37.5923849024246,126.948447054576
A12009303,홍제현대그린,1141011100,서울특별시,서대문구,홍제동,,서울특별시 서대문구 홍제동 455 홍제현대그린,분양,개별난방,28707.01,2,240.0,현대건설,주택조합,023951135,hdgr1135@daum.com,아파트,서울특별시 서대문구 세무서2길 64,위탁관리,계단식,19960722,023951138,240,25977.6,0.0,240.0,0.0,0.0,20390.4,15,15,2,10,03626,37.5892370609952,126.949383554299
A12009304,홍제유원하나,1141011100,서울특별시,서대문구,홍제동,,서울특별시 서대문구 홍제동 454 홍제유원하나,혼합,개별난방,61031.0,5,554.0,유원건설,지역조합,023953825,,아파트,서울특별시 서대문구 세검정로 134,위탁관리,혼합식,19960807,023965552,554,58619.18,132.0,269.0,153.0,0.0,45054.5,18,18,2,12,03620,37.5951296272667,126.952165445079
A12009305,문화촌현대,1141011100,서울특별시,서대문구,홍제동,,서울특별시 서대문구 홍제동 463 문화촌현대,분양,개별난방,90620.07,4,768.0,고려개발,현대,023962067,,아파트,서울특별시 서대문구 문화촌길 6-24,위탁관리,혼합식,20021122,023790333,767,76865.95,309.0,459.0,0.0,0.0,57471.93,20,20,3,16,03625,37.5922766950616,126.949493139598
A12076401,홍제비콘드림힐,1141011100,서울특별시,서대문구,홍제동,,서울특별시 서대문구 홍제동 468 홍제비콘드림힐,분양,개별난방,17453.0,1,119.0,비콘건설.청일건설,공보처주택조합 외,023795500,,아파트,서울특별시 서대문구 세무서8길 49,위탁관리,혼합식,20060526,023795509,119,12537.244,0.0,104.0,15.0,0.0,10013.259,15,15,3,0,03625,37.5905965361709,126.949308809924
A12078201,인왕산현대,1141011100,서울특별시,서대문구,홍제동,,서울특별시 서대문구 홍제동 460-1 인왕산현대,임대,개별난방,13529.94,1,246.0,,,023944236,,아파트,서울특별시 서대문구 통일로34길 46,위탁관리,복도식,20000705,023941264,246,11566.92,246.0,0.0,0.0,0.0,8036.82,18,18,0,3,03633,37.5838159092522,126.951607849111
A12078704,홍제원 현대,1141011100,서울특별시,서대문구,홍제동,,서울특별시 서대문구 홍제동 459 홍제원 현대,분양,개별난방,128749.57,15,939.0,현대건설,현대건설,023950179,,아파트,서울특별시 서대문구 통일로34길 43,위탁관리,혼합식,20000614,023950181,939,102766.07,298.0,358.0,283.0,0.0,80719.1,18,18,2,0,03631,37.5876593304485,126.949588082808
A12078705,홍제인왕산현대,1141011100,서울특별시,서대문구,홍제동,,서울특별시 서대문구 홍제동 460 홍제인왕산현대,분양,개별난방,94222.0,10,700.0,현대건설,현대건설,023959392,,아파트,서울특별시 서대문구 통일로34길 46,위탁관리,혼합식,20000705,023947173,700,75353.375,255.0,256.0,189.0,0.0,58698.63,18,18,3,18,03633,37.5853156078907,126.950942398624
A12078706,홍제청구3차,1141011100,서울특별시,서대문구,홍제동,,서울특별시 서대문구 홍제동 462 홍제청구3차,분양,개별난방,31032.84,2,228.0,청구건설,청구건설,023912958,,아파트,서울특별시 서대문구 통일로 332,위탁관리,혼합식,20010530,023912959,228,22254.92,134.0,94.0,0.0,0.0,15945.84,17,17,5,6,03634,37.5804808818392,126.952944881353
A12078707,홍제원현대임대,1141011100,서울특별시,서대문구,홍제동,,서울특별시 서대문구 홍제동 459-1 홍제원현대임대,임대,개별난방,24740.14,2,482.0,,,023799324,,아파트,서울특별시 서대문구 통일로34길 43,위탁관리,복도식,20000614,0232161734,482,22307.441,482.0,0.0,0.0,0.0,15746.94,18,18,2,6,03631,37.5866306457751,126.950819030976
A12085303,홍제한양,1141011100,서울특별시,서대문구,홍제동,,서울특별시 서대문구 홍제동 82 홍제한양,분양,개별난방,100004.16,10,998.0,햔양건설,한양건설,027221205,홍제한양.apti.co.kr,아파트,서울특별시 서대문구 통일로25길 30,위탁관리,혼합식,19930504,027361205,998,100004.16,0.0,848.0,150.0,0.0,76611.98,15,15,1,22,03730,37.5833210740055,126.946971087746
A12086001,홍제태영으뜸,1141011100,서울특별시,서대문구,홍제동,,서울특별시 서대문구 홍제동 373 홍제태영으뜸,분양,개별난방,26524.93,1,214.0,태영(주),홍제3동 27통 재건축조합,023956548,,아파트,서울특별시 서대문구 세검정로3길 63,위탁관리,복도식,19980731,023956549,214,17721.258,131.0,47.0,36.0,0.0,12650.8,18,18,3,3,03623,37.5936456239833,126.946741942579
A12017001,신촌럭키,1141011200,서울특별시,서대문구,대현동,,서울특별시 서대문구 대현동 144 신촌럭키,분양,개별난방,97520.84,10,855.0,럭키건설,럭키건설,023124426,,아파트,서울특별시 서대문구 이화여대길 50-12,위탁관리,혼합식,19990226,023650358,855,86844.3,315.0,465.0,75.0,0.0,66697.2,15,15,0,18,03764,37.5596039122151,126.947581754502
A10025822,연희파크푸르지오 아파트,1141011700,서울특별시,서대문구,연희동,,서울특별시 서대문구 연희동 747 연희파크푸르지오 아파트,혼합,개별난방,64034.406,5,396.0,(주)대우건설,연희제1주택재건축정비조합,023361185,,아파트,서울특별시 서대문구 홍제천로 136,위탁관리,계단식,20181221,023361186,396,41269.72,136.0,225.0,35.0,0.0,31136.49,19,19,2,13,03695,37.575684003261,126.928558106259
A12011002,연희대우,1141011700,서울특별시,서대문구,연희동,,서울특별시 서대문구 연희동 739 연희대우,분양,개별난방,81339.88,7,562.0,대우건설(주),대우건설(주),0231418600,,아파트,서울특별시 서대문구 연희로 38-20,위탁관리,혼합식,20020730,0231418602,562,59497.715,246.0,196.0,120.0,0.0,45032.934,22,22,3,12,03781,37.5615205693803,126.929514782543
A12071101,연희성원,1141011700,서울특별시,서대문구,연희동,,서울특별시 서대문구 연희동 740 연희성원,분양,개별난방,89550.0,8,581.0,성원건설,연희3동B지구재건축조합,023263500,연희성원.apti.co.kr,아파트,서울특별시 서대문구 연희로32길 48,위탁관리,혼합식,20010531,0231426578,581,64387.242,128.0,320.0,95.0,38.0,50980.04,22,22,0,17,03719,37.5761445850031,126.938637748386
A12071102,연희임광아파트,1141011700,서울특별시,서대문구,연희동,,서울특별시 서대문구 연희동 738 연희임광아파트,분양,개별난방,30573.39,2,212.0,임광토건,임광토건,023321272,,아파트,서울특별시 서대문구 동교로 291,자치관리,혼합식,19990224,023321242,212,20375.92,140.0,36.0,36.0,0.0,15580.72,18,18,3,4,03716,37.5651873431789,126.927122833211
A12071103,연희대림아파트,1141011700,서울특별시,서대문구,연희동,,서울특별시 서대문구 연희동 700 연희대림아파트,분양,개별난방,27331.0,3,220.0,대림,대림,023257396,,아파트,서울특별시 서대문구 연희로32길 20,위탁관리,계단식,19930903,0231417397,220,27330.8,0.0,140.0,80.0,0.0,21422.8,10,10,0,11,03719,37.5754418305082,126.936296369086
A12071104,연희자이엘라,1141011700,서울특별시,서대문구,연희동,,서울특별시 서대문구 연희동 745 연희자이엘라,분양,개별난방,5817.0,1,186.0,GS건설,무궁화신탁(서강냉동),023223181,,아파트,서울특별시 서대문구 연희로5길 14,위탁관리,복도식,20140129,023323182,186,4545.246,186.0,0.0,0.0,0.0,2565.952,13,13,1,0,03716,37.5640976447281,126.928096279275
A10020562,서대문 센트럴아이파크,1141011800,서울특별시,서대문구,홍은동,,서울특별시 서대문구 홍은동 11-111 서대문 센트럴아이파크,혼합,개별난방,130702.33,12,827.0,HDC현대산업개발,홍은제13구역주택재개발정비사업조합,023793792,,아파트,서울특별시 서대문구 홍은중앙로11길 31,위탁관리,혼합식,20250630,023793793,827,72515.45,68.0,522.0,237.0,0.0,72515.455,15,0,3,0,,37.6005948320166,126.947239669248
A10023449,e편한세상 서대문,1141011800,서울특별시,서대문구,홍은동,,서울특별시 서대문구 홍은동 104-5 e편한세상 서대문,분양,개별난방,72952.25,6,481.0,DL이앤씨(주),홍은제1주택재건축정비사업조합,023795377,,아파트,서울특별시 서대문구 통일로 505,위탁관리,계단식,20230912,023795379,481,43112.43,321.0,152.0,8.0,0.0,32446.93,28,28,4,13,03647,37.5950487669108,126.939685376137
A10023482,힐스테이트 홍은포레스트 아파트,1141011800,서울특별시,서대문구,홍은동,,서울특별시 서대문구 홍은동 338-5 힐스테이트 홍은포레스트 아파트,혼합,개별난방,89957.0,8,623.0,현대건설(주),홍은동 제2주택 재건축 정비사업조합,023768823,,아파트,서울특별시 서대문구 가좌로4길 21,위탁관리,계단식,20231229,023768824,623,42282.0,294.0,329.0,0.0,0.0,42780.73,14,14,4,27,03655,37.5860692560739,126.925704669864
A10023562,홍은동일아파트,1141011800,서울특별시,서대문구,홍은동,,서울특별시 서대문구 홍은동 457 홍은동일아파트,분양,개별난방,14375.0,1,101.0,홍은동일아파트,홍은동일아파트,0232167911,,아파트,서울특별시 서대문구 홍은중앙로 81,위탁관리,혼합식,19971008,0232171600,101,10648.29,34.0,50.0,17.0,0.0,7683.36,20,20,0,1,03604,37.598485623693,126.946663076078
A10024532,북한산두산위브2차,1141011800,서울특별시,서대문구,홍은동,,서울특별시 서대문구 홍은동 468 북한산두산위브2차,혼합,개별난방,36987.68,4,296.0,두산건설(주),홍은동 제6주택재건축정비사업조합,023945114,,아파트,서울특별시 서대문구 홍은중앙로1길 100,위탁관리,복도식,20210913,023955114,296,36588.15,296.0,0.0,0.0,0.0,17548.38,14,14,3,14,03609,37.5998131143961,126.944642936837
A10025166,북한산 두산 위브,1141011800,서울특별시,서대문구,홍은동,,서울특별시 서대문구 홍은동 467 북한산 두산 위브,혼합,개별난방,72972.0,11,497.0,두산건설,홍은 제 14구역 주택재개발정비사업조합,023915114,,아파트,서울특별시 서대문구 홍은중앙로3길 9,위탁관리,혼합식,20200721,023915116,497,69952.09,226.0,252.0,19.0,0.0,35464.74,21,21,3,15,03610,37.5980187651894,126.945555830465
A10026604,북한산 더샵,1141011800,서울특별시,서대문구,홍은동,,서울특별시 서대문구 홍은동 464 북한산 더샵,혼합,개별난방,94686.3,8,552.0,포스코건설,홍은12구역주택재개발정비사업조합,023919903,www.bhsthesharp.com,아파트,서울특별시 서대문구 통일로 510,위탁관리,혼합식,20171218,023919905,552,54604.062,185.0,291.0,76.0,0.0,42118.33,20,20,3,18,03615,37.5934132582275,126.941598938105
A12010001,홍은동원베네스트,1141011800,서울특별시,서대문구,홍은동,,서울특별시 서대문구 홍은동 463 홍은동원베네스트,혼합,개별난방,30346.602,5,195.0,동원건설,홍은동제3주택 재건축정비사업조합,023790942,,아파트,서울특별시 서대문구 홍은중앙로1길 65,위탁관리,기타,20120919,023790943,195,21458.154,42.0,118.0,35.0,0.0,16236.102,13,13,2,10,03613,37.5989341410052,126.943949771598
A12010101,홍은풍림1차,1141011800,서울특별시,서대문구,홍은동,,서울특별시 서대문구 홍은동 440-3 홍은풍림1차,분양,개별난방,16197.56,1,181.0,.,.,0232168057,a76639@daum.net,아파트,서울특별시 서대문구 통일로48가길 37,자치관리,복도식,19880209,0232168058,193,15910.4,109.0,72.0,0.0,0.0,10816.65,12,12,0,2,03615,37.5946679785,126.942146456823
A12010103,홍은풍림2차,1141011800,서울특별시,서대문구,홍은동,,서울특별시 서대문구 홍은동 453-2 홍은풍림2차,분양,개별난방+기타,39447.02,3,390.0,풍림산업,풍림산업,0232179549,,아파트,서울특별시 서대문구 세검정로1길 35,위탁관리,혼합식,19901219,0232164465,390,36141.97,203.0,157.0,30.0,0.0,27166.95,15,15,2,6,03615,37.593375689781,126.943080365457
A12010104,홍은벽산,1141011800,서울특별시,서대문구,홍은동,,서울특별시 서대문구 홍은동 455 홍은벽산,혼합,개별난방,165653.0,17,1509.0,벽산건설(주),홍은제5-3구역 주택개량 재개발  조합,023799798,www.hbsapt.co.kr,아파트,서울특별시 서대문구 세검정로1길 95,위탁관리,혼합식,19970930,023969797,1509,165104.11,345.0,624.0,270.0,270.0,137695.92,15,15,3,43,03612,37.5953795593755,126.944732392243
A12010202,홍은풍림아이원,1141011800,서울특별시,서대문구,홍은동,,서울특별시 서대문구 홍은동 460 홍은풍림아이원,분양,개별난방,56668.176,7,333.0,풍림산업(주),건양RND,023799765,,아파트,서울특별시 서대문구 홍은중앙로 149,위탁관리,계단식,20021122,023799766,333,44774.71,0.0,191.0,142.0,0.0,33620.148,20,20,5,10,03600,37.6036449199212,126.948383228249
A12010203,홍은극동,1141011800,서울특별시,서대문구,홍은동,,서울특별시 서대문구 홍은동 454 홍은극동,분양,개별난방,60124.88,6,488.0,극동건설,공익건설(주)외 9개 조합,023911919,,아파트,서울특별시 서대문구 포방터10길 33,위탁관리,계단식,19951102,023951919,488,52867.87,0.0,473.0,0.0,15.0,42398.86,18,18,0,17,03601,37.6026153795328,126.950968524813
A12071001,홍은두산,1141011800,서울특별시,서대문구,홍은동,,서울특별시 서대문구 홍은동 456 홍은두산,분양,개별난방,33403.81,3,294.0,두산건설(주),신성주택(주),023951472,,아파트,서울특별시 서대문구 모래내로 309,위탁관리,계단식,19971013,023951473,294,28118.94,90.0,204.0,0.0,0.0,22682.91,15,15,0,11,03657,37.5791478594495,126.931573406888
A12071002,홍은동부센트레빌,1141011800,서울특별시,서대문구,홍은동,,서울특별시 서대문구 홍은동 461 홍은동부센트레빌,분양,개별난방,37008.47,4,201.0,홍은 제10구역 주택재개발 정비사업조함,동부건설(주),023919888,,아파트,서울특별시 서대문구 통일로 553,위탁관리,계단식,20090831,023919887,201,23024.795,54.0,98.0,49.0,0.0,17178.83,20,20,4,8,03647,37.5972190820679,126.937790082266
A12071003,홍은동미성아파트,1141011800,서울특별시,서대문구,홍은동,,서울특별시 서대문구 홍은동 186-1 홍은동미성아파트,분양,개별난방,36310.86,4,300.0,라이프주택,라이프주택,0232175385,,아파트,서울특별시 서대문구 연희로41길 102,위탁관리,혼합식,19850320,0232175387,300,35649.562,0.0,204.0,96.0,0.0,28423.68,12,12,0,11,03648,37.5937393243817,126.935370168852
A12071004,진흥,1141011800,서울특별시,서대문구,홍은동,,서울특별시 서대문구 홍은동 459 진흥,분양,개별난방,11863.22,1,90.0,진흥,산업은행.홍은2주택조합,023967434,hejhapt.co.kr,아파트,,자치관리,계단식,20180801,023967435,90,11863.22,15.0,61.0,14.0,0.0,7117.67,15,15,2,0,,37.5797835131076,126.932516884721
A12084302,유원홍은,1141011800,서울특별시,서대문구,홍은동,,서울특별시 서대문구 홍은동 22 유원홍은,분양,개별난방,27283.0,4,299.0,유원건설,유원건설,023791913,,아파트,서울특별시 서대문구 홍은중앙로1길 33,위탁관리,혼합식,19871026,0232172210,299,26619.71,91.0,208.0,0.0,0.0,19915.74,13,13,0,6,03613,37.5975065241554,126.944721080693
A12084504,홍은현대,1141011800,서울특별시,서대문구,홍은동,,서울특별시 서대문구 홍은동 202-5 홍은현대,분양,개별난방,57861.426,6,610.0,현대산업개발(주),외환은행직장주택조합외 13개조합,0232161278,,아파트,서울특별시 서대문구 연희로 377,위탁관리,계단식,19880729,0232177912,610,57861.426,166.0,444.0,0.0,0.0,45783.95,15,15,1,21,03648,37.5902548794754,126.938328720978
A10024428,북가좌 신일해피트리아파트,1141011900,서울특별시,서대문구,북가좌동,,서울특별시 서대문구 북가좌동 455 북가좌 신일해피트리아파트,분양,,16005.0,2,111.0,(주)신일건설,(주)신일,023753381,,아파트,서울특별시 서대문구 수색로 147-1,자치관리,계단식,20051031,023763386,111,11617.38,15.0,96.0,0.0,0.0,9046.53,13,13,3,5,03715,37.5750463456097,126.904448291632
A12013001,DMC휴먼빌,1141011900,서울특별시,서대문구,북가좌동,,서울특별시 서대문구 북가좌동 456 DMC휴먼빌,분양,개별난방,30955.07,4,197.0,일신건영,,023030232,,아파트,서울특별시 서대문구 거북골로18가길 23,위탁관리,계단식,20081223,023030227,197,21656.197,0.0,149.0,48.0,0.0,18163.95,15,15,0,7,03691,37.5774332026934,126.912025441653
A12013002,DMC아이파크,1141011900,서울특별시,서대문구,북가좌동,,서울특별시 서대문구 북가좌동 458 DMC아이파크,혼합,지역난방,57803.03,5,362.0,현대산업개발,현대산업개발,023090133,,주상복합,서울특별시 서대문구 거북골로14길 32,위탁관리,계단식,20090331,023762810,362,34712.7,151.0,140.0,71.0,0.0,26666.85,15,15,2,13,03690,37.5763590042633,126.914680682658
A12013003,DMC래미안e편한세상,1141011900,서울특별시,서대문구,북가좌동,,서울특별시 서대문구 북가좌동 481 DMC래미안e편한세상,혼합,지역난방,575494.0,51,3293.0,"삼성물산, 대림산업",가재울뉴타운제3구역재재발조합,023023105,dmcre.co.kr,주상복합,서울특별시 서대문구 수색로 100,위탁관리,혼합식,20121005,023023107,3297,362548.12,986.0,1657.0,504.0,146.0,271661.76,35,35,0,0,03709,37.5726489857162,126.910550761779
A12013101,디엠씨현대,1141011900,서울특별시,서대문구,북가좌동,,서울특별시 서대문구 북가좌동 453 디엠씨현대,분양,개별난방,24672.48,3,213.0,현대건설(주),북가좌 제 2주택조합,023038589,,아파트,서울특별시 서대문구 응암로 33,자치관리,혼합식,20000929,023028589,213,16130.24,56.0,157.0,0.0,0.0,16130.24,15,15,2,7,03714,37.5768029058835,126.907940591797
A12013201,DMC두산위브,1141011900,서울특별시,서대문구,북가좌동,,서울특별시 서대문구 북가좌동 459 DMC두산위브,분양,개별난방,34378.71,4,235.0,두산중공업,포레빌,023767676,,아파트,서울특별시 서대문구 증가로 200-8,위탁관리,계단식,20070226,023767677,235,25364.5,0.0,235.0,0.0,0.0,19968.255,15,15,2,6,03670,37.5802470424539,126.91718182879
A12013202,북가좌삼호,1141011900,서울특별시,서대문구,북가좌동,,서울특별시 서대문구 북가좌동 449 북가좌삼호,분양,지역난방,81997.0,4,616.0,삼호건설,삼호건설,023727080,북가좌삼호.apti.co.kr,아파트,서울특별시 서대문구 거북골로 154,위탁관리,계단식,19960216,023757080,616,70627.38,0.0,420.0,196.0,0.0,56969.64,18,18,0,1,03690,37.576494133858,126.913171050724
A12076601,북가좌삼호제2,1141011900,서울특별시,서대문구,북가좌동,,서울특별시 서대문구 북가좌동 449-1 북가좌삼호제2,임대,개별난방,14253.15,1,267.0,대림건설,Sh공사,023023751,www.i-sh.co.kr/happy/intro.do,아파트,서울특별시 서대문구 거북골로 154,위탁관리,복도식,19960216,023023752,267,14252.46,267.0,0.0,0.0,0.0,8410.5,18,18,1,3,03690,37.5768146390723,126.912104507702
A12081602,월드컵현대,1141011900,서울특별시,서대문구,북가좌동,,서울특별시 서대문구 북가좌동 371-1 월드컵현대,분양,개별난방,38156.6,2,254.0,현대건설,명성문화연립,023730602,,아파트,서울특별시 서대문구 수색로 154,위탁관리,혼합식,19981121,023730602,254,27788.81,103.0,90.0,61.0,0.0,20574.31,18,18,2,7,03714,37.5762947166399,126.904390773298
A12081703,디엠씨한양,1141011900,서울특별시,서대문구,북가좌동,,서울특별시 서대문구 북가좌동 431 디엠씨한양,분양,지역난방,79165.0,6,660.0,한양건설,한양,023062018,,아파트,서울특별시 서대문구 응암로 28,위탁관리,혼합식,19870804,023065847,660,75623.15,1.0,427.0,232.0,0.0,58508.8,15,15,0,15,03790,37.575893797905,126.90909696044
A10020267,DMC 가재울 아이파크,1141012000,서울특별시,서대문구,남가좌동,,서울특별시 서대문구 남가좌동 289-54 DMC 가재울 아이파크,혼합,지역난방,26585.285,3,283.0,HDC현대산업개발,가재울8재정비촉진구역 재개발정비사업조합,023049002,,주상복합,서울특별시 서대문구 수색로4나길 11,위탁관리,계단식,20251126,023049003,283,26585.285,0.0,166.0,117.0,0.0,26585.285,27,0,3,0,,37.5707362400998,126.91490658502
A10023709,DMC금호리첸시아,1141012000,서울특별시,서대문구,남가좌동,,서울특별시 서대문구 남가좌동 286-1 DMC금호리첸시아,분양,지역난방,72268.03,5,450.0,금호건설,모래내 서중양대시장 정비사업,023099745,,주상복합,서울특별시 서대문구 수색로2길 39,위탁관리,계단식,20240125,023099746,450,47029.9,160.0,290.0,0.0,0.0,32941.15,29,29,4,10,03712,37.5713138623931,126.915904667901
A10024938,래미안루센티아 아파트,1141012000,서울특별시,서대문구,남가좌동,,서울특별시 서대문구 남가좌동 175 래미안루센티아 아파트,혼합,지역난방,158125.5,11,997.0,삼성물산(주),가재울뉴타운5구역 주택재개발 정비사업조합,0231510669,lucentia.aptner.com,아파트,서울특별시 서대문구 거북골로 100,위탁관리,혼합식,20200423,0231510670,997,98083.29,391.0,582.0,24.0,0.0,72643.03,25,25,3,31,03689,37.5757256799627,126.918353630124
A10025130,DMC에코자이,1141012000,서울특별시,서대문구,남가좌동,,서울특별시 서대문구 남가좌동 224 DMC에코자이,혼합,지역난방,163482.75,11,1047.0,GS건설,가재울뉴타운6구역주택재개발정비사업조합,0269594997,v2admin.aptmer.com,아파트,서울특별시 서대문구 거북골로 84,위탁관리,혼합식,20191227,0269594998,1047,96045.9,554.0,483.0,10.0,0.0,70342.06,24,24,5,35,03687,37.5782296308468,126.918481311495
A10025976,DMC센트럴아이파크,1141012000,서울특별시,서대문구,남가좌동,,서울특별시 서대문구 남가좌동 369-10 DMC센트럴아이파크,혼합,개별난방,111933.59,13,1061.0,HDC현대산업개발,남가좌1주택재건축정비사업 조합,023032296,https://DMC센트럴아이파크.apti.co.kr,아파트,서울특별시 서대문구 증가로 150,위탁관리,복도식,20181231,023032297,1061,111846.57,239.0,693.0,129.0,0.0,87034.07,22,22,3,34,03670,37.5780547612815,126.92101916232
A10027019,상암DMC엘가,1141012000,서울특별시,서대문구,남가좌동,,서울특별시 서대문구 남가좌동 387 상암DMC엘가,분양,개별난방,13557.98,1,288.0,모아주택산업(주),스카이원레져,0260108781,,주상복합,서울특별시 서대문구 모래내로 151,위탁관리,복도식,20170208,0260108782,288,12611.59,288.0,0.0,0.0,0.0,5862.19,15,15,2,2,03712,37.5699525219787,126.917785126837
A10027817,DMC파크뷰자이아파트,1141012000,서울특별시,서대문구,남가좌동,,서울특별시 서대문구 남가좌동 124-1 DMC파크뷰자이아파트,혼합,지역난방,712875.0,61,4300.0,"현대산업개발, SK건설, GS건설",가재울4구역 재건축조합,029318360,,아파트,서울특별시 서대문구 가재울미래로 2,위탁관리,혼합식,20151026,029318356,4300,340973.0,1231.0,2522.0,423.0,124.0,344842.81,33,33,3,112,03711,37.5744019902031,126.917907814167
A12012001,쌍용스윗닷홈,1141012000,서울특별시,서대문구,남가좌동,,서울특별시 서대문구 남가좌동 380 쌍용스윗닷홈,분양,개별난방,15107.09,1,110.0,쌍용건설,쌍용건설,023032530,,아파트,서울특별시 서대문구 거북골로 91-6,위탁관리,계단식,20051209,023032531,110,12686.2,0.0,90.0,20.0,0.0,10212.4,20,20,1,3,03710,37.5753530696617,126.919067331865
A12012101,래미안남가좌2차,1141012000,서울특별시,서대문구,남가좌동,,서울특별시 서대문구 남가좌동 379 래미안남가좌2차,분양,개별난방,80843.0,10,503.0,삼성건설,삼성건설,023763732,,아파트,서울특별시 서대문구 수색로6길 43,위탁관리,계단식,20051026,023763736,503,51203.297,214.0,208.0,81.0,0.0,39732.513,15,15,2,19,03791,37.5719886027308,126.912658059687
A12012201,DMC래미안클라시스,1141012000,서울특별시,서대문구,남가좌동,,서울특별시 서대문구 남가좌동 377-1 DMC래미안클라시스,임대,개별난방,22912.71,2,358.0,(주)삼성물산,(주)삼성물산,023095742,,아파트,서울특별시 서대문구 증가로 191,위탁관리,계단식,20001215,023095743,358,10940.48,358.0,0.0,0.0,0.0,10940.48,17,17,2,4,03686,37.5786005633353,126.916029493207
A12012202,DMC래미안클라시스(분양),1141012000,서울특별시,서대문구,남가좌동,,서울특별시 서대문구 남가좌동 377 DMC래미안클라시스(분양),분양,개별난방,158327.0,14,1114.0,삼성물산(주),남가좌 7재개발조합,023762743,dmcclassis.aptner.com,아파트,서울특별시 서대문구 증가로 191,위탁관리,혼합식,20001215,023762745,1114,120693.19,425.0,424.0,265.0,0.0,91868.31,20,20,1,36,03686,37.5777836266316,126.916529880454
A12012203,남가좌동현대아파트,1141012000,서울특별시,서대문구,남가좌동,,서울특별시 서대문구 남가좌동 376 남가좌동현대아파트,분양,개별난방,122576.63,10,1155.0,현대산업개발(주),조합,023024697,www.apt376.net,아파트,서울특별시 서대문구 가재울로 45,위탁관리,혼합식,19990527,023024693,1155,122576.53,532.0,327.0,296.0,0.0,92778.04,20,20,1,25,03710,37.5749918612212,126.920125943504
A12072801,DMC센트레빌,1141012000,서울특별시,서대문구,남가좌동,,서울특별시 서대문구 남가좌동 381 DMC센트레빌,혼합,지역난방,76631.0,7,473.0,동부건설,주택조합,023041489,가재울센트레빌.apti.co.kr,아파트,서울특별시 서대문구 거북골로 120,위탁관리,계단식,20090602,023091489,473,46536.414,205.0,175.0,93.0,0.0,35124.81,15,15,2,21,03690,37.5761635101917,126.915714237952
A12072802,남가좌현대제2,1141012000,서울특별시,서대문구,남가좌동,,서울특별시 서대문구 남가좌동 376-2 남가좌현대제2,임대,개별난방,22115.27,1,330.0,현대사업개발,현대사업개발,023073217,happy.i-sh.co.kr,아파트,서울특별시 서대문구 가재울로 45,위탁관리,복도식,19990527,023073218,330,18087.3,330.0,0.0,0.0,0.0,10810.8,18,18,2,4,03710,37.5738264559743,126.92030536681
