kaptCode,kaptName,bjdCode,as1,as2,as3,as4,kaptAddr,codeSaleNm,codeHeatNm,kaptTarea,kaptDongCnt,kaptdaCnt,kaptBcompany,kaptAcompany,kaptTel,kaptUrl,codeAptNm,doroJuso,codeMgrNm,codeHallNm,kaptUsedate,kaptFax,hoCnt,kaptMarea,kaptMparea60,kaptMparea85,kaptMparea135,kaptMparea136,privArea,kaptTopFloor,ktownFlrNo,kaptBaseFloor,kaptdEcntp,zipcode,위도,경도
A10020216,역삼우정에쉐르2,1168010100,서울특별시,강남구,역삼동,,서울특별시 강남구 역삼동 707-18 역삼우정에쉐르2,분양,개별난방,5441.45,1,0.0,우정건설(주),(주)태승플래닝,025681135,,주상복합,서울특별시 강남구 테헤란로48길 10,위탁관리,혼합식,20040806,025681136,0,0.0,0.0,0.0,0.0,0.0,0,0,0,0,0,,37.502652453062,127.045872920554
A10021281,대림역삼아파트,1168010100,서울특별시,강남구,역삼동,,서울특별시 강남구 역삼동 761-10 대림역삼아파트,분양,개별난방,15199.0,1,129.0,희훈건설,희훈건설,025660407,,아파트,서울특별시 강남구 언주로 316,위탁관리,혼합식,19971001,,129,9269.03,67.0,62.0,0.0,0.0,9269.03,1,18,2,1,,37.496232263246,127.046284915927
A10022749,원에디션강남,1168010100,서울특별시,강남구,역삼동,,서울특별시 강남구 역삼동 653-4 원에디션강남,분양,지역난방,45633.0,2,229.0,현대 엔지니어링(주),지엘스포월드피에프브이(주),025655800,,,서울특별시 강남구 언주로 563,위탁관리,기타,20240206,025655801,229,30296.256,229.0,0.0,0.0,0.0,9636.344,15,15,5,8,06135,37.5079337330229,127.038168392484
A10023825,강남센트럴아이파크,1168010100,서울특별시,강남구,역삼동,,서울특별시 강남구 역삼동 712-1 강남센트럴아이파크,혼합,지역난방,102103.0,5,499.0,현대산업개발,개나리4차 재건축조합,025087504,admin.aptner.co.kr,아파트,서울특별시 강남구 테헤란로44길 26,위탁관리,계단식,20220428,025087506,499,47840.06,100.0,208.0,166.0,25.0,47840.27,35,35,3,0,06214,37.5012057685259,127.045717100228
A10024813,롯데캐슬노블,1168010100,서울특별시,강남구,역삼동,,서울특별시 강남구 역삼동 835-68 롯데캐슬노블,분양,개별난방,37453.3,2,117.0,롯데건설,롯데건설,025564992,,아파트,서울특별시 강남구 도곡로13길 19,위탁관리,계단식,20070226,025564993,117,23289.34,0.0,0.0,0.0,117.0,20122.92,15,15,2,5,06255,37.4926412119382,127.03562324031
A10024820,현대까르띠에710아파트,1168010100,서울특별시,강남구,역삼동,,서울특별시 강남구 역삼동 710 현대까르띠에710아파트,분양,개별난방,39097.0,3,137.0,현대건설,현대건설,025586562,,아파트,서울특별시 강남구 언주로86길 12,위탁관리,계단식,20011109,025586563,137,28976.0,0.0,0.0,0.0,137.0,22010.896,24,24,2,0,06214,37.5017083711733,127.044956522424
A10027474,역삼자이아파트,1168010100,서울특별시,강남구,역삼동,,서울특별시 강남구 역삼동 711-1 역삼자이아파트,혼합,지역난방,74559.65,3,408.0,GS건설,개나리6차아파트주택재건축정비사업조합,025697651,,아파트,서울특별시 강남구 언주로 420,위탁관리,혼합식,20160622,025653655,408,51177.508,104.0,156.0,148.0,0.0,36393.78,31,31,3,10,06214,37.500962635548,127.044168622231
A13508001,역삼휴먼터치빌,1168010100,서울특별시,강남구,역삼동,,서울특별시 강남구 역삼동 606-18 역삼휴먼터치빌,분양,개별난방,12415.23,1,160.0,현대산업개발,현대산업개발,025530050,www.humantouch.co.kr,주상복합,서울특별시 강남구 논현로 565,자치관리,복도식,19990619,025526839,160,4784.64,160.0,0.0,0.0,0.0,4784.64,18,18,3,2,06125,37.5065208505908,127.033785182489
A13508002,역삼경남,1168010100,서울특별시,강남구,역삼동,,서울특별시 강남구 역삼동 722 역삼경남,분양,개별난방,30232.0,1,164.0,경남기업,역삼 주상복합조합,025080500,,주상복합,서울특별시 강남구 언주로85길 13,위탁관리,계단식,20020501,025080566,164,18521.2,0.0,164.0,0.0,0.0,13661.44,17,17,3,0,06222,37.5005673881078,127.042381786191
A13508003,대우디오빌플러스,1168010100,서울특별시,강남구,역삼동,,서울특별시 강남구 역삼동 824-25 대우디오빌플러스,분양,개별난방,12448.08,1,168.0,대우건설,플러스하우징,0220500001,,아파트,서울특별시 강남구 강남대로84길 33,위탁관리,복도식,20040525,0220500005,168,12448.08,168.0,0.0,0.0,0.0,6700.56,13,13,4,6,06233,37.4975461306128,127.031093425879
A13508004,역삼동부센트레빌,1168010100,서울특별시,강남구,역삼동,,서울특별시 강남구 역삼동 716 역삼동부센트레빌,분양,중앙난방,25649.0,1,206.0,동부건설(주),선릉123지여구택조합,025633440,,아파트,서울특별시 강남구 선릉로 423,위탁관리,계단식,19980421,025633543,206,20066.3,103.0,103.0,0.0,0.0,14922.52,21,21,2,5,06213,37.5025030682175,127.04944160406
A13508005,역삼한스빌아파트,1168010100,서울특별시,강남구,역삼동,,서울특별시 강남구 역삼동 836 역삼한스빌아파트,분양,개별난방,17708.61,1,216.0,한일합섬,한일합섬,025088079,,아파트,서울특별시 강남구 도곡로3길 26,위탁관리,복도식,19961126,025688079,216,12026.84,216.0,0.0,0.0,0.0,8575.59,12,12,2,2,06254,37.4919829893777,127.032955994209
A13508006,역삼래미안펜타빌,1168010100,서울특별시,강남구,역삼동,,서울특별시 강남구 역삼동 713-7 역삼래미안펜타빌,분양,지역난방,50041.0,5,288.0,삼성물산,삼성물산,025554534,,아파트,서울특별시 강남구 역삼로 309,위탁관리,계단식,20071130,025554651,288,42490.027,0.0,0.0,0.0,288.0,42490.3,24,24,2,8,06215,37.500299161164,127.046905010952
A13508009,역삼아이파크,1168010100,서울특별시,강남구,역삼동,,서울특별시 강남구 역삼동 713-11 역삼아이파크,분양,지역난방,109796.72,7,541.0,현대산업개발(주),개나리2차저층재건축조합,025676910,,아파트,서울특별시 강남구 역삼로 307,위탁관리,혼합식,20060928,0260526912,541,65294.9,178.0,0.0,240.0,123.0,52062.959,21,21,3,14,06215,37.4990489022234,127.044876444798
A13508010,역삼쌍용플래티넘밸류,1168010100,서울특별시,강남구,역삼동,,서울특별시 강남구 역삼동 826-37 역삼쌍용플래티넘밸류,분양,개별난방,27969.514,3,166.0,쌍용건설(주),한국자산신탁(주),025578416,www.drapt.com,주상복합,서울특별시 강남구 테헤란로4길 46,위탁관리,혼합식,20070119,025558417,166,27969.512,0.0,110.0,56.0,0.0,15705.94,15,15,5,8,06241,37.4955481444177,127.03006467392
A13508011,래미안그레이튼,1168010100,서울특별시,강남구,역삼동,,서울특별시 강남구 역삼동 762-3 래미안그레이튼,혼합,지역난방,77893.71,5,464.0,삼성건설,삼성건설,025582981,,아파트,서울특별시 강남구 도곡로43길 21,위탁관리,계단식,20100604,025582973,464,55307.3,94.0,188.0,182.0,0.0,42335.44,34,34,2,11,06219,37.4957277729688,127.047011616273
A13508012,테헤란 IPARK,1168010100,서울특별시,강남구,역삼동,,서울특별시 강남구 역삼동 709 테헤란 IPARK,혼합,지역난방,71703.92,6,411.0,현대산업개발,성보아파트주택재건축정비사업조합,025551992,,주상복합,서울특별시 강남구 테헤란로52길 16,위탁관리,계단식,20140124,025551901,411,34736.57,17.0,184.0,210.0,0.0,34735.58,25,25,0,0,06213,37.5025006142352,127.046384009751
A13508013,역삼SK허브젠,1168010100,서울특별시,강남구,역삼동,,서울특별시 강남구 역삼동 831-45 역삼SK허브젠,,,0.0,1,56.0,,,025671643,,주상복합,서울특별시 강남구 역삼로 109,기타,,,025394895,0,0.0,0.0,56.0,0.0,0.0,4573.32,1,15,0,0,06242,37.493685521392,127.031000004311
A13579501,역삼개나리푸르지오,1168010100,서울특별시,강남구,역삼동,,서울특별시 강남구 역삼동 755-1 역삼개나리푸르지오,분양,지역난방,70901.0,5,332.0,대우건설,대우건설,025646600,,아파트,서울특별시 강남구 역삼로 314,위탁관리,계단식,20060814,025646602,332,45118.496,67.0,102.0,85.0,78.0,35538.3408,24,24,0,0,06217,37.4996151321623,127.049302635975
A13579503,역삼2차아이파크,1168010100,서울특별시,강남구,역삼동,,서울특별시 강남구 역삼동 765-32 역삼2차아이파크,분양,개별난방,22883.04,3,150.0,현대산업개발(주),신도곡아파트재건축조합,0220516283,xn--2-em4f59iital3dm4lq3husf.apti.co.kr/,아파트,서울특별시 강남구 도곡로57길 12,위탁관리,계단식,20081202,0220516284,150,16102.234,30.0,87.0,33.0,0.0,13090.646,26,26,2,5,06218,37.4966694379764,127.051287708663
A13579504,한화진넥스빌,1168010100,서울특별시,강남구,역삼동,,서울특별시 강남구 역삼동 706-20 한화진넥스빌,분양,개별난방,26924.0,1,294.0,(주)한화건설,(주)한화건설,025557352,jin5557352@naver.com,주상복합,서울특별시 강남구 언주로86길 11,위탁관리,복도식,20010130,025620797,294,12193.02,294.0,0.0,0.0,0.0,12172.02,26,26,6,4,06210,37.5019668595977,127.044267604323
A13579505,래미안그레이튼3차,1168010100,서울특별시,강남구,역삼동,,서울특별시 강남구 역삼동 763-16 래미안그레이튼3차,혼합,지역난방,76688.0,8,476.0,삼성물산,진달래아파트3차 재건축조합,0234536161,,아파트,서울특별시 강남구 도곡로43길 20,위탁관리,계단식,20091228,0234530027,476,52943.79,121.0,281.0,0.0,74.0,39854.66,21,21,2,13,06219,37.4968552857788,127.048587369117
A13579506,개나리SKVIEW,1168010100,서울특별시,강남구,역삼동,,서울특별시 강남구 역삼동 716-3 개나리SKVIEW,혼합,지역난방,49201.26,3,240.0,SK건설,개나리5차주택재건축정비조합,025577730,,아파트,서울특별시 강남구 역삼로 315-1,위탁관리,계단식,20120817,025577732,246,31651.68,0.0,144.0,96.0,0.0,24456,25,25,2,6,06213,37.5005684337476,127.050071033953
A13591402,역삼금호어울림,1168010100,서울특별시,강남구,역삼동,,서울특별시 강남구 역삼동 835-67 역삼금호어울림,분양,개별난방,36419.94,3,183.0,금호산업(주),금호,025384766,,아파트,서울특별시 강남구 도곡로7길 22,위탁관리,계단식,20031202,025384769,183,25546.3,0.0,54.0,129.0,0.0,21796.31,15,15,2,0,06255,37.4923742270443,127.034771182974
A13592002,대우디오빌역삼,1168010100,서울특별시,강남구,역삼동,,서울특별시 강남구 역삼동 720-25 대우디오빌역삼,분양,지역난방,34281.43,1,457.0,대우건설,대우건설,0221936000,,주상복합,서울특별시 강남구 언주로 427,위탁관리,복도식,20020625,0221936004,457,34281.43,434.0,23.0,0.0,0.0,18737.983,26,26,5,5,06221,37.5014764820153,127.042690475293
A13592601,역삼개나리래미안,1168010100,서울특별시,강남구,역삼동,,서울특별시 강남구 역삼동 754 역삼개나리래미안,분양,지역난방,93113.21,7,438.0,삼성,개나리래미안조합,025564420,,아파트,서울특별시 강남구 역삼로 306,위탁관리,계단식,20060831,025564476,438,57361.67,88.0,133.0,143.0,74.0,44847.47,22,22,2,14,06216,37.4989772734253,127.046959597261
A13592604,역삼푸르지오,1168010100,서울특별시,강남구,역삼동,,서울특별시 강남구 역삼동 754-1 역삼푸르지오,분양,지역난방,99362.945,11,738.0,대우건설,.,025632217,,아파트,서울특별시 강남구 언주로 332,위탁관리,계단식,20060102,025632218,738,67654.22,376.0,362.0,0.0,0.0,53253.9962,24,24,2,20,06216,37.4982223264358,127.047395413884
A13592605,역삼e-편한세상,1168010100,서울특별시,강남구,역삼동,,서울특별시 강남구 역삼동 755-4 역삼e-편한세상,분양,지역난방,116730.15,12,840.0,(주)대림산업,(주)대림산업,025652911,역삼e-편한세상.apti.co.kr,아파트,서울특별시 강남구 선릉로69길 20,위탁관리,계단식,20051216,025652917,840,75790.68,513.0,327.0,0.0,0.0,58385.755,25,25,2,23,06217,37.498747226144,127.050923517096
A13592706,역삼래미안,1168010100,서울특별시,강남구,역삼동,,서울특별시 강남구 역삼동 757 역삼래미안,분양,지역난방,130700.59,12,1050.0,삼성물산,영동1재건축조합,025393003,,아파트,서울특별시 강남구 선릉로69길 19,위탁관리,계단식,20051026,025396699,1050,69465.86,722.0,328.0,0.0,0.0,69465.86,22,22,2,24,06218,37.4981263526043,127.050691041401
A10022859,디에이치퍼스티어아이파크,1168010300,서울특별시,강남구,개포동,,서울특별시 강남구 개포동 660-4 디에이치퍼스티어아이파크,혼합,지역난방,1306341.1,74,6702.0,"현대산업개발, 현대건설","현대산업개발, 현대건설",0220581801,,아파트,서울특별시 강남구 개포로 310,위탁관리,기타,20231129,0220581860,6702,748764.25,2075.0,2483.0,1924.0,220.0,570729.28,35,35,4,246,06321,37.4802867173431,127.057847776427
A10023348,개포자이프레지던스,1168010300,서울특별시,강남구,개포동,,서울특별시 강남구 개포동 189 개포자이프레지던스,혼합,지역난방,641456.8,35,3375.0,GS건설,개포주공4단지주택재건축조합,0269568728,,아파트,서울특별시 강남구 삼성로 14,위탁관리,혼합식,20230228,0269568729,3375,347743.75,1068.0,1848.0,457.0,2.0,263529.02,35,35,4,0,06331,37.4861548149371,127.068451024326
A10023565,개포6차우성아파트,1168010300,서울특별시,강남구,개포동,,서울특별시 강남구 개포동 658-1 개포6차우성아파트,분양,개별난방,22637.1,8,270.0,우성건설,모름,025776611,,아파트,서울특별시 강남구 언주로 3,자치관리,계단식,19871121,025776673,270,22637.1,20.0,250.0,0.0,0.0,20203.8,5,5,0,0,06316,37.4767921771121,127.055925867398
A10023996,개포더샵트리에,1168010300,서울특별시,강남구,개포동,,서울특별시 강남구 개포동 651-1 개포더샵트리에,분양,지역난방,44951.176,2,232.0,포스코,개포우성9차모델링조합,025763999,thesharp-trieh.hthomeservice.com/#/feeManage?_k=vm58ep,아파트,서울특별시 강남구 개포로 311,위탁관리,계단식,20211201,025763998,232,31173.582,0.0,0.0,232.0,0.0,24877.8335,16,16,3,9,06318,37.485038162571,127.056969855939
A10024564,개포래미안포레스트,1168010300,서울특별시,강남구,개포동,,서울특별시 강남구 개포동 1282 개포래미안포레스트,혼합,지역난방,422390.0,31,2296.0,삼성물산(주),개포시영아파트 주택재건축 정비사업조합,0220580890,gpforest.aptner.com,아파트,서울특별시 강남구 개포로 264,위탁관리,혼합식,20200928,0220580891,2296,244894.45,900.0,905.0,458.0,33.0,178215.29,35,35,3,80,06310,37.4797503513842,127.052228213432
A10025203,디에이치 아너힐즈,1168010300,서울특별시,강남구,개포동,,서울특별시 강남구 개포동 138 디에이치 아너힐즈,혼합,지역난방,233596.98,23,1320.0,현대건설,개포주공3단지주택재건축정비사업조합,025723340,,아파트,서울특별시 강남구 삼성로 11,위탁관리,혼합식,20190829,025723341,1320,142115.88,426.0,629.0,261.0,4.0,104224.24,33,33,3,38,06327,37.4844402093504,127.067960222798
A10025675,래미안블레스티지,1168010300,서울특별시,강남구,개포동,,서울특별시 강남구 개포동 1280 래미안블레스티지,혼합,지역난방,362894.62,23,1957.0,삼성물산,개포주공2단지주택재건축정비사업조합,0220581970,rmabt1957.com,아파트,서울특별시 강남구 선릉로 8,위탁관리,계단식,20190226,0220581972,1957,215906.78,661.0,780.0,511.0,5.0,160922.329,35,35,5,65,06326,37.480057578933,127.064153382762
A13524004,개포우성3차,1168010300,서울특별시,강남구,개포동,,서울특별시 강남구 개포동 652 개포우성3차,분양,지역난방,63304.19,5,405.0,우성건설,우성건설,025749116,,아파트,서울특별시 강남구 개포로 307,자치관리,혼합식,19841231,025749094,405,61064.234,0.0,0.0,285.0,120.0,53437.05,15,15,1,11,06319,37.4846310565134,127.056092038196
A13524005,개포현대1차,1168010300,서울특별시,강남구,개포동,,서울특별시 강남구 개포동 653 개포현대1차,분양,지역난방,68692.0,6,416.0,현대산업개발(주),현대,025735666,개포현대1차.apti.co.kr/,아파트,서울특별시 강남구 개포로 303,자치관리,계단식,19840420,025745666,416,68330.57,0.0,0.0,208.0,208.0,60962.54,13,13,1,16,06320,37.4832803381496,127.054393140278
A13524006,개포2차 현대아파트,1168010300,서울특별시,강남구,개포동,,서울특별시 강남구 개포동 654 개포2차 현대아파트,분양,지역난방,92836.19,13,558.0,현대산업개발(주),현대산업개발(주),025721441,현대2차.apti.co.kr,아파트,서울특별시 강남구 언주로 107,자치관리,계단식,19860131,025721431,558,92376.66,0.0,112.0,230.0,216.0,75527,9,9,1,31,06305,37.4835863365345,127.0519554575
A13524009,개포대치2단지,1168010300,서울특별시,강남구,개포동,,서울특별시 강남구 개포동 12 개포대치2단지,분양,지역난방,105381.17,11,1753.0,성원건설.진덕산업주식회사,서울특별시도시개발공사,024514533,,아파트,서울특별시 강남구 개포로109길 9,위탁관리,복도식,19921014,024593805,1753,100905.94,1753.0,0.0,0.0,0.0,71852.9,15,15,0,0,06335,37.4957518185981,127.075101271591
A13580001,개포현대3차,1168010300,서울특별시,강남구,개포동,,서울특별시 강남구 개포동 177 개포현대3차,분양,지역난방,33306.44,5,198.0,현대건설(주),현대건설(주),025725995,,아파트,서울특별시 강남구 개포로 409,위탁관리,계단식,19860331,0262485996,198,27194.512,0.0,54.0,36.0,108.0,27029.16,9,9,0,11,06323,37.4883239313325,127.061169470744
A13580002,개포우성8차,1168010300,서울특별시,강남구,개포동,,서울특별시 강남구 개포동 179 개포우성8차,분양,지역난방,26745.86,3,261.0,우성건설,영동전화국 주택조합,025767421,,아파트,서울특별시 강남구 개포로 411,위탁관리,혼합식,19870921,0262047421,261,26745.39,0.0,261.0,0.0,0.0,20759.85,9,9,1,14,06323,37.4885748916117,127.062319621466
A13580602,개포경남아파트,1168010300,서울특별시,강남구,개포동,,서울특별시 강남구 개포동 649 개포경남아파트,분양,지역난방,102480.0,9,678.0,경남건설,경남건설,025724400,,아파트,서울특별시 강남구 언주로 110,위탁관리,계단식,19840308,025724410,678,94971.66,0.0,3.0,387.0,288.0,92546.465,15,15,0,26,06317,37.4854059409863,127.054710026842
A13593901,개포자이아파트,1168010300,서울특별시,강남구,개포동,,서울특별시 강남구 개포동 12-2 개포자이아파트,분양,지역난방,60358.78,4,212.0,화엄건설(주),LG건설,024454721,test,아파트,서울특별시 강남구 개포로109길 69,자치관리,계단식,20040617,024454722,212,38614.46,0.0,0.0,84.0,128.0,32275.48,22,22,2,6,06334,37.4962923064311,127.076127258586
A13593908,SH공사대치1단지,1168010300,서울특별시,강남구,개포동,,서울특별시 강남구 개포동 12 SH공사대치1단지,임대,지역난방,73357.0,8,1623.0,SH공사,남강개발,024514000,happy.i-sh.co.kr/main.do?deptid=20167,아파트,서울특별시 강남구 개포로109길 5,위탁관리,복도식,19911120,0234113267,1623,67049.56,1623.0,0.0,0.0,0.0,46586.33,15,15,0,12,06335,37.4923220024104,127.074601198665
A13594007,대청,1168010300,서울특별시,강남구,개포동,,서울특별시 강남구 개포동 12 대청,분양,지역난방,56825.18,6,822.0,삼익건설,도시개발공사,024514535,,아파트,서울특별시 강남구 개포로109길 21,위탁관리,복도식,19921014,0222262317,822,56825.0,822.0,0.0,0.0,0.0,40402.1,15,15,0,6,06334,37.4956264931259,127.077191033018
A13599301,개포주공7단지,1168010300,서울특별시,강남구,개포동,,서울특별시 강남구 개포동 185 개포주공7단지,분양,지역난방,86506.7,8,900.0,주택공사,주택공사,024458909,,아파트,서울특별시 강남구 개포로 516,자치관리,복도식,19831026,0262538909,900,86391.0,180.0,720.0,0.0,0.0,62938.8,15,15,1,8,06330,37.4891406792843,127.070871480537
A13599303,개포주공6단지,1168010300,서울특별시,강남구,개포동,,서울특별시 강남구 개포동 185 개포주공6단지,분양,지역난방,94816.95,9,1060.0,현대건설(주),대한주택공사,024458907,,아파트,서울특별시 강남구 개포로 516,위탁관리,혼합식,19831026,024458906,1060,94577.76,220.0,840.0,0.0,0.0,73333.1,15,15,1,19,06330,37.4891406792843,127.070871480537
A13599402,개포주공5단지,1168010300,서울특별시,강남구,개포동,,서울특별시 강남구 개포동 187 개포주공5단지,분양,지역난방,93810.0,6,940.0,대한주택공사,대우건설,024458879,,아파트,서울특별시 강남구 삼성로4길 17,위탁관리,복도식,19831026,024456219,940,65959.9,190.0,750.0,0.0,0.0,65959.9,14,14,1,12,06329,37.4879144140576,127.06903483437
A40010008,한국감정원1,1168010300,서울특별시,강남구,개포동,,서울특별시 강남구 개포동 1169-10 한국감정원1,혼합,개별난방,180000.0,1,10.0,감정원,감정원,0212345678,,주상복합,,위탁관리,계단식,20180120,0212345678,6,555.0,2.0,8.0,0.0,0.0,641.96,11,5,2,150,,37.4724423339839,127.050823027579
A10020363,청담르엘,1168010400,서울특별시,강남구,청담동,,서울특별시 강남구 청담동 134-18 청담르엘,혼합,지역난방,262739.38,9,1261.0,(주)롯데건설,청담삼익아파트 주택재건축 정비사업조합,0269520630,,아파트,서울특별시 강남구 학동로 607,위탁관리,혼합식,20251031,0269520630,1261,152589.92,294.0,479.0,380.0,108.0,113164.32,35,35,4,0,,37.5217374176877,127.057998315761
A10020611,청담신원아침도시마인,1168010400,서울특별시,강남구,청담동,,서울특별시 강남구 청담동 122-35 청담신원아침도시마인,분양,개별난방,11539.347,1,89.0,신원종합개발(주),청담제일시장 재건축 사업조합,025160901,,도시형 생활주택(주상복합),서울특별시 강남구 도산대로85길 30,위탁관리,혼합식,20130917,025440901,89,6068.521,89.0,0.0,0.0,0.0,2805.1414,1,10,4,2,,37.526439666489,127.049680036198
A10021563,청담린든그로브아파트,1168010400,서울특별시,강남구,청담동,,서울특별시 강남구 청담동 67-1 청담린든그로브아파트,분양,지역난방,29156.0,5,114.0,코오롱글로벌,청담진흥빌라주택재건축조합,025418920,,아파트,서울특별시 강남구 학동로97길 51,위탁관리,계단식,20170829,025418919,114,17826.99,0.0,76.0,0.0,38.0,14170.3689,7,7,3,0,,37.5227272811717,127.053165071384
A10024186,청담우방아파트,1168010400,서울특별시,강남구,청담동,,서울특별시 강남구 청담동 43 청담우방아파트,분양,지역난방,17033.0,1,100.0,(주)우방,청담아파트B지구 재건축조합,025125435,,아파트,,자치관리,계단식,19991029,025125436,100,12228.32,29.0,17.0,54.0,0.0,9582.14,1,18,2,3,,37.5181117293329,127.043919011624
A10024640,청담2차e편한세상아파트,1168010400,서울특별시,강남구,청담동,,서울특별시 강남구 청담동 14 청담2차e편한세상아파트,분양,개별난방,23219.77,3,142.0,대림산업,대림산업,0234444611,,아파트,서울특별시 강남구 도산대로70길 25,위탁관리,계단식,20060427,0234444610,142,17559.53,0.0,40.0,100.0,2.0,14421.02,15,15,2,7,06063,37.5216951404856,127.045500413098
A10025280,청담아이파크아파트,1168010400,서울특별시,강남구,청담동,,서울특별시 강남구 청담동 130 청담아이파크아파트,분양,개별난방,20808.32,1,108.0,현대산업개발,현대산업개발,025181649,,아파트,서울특별시 강남구 영동대로142길 25,위탁관리,계단식,19921028,025428920,108,14796.0,0.0,0.0,108.0,0.0,11896.74,19,19,3,3,06075,37.5252558695976,127.055097277182
A10025755,청담신동아아파트,1168010400,서울특별시,강남구,청담동,,서울특별시 강남구 청담동 134-16 청담신동아아파트,분양,개별난방,13568.23,1,106.0,신동아건설,신동아건설,025435601,,아파트,서울특별시 강남구 학동로105길 30,위탁관리,계단식,19970220,025126129,106,13315.72,0.0,106.0,0.0,0.0,9003.64,14,14,2,4,06077,37.523005343183,127.058657907046
A13510001,청담삼성1차,1168010400,서울특별시,강남구,청담동,,서울특별시 강남구 청담동 33 청담삼성1차,분양,개별난방,20893.97,1,158.0,삼성건설,삼성물산,0234464486,청담삼성1차.apti.co.kr,아파트,서울특별시 강남구 삼성로133길 20,위탁관리,혼합식,19971219,0234464481,158,15138.6,70.0,88.0,0.0,0.0,11594.76,19,19,2,2,06068,37.5194542356183,127.047832809734
A13510002,청담휴먼스타빌,1168010400,서울특별시,강남구,청담동,,서울특별시 강남구 청담동 5-25 청담휴먼스타빌,분양,개별난방,17557.56,1,191.0,휴먼터치,휴먼터치,025560070,,주상복합,서울특별시 강남구 도산대로 454,자치관리(직영),계단식,20051021,025408870,191,15166.55,181.0,4.0,0.0,6.0,8044.17,27,27,8,3,06062,37.5236847892354,127.046056275002
A13510003,청담대우유로카운티,1168010400,서울특별시,강남구,청담동,,서울특별시 강남구 청담동 50-5 청담대우유로카운티,분양,지역난방,41998.28,4,196.0,(주)대우건설,(주)대우건설,025111220,청담대우유로카운티.apti.co.kr,아파트,서울특별시 강남구 도산대로92길 10,위탁관리,계단식,20040422,025111228,196,28533.48,0.0,1.0,155.0,40.0,24252.34,16,16,2,7,06070,37.5236832844506,127.049765767423
A13510005,청담삼성진흥,1168010400,서울특별시,강남구,청담동,,서울특별시 강남구 청담동 65 청담삼성진흥,분양,지역난방,97041.06,7,630.0,진흥기업(주),타임종합기술,025177887,,아파트,서울특별시 강남구 학동로87길 9,위탁관리,혼합식,19840718,0262577887,630,95504.125,0.0,2.0,242.0,386.0,92599.23,15,15,0,17,06074,37.520386138894,127.051691940473
A13510006,청담대림,1168010400,서울특별시,강남구,청담동,,서울특별시 강남구 청담동 30-33 청담대림,분양,개별난방,44037.57,4,271.0,대림산업,에코프렌드,0234426975,,아파트,서울특별시 강남구 학동로77길 27,위탁관리,계단식,20021230,0262039618,271,33443.99,0.0,152.0,119.0,0.0,27079.83,17,17,2,0,06067,37.5208848658812,127.047788927028
A13510007,청담자이,1168010400,서울특별시,강남구,청담동,,서울특별시 강남구 청담동 134-38 청담자이,혼합,지역난방,102809.375,5,708.0,GS건설,청담 한양아파트 주택재건축사업조합,025147022,WWW.청담자이.APTi.CO.KR,아파트,서울특별시 강남구 영동대로138길 12,위탁관리,계단식,20111021,025147024,708,63867.78,388.0,116.0,204.0,0.0,47130.198,35,35,2,19,06076,37.5241014728573,127.057249781197
A13510009,청담래미안로이뷰,1168010400,서울특별시,강남구,청담동,,서울특별시 강남구 청담동 134 청담래미안로이뷰,분양,개별난방,36357.65,1,177.0,삼성물산,청담두산리모델링조합,0234468781,,아파트,서울특별시 강남구 영동대로142길 16,위탁관리,계단식,19920131,0234468782,177,23990.084,0.0,0.0,177.0,0.0,19505.4,16,15,2,6,06076,37.5247603297912,127.056409185627
A13510102,청담현대3차,1168010400,서울특별시,강남구,청담동,,서울특별시 강남구 청담동 127-31 청담현대3차,분양,지역난방,52230.0,4,317.0,현대건설(주),현대건설(주),0234422826,,아파트,서울특별시 강남구 도산대로101길 29,위탁관리,혼합식,19990619,0234422827,317,37368.953,101.0,76.0,140.0,0.0,27849.15,24,24,2,9,06013,37.5270240644958,127.052978287839
A13510103,삼성청담공원,1168010400,서울특별시,강남구,청담동,,서울특별시 강남구 청담동 60 삼성청담공원,분양,지역난방,64721.1,8,391.0,삼성물산,삼성물산,025174158,scdp.co.kr,아파트,서울특별시 강남구 도산대로96길 39,위탁관리,혼합식,19990830,025174159,391,45778.87,75.0,86.0,230.0,0.0,36461.91,15,15,3,13,06070,37.5230042633715,127.050463180352
A13510201,청담삼환,1168010400,서울특별시,강남구,청담동,,서울특별시 강남구 청담동 10 청담삼환,분양,지역난방,23782.0,1,184.0,삼환기업(주),동일건축,025173047,,아파트,서울특별시 강남구 학동로77길 49,위탁관리,혼합식,19991130,025428996,184,19384.65,56.0,82.0,46.0,0.0,14942.72,16,16,1,5,06067,37.5221283395974,127.047566189072
A13510202,청담2차현대아파트,1168010400,서울특별시,강남구,청담동,,서울특별시 강남구 청담동 23 청담2차현대아파트,분양,지역난방,23748.0,2,214.0,현대산업개발,1,025459105,,아파트,서울특별시 강남구 선릉로 748,위탁관리,계단식,19880530,025459103,214,18190.0,0.0,214.0,0.0,0.0,18150.88,13,13,1,9,06065,37.5218378508926,127.041357725173
A13510203,청담래미안,1168010400,서울특별시,강남구,청담동,,서울특별시 강남구 청담동 42 청담래미안,분양,개별난방,36812.13,2,217.0,삼성물산(주),삼성물산(주),025163891,,아파트,서울특별시 강남구 학동로 405,위탁관리,혼합식,19991029,025163892,217,26625.44,51.0,58.0,108.0,0.0,20645.75,18,18,3,4,06069,37.5178177150654,127.04223600519
A10020826,아크로삼성,1168010500,서울특별시,강남구,삼성동,,서울특별시 강남구 삼성동 79 아크로삼성,분양,지역난방,109172.94,4,419.0,DL이엔씨,홍실아파트주택재건축정비사업조합,025419711,,아파트,서울특별시 강남구 영동대로128길 15,위탁관리,계단식,20250214,025419712,419,55163.11,0.0,0.0,371.0,48.0,43688.6,25,25,4,0,,37.5201571782093,127.059210304827
A10021856,삼성파크아파트,1168010500,서울특별시,강남구,삼성동,,서울특별시 강남구 삼성동 126- 삼성파크아파트,분양,개별난방,24165.0,1,114.0,세방기업(주),삼산아파트재건축조합,025561401,,아파트,서울특별시 강남구 삼성로99길 14,위탁관리,계단식,20011217,025661373,114,16515.95,0.0,0.0,114.0,0.0,12714.18,13,13,2,0,,37.5093032260179,127.053570300116
A10022130,삼성풍림2차아파트,1168010500,서울특별시,강남구,삼성동,,서울특별시 강남구 삼성동 104- 삼성풍림2차아파트,분양,개별난방,13818.0,1,112.0,풍림산업주식회사,삼성동연합재건축조합,025401248,,아파트,서울특별시 강남구 봉은사로105길 12-7,위탁관리,복도식,19981224,025401248,112,11513.95,56.0,3.0,53.0,0.0,8519.94,12,12,1,2,,37.5160235996074,127.06244887977
A10023020,삼성동 마에스트로,1168010500,서울특별시,강남구,삼성동,,서울특별시 강남구 삼성동 140-32 삼성동 마에스트로,임대,개별난방,16427.719,1,299.0,한미글로벌,선릉역 마에스트로 프로젝트 금,0220521152,https://삼성동마에스트로.apti.co.kr,주상복합,서울특별시 강남구 선릉로94길 15,위탁관리,복도식,20230731,0220521153,301,6665.3,299.0,0.0,0.0,0.0,6665.051,14,14,5,2,06161,37.5062773479745,127.049731817125
A10023939,삼성석탑아파트,1168010500,서울특별시,강남구,삼성동,,서울특별시 강남구 삼성동 3-3 삼성석탑아파트,분양,개별난방,16815.1,1,139.0,석탑건설,석탑건설,0234426104,,아파트,,위탁관리,혼합식,19960408,0234426181,139,13200.71,65.0,74.0,0.0,0.0,10142.07,20,20,2,3,,37.51741540077,127.044965038614
A10024131,래미안 라클래시,1168010500,서울특별시,강남구,삼성동,,서울특별시 강남구 삼성동 19-4 래미안 라클래시,혼합,지역난방,124879.52,7,679.0,삼성물산,상아아파트2차 주택재건축정비사업조합,025183318,,아파트,서울특별시 강남구 삼성로 651,위탁관리,계단식,20210917,025183319,679,74657.7,164.0,372.0,112.0,31.0,55529.9,35,35,3,19,06091,37.5183513056476,127.050036535644
A10024435,삼성동대성유니드,1168010500,서울특별시,강남구,삼성동,,서울특별시 강남구 삼성동 129 삼성동대성유니드,분양,개별난방,8502.32,1,59.0,대성산업,대성산업,025574557,,아파트,서울특별시 강남구 테헤란로77길 26,자치관리(직영),계단식,20040701,025574557,59,361340.78,0.0,59.0,0.0,0.0,4931.91,9,9,1,0,06157,37.5085174233038,127.054046126104
A10024819,삼성동한일아파트,1168010500,서울특별시,강남구,삼성동,,서울특별시 강남구 삼성동 48 삼성동한일아파트,분양,개별난방,19450.0,1,127.0,220-81-22460,220-88-02594,025494181,,아파트,서울특별시 강남구 봉은사로73길 23,위탁관리,혼합식,20011227,025497181,127,12805.94,26.0,101.0,0.0,0.0,9123.13,15,15,2,0,06096,37.5139474971867,127.049973533688
A10026350,삼성동센트럴아이파크,1168010500,서울특별시,강남구,삼성동,,서울특별시 강남구 삼성동 188 삼성동센트럴아이파크,혼합,지역난방,74101.64,4,416.0,현대산업개발,상아3차아파트주택재건축정비사업조합,025415951,,아파트,서울특별시 강남구 삼성로 629,위탁관리,계단식,20180330,025415953,416,46756.9,115.0,204.0,75.0,22.0,34877.17,31,31,3,11,06094,37.5157864094542,127.051319226082
A10026934,삼성동롯데캐슬킹덤아파트,1168010500,서울특별시,강남구,삼성동,,서울특별시 강남구 삼성동 43 삼성동롯데캐슬킹덤아파트,분양,개별난방,32570.0,3,118.0,롯데건설,영동삼익아파트재건축조합,025184328,,아파트,서울특별시 강남구 선릉로112길 53,위탁관리,계단식,20051129,025184329,118,21223.52,0.0,0.0,44.0,74.0,17633.86,13,13,2,0,06097,37.513436129267,127.047692784414
A13509001,삼성현대,1168010500,서울특별시,강남구,삼성동,,서울특별시 강남구 삼성동 6 삼성현대,분양,개별난방,28438.47,1,198.0,현대산업개발,동남아재건축조합,0234434167,,아파트,서울특별시 강남구 학동로64길 14,위탁관리,혼합식,19990416,0234434168,198,21300.75,89.0,60.0,49.0,0.0,15854.423,19,19,0,4,06089,37.5167185896008,127.044423026678
A13509003,삼성풍림아파트1차,1168010500,서울특별시,강남구,삼성동,,서울특별시 강남구 삼성동 106 삼성풍림아파트1차,분양,개별난방,25899.0,1,252.0,풍림건설,풍림건설,0234432987,,아파트,서울특별시 강남구 영동대로112길 15,위탁관리,혼합식,19980727,0234430299,252,25898.84,123.0,75.0,54.0,0.0,19766.28,19,19,2,5,06082,37.5156029612101,127.061858870437
A13509004,삼성한솔,1168010500,서울특별시,강남구,삼성동,,서울특별시 강남구 삼성동 4-6 삼성한솔,분양,개별난방,38063.5,2,263.0,한솔건설,한솔건설,025166752,,아파트,서울특별시 강남구 학동로64길 7,위탁관리,복도식,19981116,025166786,263,27988.83,114.0,89.0,60.0,0.0,20736.68,19,19,2,0,06089,37.5176478585343,127.045438795789
A13509005,삼성래미안2차,1168010500,서울특별시,강남구,삼성동,,서울특별시 강남구 삼성동 7-3 삼성래미안2차,분양,지역난방,63606.8,8,275.0,삼성,삼성,025455512,,아파트,서울특별시 강남구 선릉로130길 20,위탁관리,계단식,20070525,025455613,275,40608.05,0.0,46.0,196.0,33.0,31921.68,24,24,2,10,06088,37.5156660777991,127.043343754852
A13509006,삼성서광,1168010500,서울특별시,강남구,삼성동,,서울특별시 강남구 삼성동 2 삼성서광,분양,개별난방,36837.0,2,304.0,(주)서광건설 산업,삼성동 지역 주택조합 아파트,025114838,,아파트,서울특별시 강남구 선릉로130길 19,위탁관리,계단식,19981106,025114830,304,28528.918,152.0,152.0,0.0,0.0,21910.35,20,20,3,10,06088,37.5170321477204,127.042937103599
A13509007,삼성롯데,1168010500,서울특별시,강남구,삼성동,,서울특별시 강남구 삼성동 17 삼성롯데,분양,지역난방,52550.67,3,339.0,롯데건설,롯데건설,0234430091,,아파트,서울특별시 강남구 학동로 432,위탁관리,혼합식,20000415,0234434411,339,37643.45,99.0,84.0,156.0,0.0,27299.4,20,20,0,8,06091,37.505764798611686,127.05175378791695
A13509009,아이파크삼성동,1168010500,서울특별시,강남구,삼성동,,서울특별시 강남구 삼성동 87 아이파크삼성동,분양,지역난방,144635.69,3,449.0,현대산업개발,현대산업개발,0234439351,,아파트,서울특별시 강남구 영동대로 640,위탁관리,계단식,20040318,0234439353,449,94247.26,0.0,0.0,0.0,449.0,75409.255,46,46,4,9,06080,37.5183982498328,127.059549285144
A13509010,삼성롯데캐슬프레미어,1168010500,서울특별시,강남구,삼성동,,서울특별시 강남구 삼성동 11 삼성롯데캐슬프레미어,분양,지역난방,148987.88,11,713.0,롯데건설,해청재건축조합,025117208,,아파트,서울특별시 강남구 선릉로126길 22,위탁관리,계단식,20070326,025117649,713,103545.94,0.0,158.0,415.0,140.0,86523.037,22,22,2,19,06092,37.51625004573,127.045193621733
A13509012,삼성힐스테이트1단지,1168010500,서울특별시,강남구,삼성동,,서울특별시 강남구 삼성동 16-2 삼성힐스테이트1단지,분양,지역난방,178491.0,17,1144.0,현대건설(주),영동차관아파트재건축정비사업조합,025410128,cafe.daum.net/ssdh1,아파트,서울특별시 강남구 학동로68길 29,위탁관리,계단식,20081210,025410130,1144,116666.37,230.0,744.0,170.0,0.0,89308.086,23,23,0,2,06090,37.5165602922999,127.04718779295
A13509013,래미안삼성1차(105),1168010500,서울특별시,강남구,삼성동,,서울특별시 강남구 삼성동 105 래미안삼성1차(105),분양,개별난방,26155.0,4,112.0,삼성물산(주),재건축조합,025454565,,아파트,서울특별시 강남구 영동대로114길 56,위탁관리,계단식,20051219,025454365,112,18505.72,0.0,25.0,35.0,52.0,15766.5,15,15,1,5,06082,37.5166283511236,127.064134113929
A13509014,래미안삼성1차103단지,1168010500,서울특별시,강남구,삼성동,,서울특별시 강남구 삼성동 103-22 래미안삼성1차103단지,분양,개별난방,26889.0,3,133.0,삼성물산,삼성물산,025450542,,아파트,서울특별시 강남구 영동대로114길 56,위탁관리,계단식,20060427,025450543,133,17911.8,0.0,38.0,65.0,30.0,14829.43,15,15,2,0,06082,37.5166283511236,127.064134113929
A13509015,동일파크스위트,1168010500,서울특별시,강남구,삼성동,,서울특별시 강남구 삼성동 100-14 동일파크스위트,,,0.0,1,36.0,,,025117908,,아파트,서울특별시 강남구 영동대로112길 67,기타,,,025117908,0,0.0,0.0,0.0,0.0,36.0,5652.24,1,13,0,0,06083,37.516216740536,127.065830359604
A13509101,삼성청구타운,1168010500,서울특별시,강남구,삼성동,,서울특별시 강남구 삼성동 78-4 삼성청구타운,분양,개별난방,20121.29,3,167.0,청구,청구,025164338,,아파트,서울특별시 강남구 영동대로128길 5,위탁관리,계단식,19920515,025164339,167,19322.318,0.0,167.0,0.0,0.0,14193.33,15,15,1,7,06078,37.520148872145,127.058156132905
A13550701,삼성동중앙하이츠빌리지,1168010500,서울특별시,강남구,삼성동,,서울특별시 강남구 삼성동 14-1 삼성동중앙하이츠빌리지,분양,지역난방,63733.0,5,298.0,중앙건설,중앙건설,025111845,,아파트,서울특별시 강남구 학동로68길 30,위탁관리,계단식,20041229,025111846,298,42856.188,60.0,90.0,0.0,148.0,33866.26,22,22,3,7,06092,37.5165797525495,127.046509909248
A13570501,삼성동힐스테이트2단지,1168010500,서울특별시,강남구,삼성동,,서울특별시 강남구 삼성동 50 삼성동힐스테이트2단지,분양,지역난방,147738.62,12,926.0,현대건설,조합,025111385,,아파트,서울특별시 강남구 삼성로111길 8,위탁관리,혼합식,20081210,025111386,926,91411.34,186.0,740.0,0.0,0.0,69975.804,23,23,3,21,06095,37.5147315113728,127.051739053534
A13570502,래미안삼성1차104단지,1168010500,서울특별시,강남구,삼성동,,서울특별시 강남구 삼성동 104-10 래미안삼성1차104단지,분양,개별난방,13438.96,1,77.0,삼성물산,삼성물산,025450542,,아파트,서울특별시 강남구 영동대로114길 56,위탁관리,계단식,20051229,025450543,77,9261.08,0.0,49.0,27.0,1.0,7409.69,15,15,2,0,06082,37.5166283511236,127.064134113929
A13587603,선릉에클라트,1168010500,서울특별시,강남구,삼성동,,서울특별시 강남구 삼성동 142-3 선릉에클라트,분양,개별난방,45274.22,1,293.0,LG건설,(주)규형디앤씨,0234529958,,주상복합,서울특별시 강남구 테헤란로63길 12,자치관리,복도식,20040622,0234521758,293,11153.55,293.0,0.0,0.0,0.0,11153.55,15,15,4,0,06160,37.5061147390354,127.050947634813
A10020281,현대썬앤빌테헤란,1168010600,서울특별시,강남구,대치동,,서울특별시 강남구 대치동 894- 현대썬앤빌테헤란,분양,개별난방,8404.87,1,49.0,(주)현대BS&C,(주)시티갤럭시,025586667,,도시형 생활주택(주상복합),서울특별시 강남구 삼성로85길 33,자치관리,계단식,20161020,,49,4566.42,49.0,0.0,0.0,0.0,1888.79,8,7,3,0,,37.5042894547839,127.054833280473
A10020486,디에이치 대치 에델루이아파트,1168010600,서울특별시,강남구,대치동,,서울특별시 강남구 대치동 964 디에이치 대치 에델루이아파트,혼합,지역난방,55880.75,8,282.0,현대건설,대치동 구마을 제3지구 주택재건축 정비사업 조합,025016658,,아파트,서울특별시 강남구 역삼로 532,위탁관리,계단식,20250808,025016659,282,30232.49,0.0,97.0,151.0,34.0,30232.49,16,0,4,14,,37.5036188904554,127.060972834208
A10023162,대치푸르지오써밋,1168010600,서울특별시,강남구,대치동,,서울특별시 강남구 대치동 963 대치푸르지오써밋,혼합,지역난방,90601.59,9,489.0,대우건설(주),대치동 제1지구 주택재건축정비사업조합,025569711,,아파트,서울특별시 강남구 삼성로72길 12,위탁관리,계단식,20230605,025569714,489,39350.54,170.0,220.0,97.0,2.0,39350.09,18,18,3,23,06186,37.5022048675635,127.060593049193
A10024102,대치르엘,1168010600,서울특별시,강남구,대치동,,서울특별시 강남구 대치동 977 대치르엘,혼합,개별난방,46659.0,6,273.0,롯데건설,대치제2지구재건축조합,025640977,,아파트,서울특별시 강남구 도곡로93길 23,위탁관리,계단식,20210917,025640978,273,26270.598,107.0,164.0,2.0,0.0,39483.5626,15,15,3,13,06190,37.5013575539498,127.063355872072
A10024799,대치1차현대아파트,1168010600,서울특별시,강남구,대치동,,서울특별시 강남구 대치동 992 대치1차현대아파트,분양,중앙난방,13420.37,1,120.0,현대산업개발,현대산업개발,025562398,,아파트,서울특별시 강남구 영동대로57길 28,위탁관리,계단식,19900419,0262842398,120,10121.7,0.0,120.0,0.0,0.0,10121.7,15,15,1,4,06282,37.4999253286579,127.065316086082
A10024815,롯데캐슬리베아파트,1168010600,서울특별시,강남구,대치동,,서울특별시 강남구 대치동 1025 롯데캐슬리베아파트,분양,지역난방,29743.0,2,144.0,롯데건설,롯데건설,025571154,,아파트,서울특별시 강남구 도곡로 404,위탁관리,계단식,20080222,025571139,144,21421.44,0.0,0.0,144.0,0.0,17436.8736,18,18,0,0,06278,37.4961855830196,127.053553804427
A10024821,대치롯데캐슬아파트,1168010600,서울특별시,강남구,대치동,,서울특별시 강남구 대치동 893 대치롯데캐슬아파트,분양,지역난방,28178.0,3,142.0,주)롯데건설,대치동 동아2차아파트 재건축조합,025694694,,아파트,서울특별시 강남구 삼성로85길 11,위탁관리,계단식,20020829,025667009,142,20185.09,0.0,16.0,111.0,15.0,15531.47,0,22,2,0,06195,37.5045993053356,127.056186481052
A10025646,대치풍림아이원아파트 1.2단지,1168010600,서울특별시,강남구,대치동,,서울특별시 강남구 대치동 910-6 대치풍림아이원아파트 1.2단지,분양,개별난방,14047.58,5,19.0,풍림건설,풍림건설,025629735,,아파트,서울특별시 강남구 역삼로 436,위탁관리,계단식,20030828,025629735,90,14047.58,0.0,0.0,11.0,8.0,2590.96,7,7,1,5,06200,37.5016231251359,127.054798533858
A10026526,대치풍림아이원3.4차아파트,1168010600,서울특별시,강남구,대치동,,서울특별시 강남구 대치동 1007-1 대치풍림아이원3.4차아파트,분양,개별난방,14606.0,2,75.0,풍림산업,풍림산업,025531870,,아파트,서울특별시 강남구 영동대로72길 10,자치관리,계단식,20040630,025531871,75,10075.0,0.0,0.0,75.0,0.0,8440.75,15,15,2,4,06177,37.5046572169763,127.066789559604
A10026924,대치SK VIEW,1168010600,서울특별시,강남구,대치동,,서울특별시 강남구 대치동 1029 대치SK VIEW,분양,지역난방,49011.598,4,239.0,에스케이건설(주),대치국제아파트주택재건축정비사업조합,025674243,,아파트,서울특별시 강남구 삼성로51길 25,위탁관리,계단식,20170620,025674244,239,28926.182,4.0,104.0,131.0,0.0,22079.96,20,20,2,8,06280,37.4959078867351,127.060999811122
A10027800,래미안 대치 팰리스,1168010600,서울특별시,강남구,대치동,,서울특별시 강남구 대치동 633 래미안 대치 팰리스,혼합,지역난방,350168.38,17,1608.0,삼성물산,청실아파트 재건축조합,025673303,www.palaceapt.co.kr,아파트,서울특별시 강남구 삼성로57길 37-3,위탁관리,계단식,20150922,025583303,1608,203390.98,54.0,447.0,1011.0,96.0,154173.87,35,35,4,0,06279,37.4971777651193,127.058324113807
A13528001,대치대우아이빌4차,1168010600,서울특별시,강남구,대치동,,서울특별시 강남구 대치동 891-23 대치대우아이빌4차,분양,개별난방,25696.74,1,210.0,대우건설,"맘모스산업개발,k2Enc",025658701,,주상복합,서울특별시 강남구 선릉로90길 56,위탁관리,복도식,20040223,025658702,210,9534.3,210.0,0.0,0.0,0.0,7303.65,11,11,3,4,06194,37.5050311726932,127.053831329394
A13528003,대치삼성,1168010600,서울특별시,강남구,대치동,,서울특별시 강남구 대치동 1014-3 대치삼성,분양,지역난방,142506.5,14,960.0,삼성물산,삼성물산,025690020,대치삼성.apti.co.kr,아파트,서울특별시 강남구 도곡로78길 22,위탁관리,혼합식,20000731,0234532534,960,83158.74,249.0,192.0,519.0,0.0,83135.34,25,25,2,25,06279,37.5068423752996,127.059463422938
A13528004,대치미도맨션,1168010600,서울특별시,강남구,대치동,,서울특별시 강남구 대치동 511 대치미도맨션,분양,지역난방,362381.0,21,2436.0,한보주택(주),한보주택(주),025572954,www.대치미도.com,아파트,서울특별시 강남구 삼성로 150,자치관리,혼합식,19831128,025522843,2436,362365.1,0.0,616.0,1344.0,476.0,300674.92,14,14,1,73,06288,37.4956953356085,127.068564672209
A13528005,테헤란로대우아이빌,1168010600,서울특별시,강남구,대치동,,서울특별시 강남구 대치동 891-6 테헤란로대우아이빌,분양,개별난방,24850.46,1,372.0,대우건설,프리즘(주),025626736,,주상복합,서울특별시 강남구 테헤란로 428,위탁관리,복도식,20040429,025626737,434,19812.05,344.0,28.0,0.0,0.0,15149.25,26,26,7,4,06194,37.5056919892348,127.054183199967
A13528007,래미안대치하이스턴,1168010600,서울특별시,강남구,대치동,,서울특별시 강남구 대치동 985 래미안대치하이스턴,분양,지역난방,69009.08,5,354.0,삼성물산주식회사,우성2차리모델링주택조합,025012372,,아파트,서울특별시 강남구 도곡로93길 12,위탁관리,계단식,19891206,025012373,354,50474.84,0.0,0.0,354.0,0.0,39078.06,16,16,2,0,06189,37.5015123626981,127.065474666225
A13528008,대치효성,1168010600,서울특별시,강남구,대치동,,서울특별시 강남구 대치동 988-4 대치효성,,,0.0,1,83.0,,,,,아파트,서울특별시 강남구 삼성로64길 12,기타,,,,0,0.0,34.0,49.0,0.0,0.0,6190.34,1,17,0,0,06191,37.4999104264275,127.06117530222
A13528102,대치아이파크,1168010600,서울특별시,강남구,대치동,,서울특별시 강남구 대치동 888 대치아이파크,분양,지역난방,147441.7,11,768.0,현대산업개발,대치도곡제2아파트재건축조합,025636969,,아파트,서울특별시 강남구 선릉로 222,위탁관리,계단식,20080603,025394114,768,99275.76,150.0,238.0,236.0,144.0,78559.1,25,25,2,0,06278,37.4958669797852,127.054749094366
A13528103,대치동부센트레빌,1168010600,서울특별시,강남구,대치동,,서울특별시 강남구 대치동 670 대치동부센트레빌,분양,지역난방,212324.7,7,805.0,동부건설,대치주공고층아파트재건축조합,025672232,,아파트,서울특별시 강남구 선릉로 206,위탁관리,계단식,20050128,025673199,805,142942.4,0.0,0.0,198.0,607.0,116079.77,29,29,2,21,06281,37.4914644228405,127.055641674701
A13528105,개포1차2차우성,1168010600,서울특별시,강남구,대치동,,서울특별시 강남구 대치동 500- 개포1차2차우성,분양,중앙난방,174159.47,14,1140.0,우성건설,우성건설,025564554,www.개포1-2차우성.net/,아파트,서울특별시 강남구 선릉로 120,위탁관리,계단식,19831217,025560131,1140,163240.2,0.0,330.0,600.0,210.0,139828.2,15,15,0,38,06289,37.4915930435874,127.057979748729
A13583402,대치쌍용2차,1168010600,서울특별시,강남구,대치동,,서울특별시 강남구 대치동 65 대치쌍용2차,분양,지역난방,47180.0,4,364.0,쌍용건설,쌍용건설,025569768,,아파트,서울특별시 강남구 영동대로 220,위탁관리,계단식,19831130,0262418636,364,47180.0,0.0,140.0,224.0,0.0,38878.84,14,14,0,13,06285,37.4999239843615,127.070627671886
A13583403,대치우성1차아파트,1168010600,서울특별시,강남구,대치동,,서울특별시 강남구 대치동 63 대치우성1차아파트,분양,지역난방,57097.18,6,476.0,(주)우성건설,(주)우성건설,025567244,,아파트,서울특별시 강남구 영동대로 230,위탁관리,계단식,19840127,025655560,476,57097.18,0.0,224.0,252.0,0.0,48099.24,14,14,1,17,06285,37.5009601493207,127.068471209933
A13583404,쌍용대치1차,1168010600,서울특별시,강남구,대치동,,서울특별시 강남구 대치동 66 쌍용대치1차,분양,지역난방,86082.54,5,630.0,쌍용건설,쌍용건설,025627908,,아파트,서울특별시 강남구 영동대로 210,위탁관리,계단식,19830307,025620420,630,86082.54,0.0,270.0,240.0,120.0,71144.4,15,15,0,21,06286,37.4988556676427,127.071367051995
A13583507,은마,1168010600,서울특별시,강남구,대치동,,서울특별시 강남구 대치동 316 은마,분양,지역난방,504698.0,28,4424.0,한보,한보,025677608,,아파트,서울특별시 강남구 삼성로 212,위탁관리,복도식,19790830,025613140,4424,470731.53,0.0,4424.0,0.0,0.0,353088.96,14,14,0,42,06284,37.4996157705058,127.065915414443
A13583604,대치선경,1168010600,서울특별시,강남구,대치동,,서울특별시 강남구 대치동 506 대치선경,분양,중앙난방,148926.3,12,1034.0,선경건설,선경건설,025526717,dcskapt.com,아파트,서울특별시 강남구 삼성로 151,위탁관리,계단식,19831212,025576716,1034,148926.0,0.0,260.0,348.0,426.0,127404.64,15,15,0,36,06291,37.493154981993,127.062999980103
A13583701,대치현대,1168010600,서울특별시,강남구,대치동,,서울특별시 강남구 대치동 974 대치현대,분양,지역난방,91401.35,8,630.0,현대건설(주),신해청재건축조합,025399077,대치현대.apti.co.kr,아파트,서울특별시 강남구 삼성로64길 5,위탁관리,혼합식,19990614,025688620,630,67051.73,286.0,203.0,141.0,0.0,49312.64,24,24,3,15,06191,37.5004474963781,127.060513822972
A13584101,대치포스코더샵,1168010600,서울특별시,강남구,대치동,,서울특별시 강남구 대치동 902 대치포스코더샵,분양,지역난방,72318.86,4,276.0,포스코건설,동아1차재건축조합,025662220,대치포스코더샵.apti.co.kr,아파트,서울특별시 강남구 삼성로 417,위탁관리,계단식,20040930,0234523764,276,51829.2,0.0,0.0,0.0,276.0,41857.92,22,22,2,7,06195,37.5045959726835,127.057495005511
A10024029,신사삼성래미안아파트,1168010700,서울특별시,강남구,신사동,,서울특별시 강남구 신사동 506-9 신사삼성래미안아파트,혼합,,0.0,1,63.0,,,025121973,,아파트,,기타,,20081006,,0,0.0,0.0,63.0,0.0,0.0,10696.14,1,12,0,0,,37.5201049771688,127.019620204079
A10024805,압구정대원칸타빌아파트,1168010700,서울특별시,강남구,신사동,,서울특별시 강남구 신사동 659 압구정대원칸타빌아파트,분양,개별난방,20723.139,2,130.0,(주)대원,(주)대원칸타빌,025169557,,아파트,서울특별시 강남구 압구정로48길 15,자치관리(직영),혼합식,20010720,025151169,130,14772.31,33.0,38.0,59.0,0.0,11378.73,17,17,2,6,06018,37.5275289588427,127.037245042224
A10024814,로데오현대아파트,1168010700,서울특별시,강남구,신사동,,서울특별시 강남구 신사동 658 로데오현대아파트,분양,지역난방,23950.41,1,139.0,고려산업개발(주),신사동 한영아파트 1지구 재건축조합,025448858,없음,주상복합,서울특별시 강남구 압구정로50길 28,자치관리,혼합식,19981116,025467447,142,10758.76,48.0,27.0,64.0,0.0,10758.76,17,17,2,5,06018,37.5266478506594,127.037303318538
A10028094,압구정하이츠파크,1168010700,서울특별시,강남구,신사동,,서울특별시 강남구 신사동 632 압구정하이츠파크,분양,개별난방,31355.217,2,86.0,중앙건설,중앙건설,025146373,,아파트,서울특별시 강남구 압구정로42길 78,자치관리,계단식,20040420,025146374,86,21917.354,0.0,0.0,0.0,86.0,17299.88,24,24,2,2,06020,37.5240486607851,127.033632106831
A10020220,펜트힐 캐스케이드,1168010800,서울특별시,강남구,논현동,,서울특별시 강남구 논현동 106- 펜트힐 캐스케이드,분양,중앙난방,13651.948,1,130.0,롯데건설(주),(주)유림,025179485,,주상복합,서울특별시 강남구 언주로 720,위탁관리,복도식,20230228,025179487,130,13651.948,130.0,0.0,0.0,0.0,5799.24,18,18,7,4,,37.5180738951162,127.035895495721
A10021034,브라이튼N40,1168010800,서울특별시,강남구,논현동,,서울특별시 강남구 논현동 40- 브라이튼N40,분양,개별난방+기타,42945.863,1,148.0,(주)포스코건설,(주)신영,025450148,,아파트,서울특별시 강남구 논현로131길 44,위탁관리,계단식,20220610,025460148,148,23487.502,0.0,33.0,57.0,58.0,19477.0066,1,10,0,0,,37.5144192788413,127.026160285575
A10022330,논현우민아파트,1168010800,서울특별시,강남구,논현동,,서울특별시 강남구 논현동 107-44 논현우민아파트,분양,개별난방,0.0,1,70.0,우민산업개발(주),우민산업개발(주),025172342,,,서울특별시 강남구 언주로136길 21,위탁관리,계단식,20020812,025172343,70,5259.32,0.0,70.0,0.0,0.0,5259.874,0,6,0,1,,37.5178497131317,127.03738750871
A10022476,논현 e편한세상,1168010800,서울특별시,강남구,논현동,,서울특별시 강남구 논현동 195-1 논현 e편한세상,분양,개별난방,0.0,1,63.0,삼호,삼우 남서울 재건축 조합,025120776,,,서울특별시 강남구 봉은사로11길 12,위탁관리,복도식,20050720,025120825,63,6235.131,0.0,31.0,32.0,0.0,6235.1307,11,11,2,0,,37.5067377896607,127.029135069693
A10023129,리스트강남,1168010800,서울특별시,강남구,논현동,,서울특별시 강남구 논현동 202-7 리스트강남,임대,중앙난방,17532.39,1,297.0,동원건설,(주)브이홀딩스,025426114,www.listgangnam.co.kr,아파트,서울특별시 강남구 봉은사로 125,위탁관리,복도식,20220406,025426114,297,13510.38,297.0,0.0,0.0,0.0,5297.74,15,15,6,1,06120,37.5057598874461,127.027426000452
A10023245,선정릉역 모아엘가퍼스트홈,1168010800,서울특별시,강남구,논현동,,서울특별시 강남구 논현동 278-4 선정릉역 모아엘가퍼스트홈,임대,개별난방,18986.0,1,283.0,혜림건설(주),(주)삼조디앤씨,025184997,,주상복합,,위탁관리,복도식,20230113,025184999,283,8939.08,283.0,0.0,0.0,0.0,5402.02,15,15,6,5,06103,37.5105620922653,127.043036549402
A10024035,강남파라곤,1168010800,서울특별시,강남구,논현동,,서울특별시 강남구 논현동 241-1 강남파라곤,분양,개별난방,40008.92,1,58.0,동양건설산업(주),(주)SG개발,0234433013,,,,위탁관리,계단식,20070130,025465686,200,9415.52,0.0,20.0,32.0,6.0,12959.56,20,15,6,6,,37.5165402749359,127.04016223452
A10024457,논현두산2차아파트,1168010800,서울특별시,강남구,논현동,,서울특별시 강남구 논현동 258 논현두산2차아파트,분양,개별난방,15036.0,2,136.0,두산산업개발(주),두산산업개발(주),025472391,,아파트,서울특별시 강남구 언주로122길 25,위탁관리,계단식,20040630,,136,15035.5,0.0,108.0,28.0,0.0,11817.764,14,14,2,7,06101,37.5128106920375,127.038440301401
A10024501,논현 기린힐스,1168010800,서울특별시,강남구,논현동,,서울특별시 강남구 논현동 130-9 논현 기린힐스,임대,개별난방,18561.23,1,249.0,대림건설,기린건축,025124632,,아파트,서울특별시 강남구 논현로 661,위탁관리,복도식,20201030,025124631,259,14888.25,249.0,0.0,0.0,0.0,4600.56,15,15,0,4,06112,37.5129164368335,127.030876297545
A13501001,동양파라곤,1168010800,서울특별시,강남구,논현동,,서울특별시 강남구 논현동 245 동양파라곤,분양,개별난방,70291.12,4,203.0,동양고속건설주식회사,동양고속건설주식회사,025402528,,아파트,서울특별시 강남구 언주로130길 30,위탁관리,계단식,20040602,025402527,203,42833.05,0.0,0.0,0.0,203.0,35547.31,16,16,3,8,06098,37.5150856927028,127.038268406315
A13501002,마일스디오빌,1168010800,서울특별시,강남구,논현동,,서울특별시 강남구 논현동 58-2 마일스디오빌,분양,개별난방,21243.52,1,260.0,대우건설,대우건설,025456564,,주상복합,서울특별시 강남구 학동로 165,위탁관리,복도식,20041126,025456531,260,12033.06,260.0,0.0,0.0,0.0,9435.4,15,15,4,3,06046,37.5138611699241,127.02897846584
A13501004,논현신동아,1168010800,서울특별시,강남구,논현동,,서울특별시 강남구 논현동 22 논현신동아,분양,개별난방,58817.0,6,644.0,신동아건설,논현동공무원아파트재건축조합,025147861,,아파트,서울특별시 강남구 강남대로146길 28,위탁관리,혼합식,19970704,025147874,644,58768.27,273.0,219.0,152.0,0.0,45646.06,13,13,3,20,06043,37.5150254952533,127.023030453954
A13501005,논현두산위브1단지,1168010800,서울특별시,강남구,논현동,,서울특별시 강남구 논현동 252-1 논현두산위브1단지,분양,개별난방,22970.43,2,130.0,두산건설,양우재건축조합 아파트,025116834,,아파트,서울특별시 강남구 학동로46길 38,위탁관리,계단식,20040630,025116834,130,14733.15,0.0,108.0,22.0,0.0,11621.9,14,14,2,7,06101,37.5133151646136,127.038439089707
A13501006,아크로힐스논현,1168010800,서울특별시,강남구,논현동,,서울특별시 강남구 논현동 276 아크로힐스논현,혼합,지역난방,74812.0,4,368.0,대림산업(주),경복아파트주택재건축정비사업조합,025119585,,주상복합,서울특별시 강남구 언주로 604,위탁관리,기타,20141208,025119584,368,33208.0,34.0,222.0,112.0,0.0,33279.96,30,30,3,10,06102,37.5095303215604,127.038421201117
A13501007,논현쌍용,1168010800,서울특별시,강남구,논현동,,서울특별시 강남구 논현동 103 논현쌍용,분양,개별난방,14387.87,1,111.0,남광토건,학동연립재건축조합,025163310,,아파트,서울특별시 강남구 도산대로50길 43,자치관리,복도식,19960724,0234443310,111,8108.13,47.0,64.0,0.0,0.0,8108.13,12,12,2,0,06056,37.5197676154577,127.037868657658
A13501008,거평,1168010800,서울특별시,강남구,논현동,,서울특별시 강남구 논현동 196 거평,분양,개별난방,8905.0,1,113.0,거평건설,거평건설,0234440353,,아파트,,자치관리,복도식,19960903,0234440355,113,8904.504,113.0,0.0,0.0,0.0,4125.675,1,11,3,2,,37.5063234128444,127.027654780001
A13572601,동화히스토리,1168010800,서울특별시,강남구,논현동,,서울특별시 강남구 논현동 122-8 동화히스토리,임대,개별난방,21747.54,1,236.0,한신공영개발(주),동화상가(주),025459612,,주상복합,서울특별시 강남구 학동로4길 15,자치관리,복도식,20120817,025459613,236,6750.76,236.0,0.0,0.0,0.0,6738.76,11,11,0,3,06110,37.5105152390861,127.023536119994
A13582002,논현동현,1168010800,서울특별시,강남구,논현동,,서울특별시 강남구 논현동 105 논현동현,분양,지역난방,69396.0,6,548.0,동산토건(주),동산토건(주),025455187,,아파트,서울특별시 강남구 언주로146길 18,자치관리,계단식,19850803,025455703,549,68130.41,0.0,380.0,120.0,48.0,53853.76,14,14,0,21,06057,37.5202259846506,127.037495479745
A13583301,논현동부센트레빌,1168010800,서울특별시,강남구,논현동,,서울특별시 강남구 논현동 275 논현동부센트레빌,분양,개별난방,30443.0,4,160.0,동부건설,양지아파트재건축조합,0262416835,,아파트,서울특별시 강남구 언주로116길 6,위탁관리,계단식,20031224,025426835,160,19496.8,0.0,76.0,84.0,0.0,15710.4068,23,23,3,5,06102,37.5104798359114,127.037183296518
A13511001,압구정미성1차,1168011000,서울특별시,강남구,압구정동,,서울특별시 강남구 압구정동 414 압구정미성1차,분양,지역난방,72316.09,3,322.0,라이프주택,라이프,025435719,,아파트,서울특별시 강남구 압구정로11길 17,자치관리,혼합식,19821118,025412814,322,72316.09,0.0,1.0,125.0,196.0,45701.92,14,14,1,9,06000,37.5255813601835,127.020161146724
A13511003,압구정미성2차,1168011000,서울특별시,강남구,압구정동,,서울특별시 강남구 압구정동 397 압구정미성2차,분양,지역난방,131841.0,9,911.0,라이프주택,라이프주택,025426530,,아파트,서울특별시 강남구 압구정로 113,자치관리,혼합식,19871205,025468277,911,128756.56,0.0,459.0,180.0,272.0,93827.8,17,17,1,20,06000,37.5244043008813,127.018445606778
A13511004,압구정신현대,1168011000,서울특별시,강남구,압구정동,,서울특별시 강남구 압구정동 426 압구정신현대,분양,지역난방,296924.5,27,1924.0,한국도시개발공사(주),한국도시개발공사(주),025426028,apgush.apti.co.kr,아파트,서울특별시 강남구 압구정로 151,위탁관리,혼합식,19820525,025122558,1924,296924.5,0.0,1.0,871.0,1052.0,274638.36,13,13,1,53,06001,37.5267858196588,127.024454982256
A13511101,"압구정 현대(10,13,14차)",1168011000,서울특별시,강남구,압구정동,,"서울특별시 강남구 압구정동 436 압구정 현대(10,13,14차)",분양,지역난방,89277.75,10,766.0,현대산업개발,현대산업개발,025420977,,아파트,서울특별시 강남구 압구정로29길 69,자치관리,혼합식,19820614,025126166,766,87591.74,0.0,389.0,329.0,48.0,75674.87,15,15,1,21,06005,37.5310864337439,127.025108957864
A13511201,압구정현대8차,1168011000,서울특별시,강남구,압구정동,,서울특별시 강남구 압구정동 481 압구정현대8차,분양,지역난방,69926.0,5,515.0,도시개발,현대건설,025435723,,아파트,서울특별시 강남구 압구정로 309,자치관리(직영),혼합식,19800915,025433358,515,69061.0,0.0,0.0,371.0,144.0,64018.88,12,12,0,10,06006,37.5319211463698,127.035538506088
A13551103,압구정한양아파트제1단지,1168011000,서울특별시,강남구,압구정동,,서울특별시 강남구 압구정동 490 압구정한양아파트제1단지,분양,지역난방,141997.33,15,1232.0,(주)한양주택,(주)한양주택,025437789,apguhanyang1.apti.co.kr,아파트,서울특별시 강남구 압구정로 347,자치관리,복도식,19771226,025437730,1232,141996.69,194.0,598.0,145.0,295.0,113249.01,13,13,1,0,06008,37.5306005326525,127.040879586287
A13589802,압구정현대아파트,1168011000,서울특별시,강남구,압구정동,,서울특별시 강남구 압구정동 369-1 압구정현대아파트,분양,중앙난방,516492.0,41,3130.0,현대건설,현대건설 현대산업개발,025142301,www.hyundaiapt.org,아파트,서울특별시 강남구 압구정로29길 71,자치관리,혼합식,19760607,025142307,3130,516492.0,0.0,656.0,387.0,2087.0,456872.42,15,15,0,88,06002,37.5336032834133,127.028325815765
A13590204,압구정한양아파트제2단지,1168011000,서울특별시,강남구,압구정동,,서울특별시 강남구 압구정동 484 압구정한양아파트제2단지,분양,지역난방,120877.0,11,825.0,(주)한양주택,한양주택,025428001,,아파트,서울특별시 강남구 압구정로 313,자치관리,혼합식,19781130,025428116,825,119739.68,0.0,1.0,544.0,280.0,109087.55,13,13,1,23,06006,37.5298739327833,127.03599584345
A13590602,압구정한양3단지,1168011000,서울특별시,강남구,압구정동,,서울특별시 강남구 압구정동 513 압구정한양3단지,분양,지역난방,75261.945,6,582.0,한양주택,한양주택,025437937,압구정한양3단지.apti.co.kr,아파트,서울특별시 강남구 압구정로 401,자치관리,혼합식,19791113,025498972,582,74751.26,0.0,4.0,428.0,150.0,67910.91,13,13,1,14,06009,37.529387893826,127.04210755937
A10027558,강남효성해링턴코트,1168011100,서울특별시,강남구,세곡동,,서울특별시 강남구 세곡동 541 강남효성해링턴코트,분양,지역난방,43222.0,11,199.0,555071,(주)대륜테라스빌피에프브이,0222262001,gnhhc.ezville.net/,연립주택,서울특별시 강남구 자곡로7길 36-1,위탁관리,계단식,20160428,0222263001,199,26145.125,0.0,0.0,199.0,0.0,21314.66,4,4,1,25,06372,37.4732092361492,127.096542685749
A13519001,강남신동아파밀리에1단지,1168011100,서울특별시,강남구,세곡동,,서울특별시 강남구 세곡동 508 강남신동아파밀리에1단지,혼합,개별난방,46317.87,6,395.0,신동아,sh공사,024459441,세곡리엔파크1단지.apti.co.kr/,아파트,서울특별시 강남구 헌릉로590길 100,위탁관리,혼합식,20110223,024459442,395,29694.53,395.0,0.0,0.0,0.0,20412,13,13,2,12,06366,37.4635377203095,127.101042591666
A13519002,강남신동아파밀리에2단지,1168011100,서울특별시,강남구,세곡동,,서울특별시 강남구 세곡동 511 강남신동아파밀리에2단지,혼합,개별난방,55232.67,7,410.0,신동아건설,sh 공사,024459443,강남신동아파밀리에2단지.apti.co.kr,아파트,서울특별시 강남구 헌릉로590길 10,위탁관리,혼합식,20110223,024459444,410,36348.08,275.0,135.0,0.0,0.0,26460.84,14,14,2,13,06365,37.4645126849986,127.102737297551
A13519003,강남신동아파밀리에3단지,1168011100,서울특별시,강남구,세곡동,,서울특별시 강남구 세곡동 516 강남신동아파밀리에3단지,혼합,개별난방,51339.0,7,363.0,신동아건설,서울시 SH공사,024459445,,아파트,서울특별시 강남구 헌릉로590길 11,위탁관리,혼합식,20110223,024459446,363,32881.72,247.0,116.0,0.0,0.0,23604.61,14,14,3,16,06365,37.4643990418051,127.104002692314
A13519004,세곡리엔파크4단지,1168011100,서울특별시,강남구,세곡동,,서울특별시 강남구 세곡동 522 세곡리엔파크4단지,임대,개별난방,52087.0,8,407.0,태영건설,SH공사,024450227,,아파트,서울특별시 강남구 헌릉로590길 88,위탁관리,혼합식,20110616,024450225,407,33927.84,323.0,84.0,0.0,0.0,24150.7,13,13,2,13,06366,37.4628776555918,127.101444329255
A13519005,강남데시앙파크,1168011100,서울특별시,강남구,세곡동,,서울특별시 강남구 세곡동 525 강남데시앙파크,혼합,개별난방,101633.27,15,546.0,태영건설,SH공사,024517070,,아파트,서울특별시 강남구 헌릉로590길 63,위탁관리,계단식,20111101,024517088,546,67647.83,44.0,243.0,259.0,0.0,52989.42,12,12,2,21,06366,37.4610465369667,127.101540870536
A13519006,세곡푸르지오,1168011100,서울특별시,강남구,세곡동,,서울특별시 강남구 세곡동 533 세곡푸르지오,분양,지역난방,133346.1,16,912.0,"대우건설,대림산업,태영건설",LH강남지역본부,0262044000,https://sgprugio.aptner.com/,아파트,서울특별시 강남구 자곡로 21,위탁관리,계단식,20120831,0234123035,912,132902.05,167.0,745.0,0.0,0.0,70586.11,15,15,0,35,06375,37.4673466520187,127.093264549075
A13519007,강남엘에이치1단지,1168011100,서울특별시,강남구,세곡동,,서울특별시 강남구 세곡동 579 강남엘에이치1단지,분양,지역난방,117074.61,12,809.0,고려개발(주),한국토지주택공사,0234119245,,아파트,서울특별시 강남구 헌릉로571길 20,위탁관리,계단식,20130612,0234119246,809,116860.06,324.0,485.0,0.0,0.0,58940.61,15,15,2,31,06376,37.4670982362638,127.102101820568
A10022652,LH 수서2단지,1168011200,서울특별시,강남구,자곡동,,서울특별시 강남구 자곡동 138-2 LH 수서2단지,임대,지역난방,73423.0,10,1080.0,효성중공업(주),한국토지주택공사,024454445,,아파트,서울특별시 강남구 자곡로11길 28,위탁관리,복도식,20240417,024454449,1088,73020.45,1080.0,0.0,0.0,0.0,32955.76,15,15,2,20,06369,37.4795413917851,127.107056475455
A10023132,디아크리온강남 아파트,1168011200,서울특별시,강남구,자곡동,,서울특별시 강남구 자곡동  디아크리온강남 아파트,혼합,지역난방,81386.59,8,597.0,양우건설,대한토지주택공사,024452041,,아파트,서울특별시 강남구 자곡로11길 11,위탁관리,혼합식,20230613,024452043,597,46645.965,597.0,0.0,0.0,0.0,30087.29,15,15,2,16,06369,37.4769575114467,127.107911214837
A10023314,LH수서1단지(행복주택),1168011200,서울특별시,강남구,자곡동,,서울특별시 강남구 자곡동 335 LH수서1단지(행복주택),임대,지역난방,46138.0,6,830.0,동일토건(주),한국토지주택공사(LH),0234140243,,아파트,,위탁관리,복도식,20230217,0234140245,830,45812.992,830.0,0.0,0.0,0.0,20482,15,15,1,13,06369,37.4793683150707,127.106149838782
A10027985,강남자곡힐스테이트아파트,1168011200,서울특별시,강남구,자곡동,,서울특별시 강남구 자곡동 619 강남자곡힐스테이트아파트,혼합,지역난방,179903.97,5,1339.0,현대건설,한국토지공사,0234125678,,아파트,서울특별시 강남구 자곡로3길 21,위탁관리,복도식,20150602,0234124300,1339,179378.8,789.0,550.0,0.0,0.0,87224.21,18,18,3,37,06374,37.4718526866405,127.088231183221
A10028172,강남자곡아이파크,1168011200,서울특별시,강남구,자곡동,,서울특별시 강남구 자곡동 602 강남자곡아이파크,혼합,지역난방,102988.17,10,716.0,계룡건설산업(주),한국토지주택공사,024591131,,아파트,서울특별시 강남구 자곡로 175,위탁관리,계단식,20141002,024591132,716,102814.14,195.0,521.0,0.0,0.0,52663.06,15,15,2,28,06372,37.4742742244507,127.102642242027
A13519008,강남에버시움,1168011200,서울특별시,강남구,자곡동,,서울특별시 강남구 자곡동 621 강남에버시움,임대,지역난방,85564.64,15,1065.0,(주)풍림,한국토지주택공사,024598700,LH강남3단지.apti.co.kr,아파트,서울특별시 강남구 자곡로3길 22,위탁관리,복도식,20131113,024592772,1066,85561.28,1065.0,0.0,0.0,0.0,39909.55,15,15,1,0,06374,37.4699716038917,127.091020828093
A13520001,래미안포레,1168011200,서울특별시,강남구,자곡동,,서울특별시 강남구 자곡동 361 래미안포레,혼합,개별난방,145322.62,15,1070.0,삼성물산,sh공사,0234142201,,아파트,서울특별시 강남구 밤고개로21길 25,위탁관리,혼합식,20140313,0234142203,1070,101019.57,714.0,306.0,50.0,0.0,71731.72,12,12,1,46,06370,37.4750475248595,127.107644379249
A13520002,강남한양수자인,1168011200,서울특별시,강남구,자곡동,,서울특별시 강남구 자곡동 77 강남한양수자인,혼합,개별난방,201793.0,26,1304.0,한양수자인,SH공사,0234125051,,아파트,서울특별시 강남구 자곡로 260,위탁관리,혼합식,20140314,0234125053,1304,136339.3,625.0,347.0,332.0,0.0,100993.18,10,10,1,0,06370,37.4765634437989,127.111752118301
A13520003,래미안강남힐즈,1168011200,서울특별시,강남구,자곡동,,서울특별시 강남구 자곡동 611 래미안강남힐즈,분양,지역난방,191300.39,20,1020.0,삼성물산,삼성물산,0234140400,래미안강남힐즈.apti.co.kr,아파트,서울특별시 강남구 자곡로 101,위탁관리,계단식,20140627,0234140402,1020,191300.23,0.0,0.0,1020.0,0.0,99130.59,15,15,2,35,06374,37.4726550843713,127.09580546288
A13520004,강남브리즈힐,1168011200,서울특별시,강남구,자곡동,,서울특별시 강남구 자곡동 618 강남브리즈힐,분양,지역난방,65634.55,13,402.0,"현대아산(주), 신성건설(주) 등",한국토지주택공사,024453062,,아파트,서울특별시 강남구 자곡로3길 45,위탁관리,계단식,20141030,024518288,406,65634.55,0.0,402.0,0.0,0.0,31764.07,15,15,4,21,06374,37.472243237996,127.090660021074
A10027909,강남한신휴플러스 8단지,1168011300,서울특별시,강남구,율현동,,서울특별시 강남구 율현동 217 강남한신휴플러스 8단지,혼합,,29219.11,11,169.0,한신공영,에스에치공사,024459831,,아파트,,위탁관리,계단식,20150923,024459833,169,29219.11,108.0,6.0,55.0,0.0,12839.06,6,6,1,19,06378,,
A10027912,강남한신휴플러스 6단지,1168011300,서울특별시,강남구,율현동,,서울특별시 강남구 율현동 336 강남한신휴플러스 6단지,혼합,개별난방,48362.56,12,378.0,한신공영,SH공사,024459501,www.k-apt.go.kr,아파트,서울특별시 강남구 밤고개로26길 50,위탁관리,혼합식,20150923,024459503,378,48213.76,326.0,52.0,0.0,0.0,22371.46,10,10,2,19,06377,37.4678110775324,127.104821314643
A10023547,개포상록스타힐스,1168011400,서울특별시,강남구,일원동,,서울특별시 강남구 일원동 688 개포상록스타힐스,임대,개별난방,184881.3,12,1703.0,서희건설,공무원연금공단,024518825,,아파트,서울특별시 강남구 영동대로 16,위탁관리,혼합식,20221031,024518826,1829,131004.6,1703.0,0.0,0.0,0.0,89672.121,25,25,2,34,06345,37.4887017892269,127.074831658558
A10024216,디에이치 자이 개포,1168011400,서울특별시,강남구,일원동,,서울특별시 강남구 일원동 611-1 디에이치 자이 개포,혼합,지역난방,364700.0,15,1996.0,"현대건설, 현대엔지니어링, GS건설",현대건설개포컨소시엄,024451996,,아파트,서울특별시 강남구 영동대로 22,위탁관리,계단식,20210730,024451969,1996,212457.22,306.0,1198.0,486.0,6.0,164320.28,35,35,4,49,06346,37.4910941147932,127.074163955752
A10024258,디에이치포레센트아파트,1168011400,서울특별시,강남구,일원동,,서울특별시 강남구 일원동 690-1 디에이치포레센트아파트,혼합,지역난방,37045.21,4,184.0,현대건설,일원동 대우정비사업주택조합,024456901,,아파트,서울특별시 강남구 개포로110길 38,위탁관리,계단식,20210122,024456902,184,21234.69,39.0,80.0,65.0,0.0,16618.61,22,22,3,6,06344,37.4903572045718,127.078179879308
A10025823,래미안개포루체하임,1168011400,서울특별시,강남구,일원동,,서울특별시 강남구 일원동 690-2 래미안개포루체하임,혼합,지역난방,154730.0,12,850.0,삼성물산,현대아파트 재건축 조합,024511188,rmagp.aptner.com,아파트,서울특별시 강남구 개포로110길 50,위탁관리,계단식,20181121,024512288,850,96467.02,210.0,395.0,239.0,6.0,71672.53,25,25,3,0,06344,37.4895410084374,127.079624225204
A10027571,개포4차현대아파트,1168011400,서울특별시,강남구,일원동,,서울특별시 강남구 일원동 614 개포4차현대아파트,분양,지역난방,14780.0,1,142.0,현대,현대,024456159,,아파트,서울특별시 강남구 개포로110길 21,위탁관리,계단식,19870203,024454925,142,14779.99,0.0,142.0,0.0,0.0,11551.54,13,13,1,6,06337,37.490957027851,127.07732395408
A13523001,일원청솔빌리지,1168011400,서울특별시,강남구,일원동,,서울특별시 강남구 일원동 739 일원청솔빌리지,분양,지역난방,29286.0,13,291.0,태신개발(주),태신개발(주),0222261138,,연립주택,서울특별시 강남구 광평로10길 50,위탁관리,복도식,19931213,0262431138,291,23509.6,291.0,0.0,0.0,0.0,17387.25,3,3,1,0,06363,37.4810628141645,127.083252401714
A13523003,수서가람,1168011400,서울특별시,강남구,일원동,,서울특별시 강남구 일원동 735 수서가람,분양,지역난방,53188.4,13,496.0,동원건설(248세대)/두산건설(248세대),..,024519952,,아파트,서울특별시 강남구 일원로 127,위탁관리,계단식,19930309,024519951,496,48751.92,0.0,496.0,0.0,0.0,40216.36,5,5,1,0,06361,37.4831592916235,127.085383839812
A13523004,일원샘터마을,1168011400,서울특별시,강남구,일원동,,서울특별시 강남구 일원동 718 일원샘터마을,분양,지역난방,87501.766,9,628.0,극동건설/현대건설,"극동건설,현대건설",0234110807,,아파트,서울특별시 강남구 일원로 120,자치관리,계단식,19940214,0234123411,628,73768.36,0.0,0.0,613.0,15.0,73765.394,15,15,2,22,06356,37.4852019134102,127.082672775781
A13523005,일원목련타운,1168011400,서울특별시,강남구,일원동,,서울특별시 강남구 일원동 716 일원목련타운,분양,지역난방,91291.34,8,650.0,금호.진로,진로.금호,024590318,,아파트,서울특별시 강남구 광평로19길 15,위탁관리,계단식,19930925,0234113485,650,91266.55,0.0,0.0,650.0,0.0,75339.5,15,15,0,22,06355,37.485530536641,127.084797907539
A13593801,일원동 수서아파트,1168011400,서울특별시,강남구,일원동,,서울특별시 강남구 일원동 711 일원동 수서아파트,분양,지역난방,52885.0,7,720.0,신한건설,서울시도시개발공사,024512460,suseoapt.kr,아파트,서울특별시 강남구 양재대로55길 12,위탁관리,혼합식,19921126,024512457,720,52363.32,720.0,0.0,0.0,0.0,36235.08,15,15,0,12,06341,37.4936295805412,127.089707610517
A13593802,수서1-1단지아파트,1168011400,서울특별시,강남구,일원동,,서울특별시 강남구 일원동 711 수서1-1단지아파트,임대,지역난방,170988.98,14,2214.0,(주)신한외 8개업체,SH공사,024515266,happy.i-sh.co.kr/main.do?deptid=20168,아파트,서울특별시 강남구 양재대로55길 10,위탁관리,복도식,19921126,0234114193,2214,112739.445,2214.0,0.0,0.0,0.0,77697.18,15,15,1,24,06341,37.4931540384403,127.090991396006
A13594203,푸른마을아파트,1168011400,서울특별시,강남구,일원동,,서울특별시 강남구 일원동 719 푸른마을아파트,분양,지역난방,97434.0,11,930.0,"삼성종합건설(주), (주)삼호건설","삼성종합건설(주),삼호건설",0222262572,,아파트,서울특별시 강남구 일원로14길 25,위탁관리,혼합식,19940127,0234113737,930,87391.27,466.0,464.0,0.0,0.0,67255.68,15,15,0,22,06356,37.484761123247,127.080874756987
A13594402,개포한신,1168011400,서울특별시,강남구,일원동,,서울특별시 강남구 일원동 615-1 개포한신,분양,지역난방,42314.66,4,364.0,한신공영,한신공영,0234110067,,아파트,서울특별시 강남구 개포로110길 43,자치관리,복도식,19840310,0234116067,364,38677.78,0.0,134.0,230.0,0.0,35785,13,13,1,4,06337,37.4915621995587,127.079681552221
A13594403,개포7차우성,1168011400,서울특별시,강남구,일원동,,서울특별시 강남구 일원동 615 개포7차우성,분양,지역난방,88378.01,15,802.0,(주)우성,(주)우성,0234110831,,아파트,서울특별시 강남구 개포로110길 15,자치관리,계단식,19871211,024455095,802,82873.22,0.0,802.0,0.0,0.0,65464.28,14,14,0,19,06337,37.4932437695434,127.079114775367
A13594701,한솔마을,1168011400,서울특별시,강남구,일원동,,서울특별시 강남구 일원동 731 한솔마을,분양,지역난방,66076.0,19,570.0,"(주)건영,삼익주택,라이프주택","건영종합건설, 삼익주택,라이프주택",024514250,,아파트,서울특별시 강남구 광평로10길 6,자치관리,계단식,19940603,0222261420,570,54685.9,0.0,570.0,0.0,0.0,45360.3,5,5,1,0,06359,37.4826291743574,127.076520309277
A13594702,상록수아파트,1168011400,서울특별시,강남구,일원동,,서울특별시 강남구 일원동 734 상록수아파트,분양,지역난방,82830.0,22,740.0,"남광, 대우","남광토건, 대우",024517343,k-apt.co.kr,아파트,서울특별시 강남구 광평로10길 15,위탁관리,계단식,19930327,0234121799,740,70616.3,0.0,740.0,0.0,0.0,57866.2,5,5,0,0,06360,37.482899384108,127.083445404216
A10025204,수서하니움,1168011500,서울특별시,강남구,수서동,,서울특별시 강남구 수서동 721-1 수서하니움,임대,지역난방,6018.62,1,73.0,선석건설(주) 외 1,에스에이치공사,0222266663,,아파트,서울특별시 강남구 광평로60길 32,위탁관리,복도식,20160115,0222266664,73,4271.13,73.0,0.0,0.0,0.0,2794.09,12,12,1,2,06369,37.4866009288419,127.107203475559
A10027446,강남더샵포레스트,1168011500,서울특별시,강남구,수서동,,서울특별시 강남구 수서동 537 강남더샵포레스트,분양,지역난방,102231.984,10,400.0,포스코건설,한국자산신탁,024510017,gangnamforest.com,아파트,서울특별시 강남구 광평로34길 35,위탁관리,계단식,20160727,024510098,400,68291.65,0.0,0.0,204.0,196.0,55378.8312,12,12,3,20,06362,37.4821109112761,127.094906024141
A13522003,수서삼익,1168011500,서울특별시,강남구,수서동,,서울특별시 강남구 수서동 708 수서삼익,분양,지역난방,57521.0,5,645.0,삼익건설,도시개발,024594572,,아파트,서울특별시 강남구 광평로51길 27,위탁관리,복도식,19921028,0222261859,645,57520.664,495.0,150.0,0.0,0.0,40428,15,15,1,8,06347,37.4896147291453,127.100730117136
A13522004,수서삼성,1168011500,서울특별시,강남구,수서동,,서울특별시 강남구 수서동 747 수서삼성,분양,지역난방,91841.77,12,680.0,삼성물산(주),삼성생명보험(주),0222268760,,아파트,서울특별시 강남구 광평로31길 27,위탁관리,계단식,19971101,0222268761,680,68559.56,98.0,582.0,0.0,0.0,55318.82,15,15,3,0,06354,37.484837855733,127.089778957788
A13522006,수서신동아,1168011500,서울특별시,강남구,수서동,,서울특별시 강남구 수서동 736 수서신동아,분양,지역난방,70470.0,8,1162.0,신동아,서울도시개발공사,024596486,,아파트,서울특별시 강남구 광평로47길 17,위탁관리,복도식,19921028,024591489,1162,67968.0,1162.0,0.0,0.0,0.0,47041.97,15,15,0,15,06352,37.4879086504963,127.098186321626
A13522007,수서까치마을,1168011500,서울특별시,강남구,수서동,,서울특별시 강남구 수서동 746 수서까치마을,분양,지역난방,83491.0,7,1403.0,"서울도시개발, 진흥기업",.,024590778,,아파트,서울특별시 강남구 광평로19길 10,위탁관리,복도식,19930908,0262470778,1403,81932.75,1403.0,0.0,0.0,0.0,57555.18,15,15,0,18,06354,37.485485349127,127.086601738647
A13522008,수서주공,1168011500,서울특별시,강남구,수서동,,서울특별시 강남구 수서동 707 수서주공,임대,지역난방,116832.0,14,2565.0,럭키개발,한국토지주택공사,024591567,www.kohom.co.kr/,아파트,서울특별시 강남구 광평로51길 49,자치관리(직영),복도식,19921017,0262581566,2565,105730.06,2565.0,0.0,0.0,0.0,71925.75,15,15,0,14,06347,37.4921394490477,127.099765336108
A13552001,서울주택도시공사 수서6단지,1168011500,서울특별시,강남구,수서동,,서울특별시 강남구 수서동 723 서울주택도시공사 수서6단지,임대,지역난방,62908.72,7,1512.0,(주)동신주택,SH공사,024593775,happy.i-sh.co.kr/cms/main.do,아파트,서울특별시 강남구 광평로56길 11,위탁관리,복도식,19921214,0234113779,1508,57595.465,1512.0,0.0,0.0,0.0,39600.48,15,15,0,18,06368,37.4878478418441,127.105794693568
A13552002,강남데시앙포레,1168011500,서울특별시,강남구,수서동,,서울특별시 강남구 수서동 559 강남데시앙포레,분양,개별난방,125458.82,14,787.0,태영건설,SH공사,0234124301,www..openapt.seoul.go.kr,아파트,서울특별시 강남구 광평로34길 55,위탁관리,계단식,20140805,0234124303,787,86239.71,297.0,340.0,150.0,0.0,63104.14,15,15,2,33,06362,37.4808560783316,127.092172324649
A13588402,수서한아름,1168011500,서울특별시,강남구,수서동,,서울특별시 강남구 수서동 712 수서한아름,분양,지역난방,86433.88,7,498.0,"한라, 두진","한라, 두진",0222260737,,아파트,서울특별시 강남구 광평로51길 22,위탁관리,계단식,19931101,024454888,498,71711.3,0.0,0.0,438.0,60.0,59105.84,15,15,2,19,06348,37.4902172303572,127.103957177072
A13588601,수서동익,1168011500,서울특별시,강남구,수서동,,서울특별시 강남구 수서동 738 수서동익,분양,지역난방,37566.0,4,330.0,동익건설(주),동익건설(주),024598410,,아파트,서울특별시 강남구 광평로39길 3,위탁관리,계단식,19931126,024599320,330,33305.58,0.0,330.0,0.0,0.0,27138.3,15,15,1,11,06352,37.4857662768639,127.097263256365
A10020848,개포럭키아파트,1168011800,서울특별시,강남구,도곡동,,서울특별시 강남구 도곡동 462- 개포럭키아파트,분양,지역난방,13193.0,2,128.0,럭키개발,럭키,025733974,,아파트,서울특별시 강남구 남부순환로 2740,위탁관리,계단식,19861027,025783974,128,13192.96,0.0,128.0,0.0,0.0,10225.92,8,8,1,8,,37.4863010539522,127.04614559303
A10024793,매봉삼성아파트,1168011800,서울특별시,강남구,도곡동,,서울특별시 강남구 도곡동 966 매봉삼성아파트,분양,개별난방,14943.0,1,132.0,삼성중공업,도곡연합주택조합,0234635245,,아파트,서울특별시 강남구 언주로 203,위탁관리,계단식,19990106,0262035244,132,14789.94,66.0,66.0,0.0,0.0,9522.7,22,22,3,3,06274,37.4891697762307,127.048827759811
A10027319,도곡한라비발디아파트,1168011800,서울특별시,강남구,도곡동,,서울특별시 강남구 도곡동 893-2 도곡한라비발디아파트,분양,지역난방,21131.0,1,110.0,(주)한라,동신아파트주택재건축정비사업조합,0220581874,,아파트,서울특별시 강남구 남부순환로365길 33,위탁관리,계단식,20160422,0220581875,110,13116.42,0.0,94.0,16.0,0.0,9990.7422,20,20,2,4,06269,37.4880001165609,127.039061237416
A13527001,도곡동양재디오빌,1168011800,서울특별시,강남구,도곡동,,서울특별시 강남구 도곡동 952 도곡동양재디오빌,분양,개별난방,9782.62,1,155.0,대우건설,대우건설,025771127,,주상복합,서울특별시 강남구 강남대로 256,위탁관리,복도식,20040423,025771128,162,8099.3,155.0,0.0,0.0,0.0,4260.59,15,15,5,2,06266,37.4864868587499,127.033537582361
A13527002,도곡현대그린,1168011800,서울특별시,강남구,도곡동,,서울특별시 강남구 도곡동 964 도곡현대그린,분양,지역난방,21843.0,1,171.0,현대산업개발,공업진흥청주택조합,0234635487,현대그린.apt.co.kr,아파트,서울특별시 강남구 논현로51길 25,자치관리,계단식,20061019,0262599033,171,21056.77,0.0,171.0,0.0,0.0,14518.56,18,18,2,4,06269,37.4890474712049,127.039533410678
A13527003,우성캐릭터199 아파트,1168011800,서울특별시,강남구,도곡동,,서울특별시 강남구 도곡동 467-24 우성캐릭터199 아파트,분양,지역난방,100496.73,2,199.0,(주)우성건설,(주)우성건설,025714321,,주상복합,서울특별시 강남구 언주로 118,위탁관리,계단식,19981107,025714327,199,46170.06,0.0,0.0,99.0,100.0,29658.06,31,31,4,0,06295,37.4868987624516,127.051843550843
A13527004,도곡삼성,1168011800,서울특별시,강남구,도곡동,,서울특별시 강남구 도곡동 161 도곡삼성,분양,지역난방,22031.28,4,231.0,삼성건설,삼성생명보험(주),0234622943,,아파트,서울특별시 강남구 남부순환로379길 14,위탁관리,혼합식,19941230,0220582666,236,21309.0,115.0,116.0,0.0,0.0,15515.11,12,12,0,7,06274,37.4893275646597,127.046311637478
A13527005,현대비전21,1168011800,서울특별시,강남구,도곡동,,서울특별시 강남구 도곡동 467-19 현대비전21,분양,지역난방,42432.05,1,232.0,ㅁ,ㅁ,0234602004,,주상복합,서울특별시 강남구 언주로30길 10,위탁관리,복도식,19991130,0234602017,232,16604.08,232.0,0.0,0.0,0.0,7899.14,27,27,5,0,06295,37.4873386711834,127.05155394203
A13527006,역삼삼익,1168011800,서울특별시,강남구,도곡동,,서울특별시 강남구 도곡동 869 역삼삼익,분양,중앙난방,34809.83,2,247.0,삼익주택,삼익주택,0234623168,,아파트,서울특별시 강남구 논현로 218,자치관리,혼합식,19830611,0262573168,247,34423.14,0.0,0.0,143.0,104.0,30859.27,13,13,0,6,06272,37.4912791695502,127.042160561585
A13527007,도곡1차아이파크,1168011800,서울특별시,강남구,도곡동,,서울특별시 강남구 도곡동 543-7 도곡1차아이파크,분양,지역난방,65079.24,5,321.0,현대산업개발,서린아파트,025786319,,아파트,서울특별시 강남구 도곡로28길 8,위탁관리,계단식,20070327,0220576320,321,36256.066,0.0,123.0,198.0,0.0,36256.068,27,27,2,0,06272,37.4920702704886,127.042114305173
A13527008,도곡경남,1168011800,서울특별시,강남구,도곡동,,서울특별시 강남구 도곡동 967 도곡경남,분양,개별난방,44281.67,4,348.0,경남기업,경남기업,0234612518,,아파트,서울특별시 강남구 논현로 209,위탁관리,혼합식,20050602,0262072517,353,35518.44,120.0,192.0,36.0,0.0,27618.24,22,22,0,7,06270,37.4891441210876,127.041198352091
A13527010,도곡우성아파트,1168011800,서울특별시,강남구,도곡동,,서울특별시 강남구 도곡동 934-10 도곡우성아파트,분양,지역난방,40310.56,2,390.0,우성건설,을지조합,0234623466,,아파트,서울특별시 강남구 남부순환로363길 49,자치관리,혼합식,19861031,0262413469,390,39792.15,0.0,390.0,0.0,0.0,32576.7,15,15,0,12,06264,37.4879756789698,127.037169086447
A13527011,아카데미스위트,1168011800,서울특별시,강남구,도곡동,,서울특별시 강남구 도곡동 467-7 아카데미스위트,분양,지역난방,102379.0,1,414.0,라성건설(주),라성건설(주),025734305,academysweet.com/,아파트,서울특별시 강남구 언주로30길 21,위탁관리,계단식,20041115,025744305,414,72747.66,0.0,88.0,220.0,106.0,52865.18,51,51,6,6,06292,37.4888657676631,127.052014632509
A13527013,개포4차우성,1168011800,서울특별시,강남구,도곡동,,서울특별시 강남구 도곡동 465 개포4차우성,분양,지역난방,73088.0,8,459.0,(주)우성건설,(주)우성건설,025728309,,아파트,서울특별시 강남구 언주로 117,위탁관리,혼합식,19851226,0262418309,459,72171.0,0.0,99.0,144.0,216.0,59577.48,9,9,0,22,06299,37.4864661840624,127.050396079152
A13527014,도곡대림아크로빌,1168011800,서울특별시,강남구,도곡동,,서울특별시 강남구 도곡동 467-6 도곡대림아크로빌,분양,중앙난방,144215.0,2,490.0,대림산업,대림산업,0221875114,dlacro.aptner.com/v2,주상복합,서울특별시 강남구 언주로30길 13,위탁관리,계단식,19991126,0221875435,497,101213.69,4.0,6.0,174.0,306.0,73177.226,46,46,6,16,06292,37.4881276085659,127.050686658826
A13527016,도곡개포한신아파트,1168011800,서울특별시,강남구,도곡동,,서울특별시 강남구 도곡동 464 도곡개포한신아파트,분양,지역난방,62151.363,8,620.0,한신공영(주),한신공영,025724369,개포한신.apti.co.kr,아파트,서울특별시 강남구 언주로 123,위탁관리,혼합식,19851214,025724379,620,55239.77,404.0,216.0,0.0,0.0,40563.01,9,9,0,20,06298,37.4876033476735,127.049755052514
A13527017,타워팰리스1차,1168011800,서울특별시,강남구,도곡동,,서울특별시 강남구 도곡동 467 타워팰리스1차,분양,지역난방,457994.0,4,1297.0,삼성물산,삼성전자,0220592000,,주상복합,서울특별시 강남구 언주로30길 56,위탁관리,복도식,20021023,0220592001,1297,283424.9,0.0,114.0,84.0,1099.0,204005.65,66,66,5,30,06294,37.4880695220981,127.053483219997
A13527018,양재SK허브프리모,1168011800,서울특별시,강남구,도곡동,,서울특별시 강남구 도곡동 953-1 양재SK허브프리모,분양,개별난방,20562.0,1,176.0,SK건설,SK건설,025783835,,주상복합,서울특별시 강남구 강남대로 240,위탁관리,복도식,20060118,025784224,176,20562.25,67.0,109.0,0.0,0.0,9680.09,20,20,7,3,06267,37.4852596091178,127.034429700831
A13527019,도곡쌍용예가,1168011800,서울특별시,강남구,도곡동,,서울특별시 강남구 도곡동 902-8 도곡쌍용예가,분양,지역난방,77270.12,5,132.0,쌍용건설(주),도곡동신아파트리모델링주택조합,0234610072,,아파트,서울특별시 강남구 남부순환로363길 30,위탁관리,계단식,19781226,0234610073,384,52285.2,0.0,12.0,84.0,36.0,42932.4,13,12,2,18,06269,37.48761945292,127.038197177163
A13527203,도곡렉슬,1168011800,서울특별시,강남구,도곡동,,서울특별시 강남구 도곡동 527 도곡렉슬,분양,지역난방,553661.4,34,3002.0,"현대,쌍용,GS",도곡주공재건축조합,025774505,www.rexleapt.com,아파트,서울특별시 강남구 선릉로 221,위탁관리,계단식,20060127,025774559,3002,379722.4,601.0,936.0,1402.0,63.0,298679.464,25,25,3,64,06276,37.4942068396456,127.049734781209
A13550403,도곡한신,1168011800,서울특별시,강남구,도곡동,,서울특별시 강남구 도곡동 895-8 도곡한신,분양,지역난방,46483.64,5,421.0,(주)한신공영,(주)한신공영,0234629901,,아파트,서울특별시 강남구 논현로 205,위탁관리,혼합식,19880716,0234623965,421,36802.34,65.0,266.0,90.0,0.0,36882.14,15,15,1,13,06270,37.487947873686,127.040618203989
A13550404,도곡동 포스코트 아파트,1168011800,서울특별시,강남구,도곡동,,서울특별시 강남구 도곡동 164-6 도곡동 포스코트 아파트,분양,지역난방,23542.0,1,64.0,포스코건설,포스코건설,025292343,,아파트,서울특별시 강남구 남부순환로381길 15,위탁관리,계단식,20020131,025292344,64,16128.0,0.0,0.0,0.0,64.0,13108.5,17,17,0,0,06274,37.487936320647,127.047665600395
A13550502,도곡삼성래미안,1168011800,서울특별시,강남구,도곡동,,서울특별시 강남구 도곡동 91-5 도곡삼성래미안,분양,지역난방,126760.78,10,732.0,(주)삼성물산,(주)삼성물산,0262052233,dgrma.aptner.co.kr,아파트,서울특별시 강남구 언주로 202,위탁관리,계단식,20011201,0262050033,732,94471.67,144.0,192.0,396.0,0.0,71979,24,24,3,21,06277,37.4896113070654,127.051499079971
A13585401,개포우성5차,1168011800,서울특별시,강남구,도곡동,,서울특별시 강남구 도곡동 463-1 개포우성5차,분양,지역난방,17550.0,4,180.0,우성건설,우성건설,025732815,,아파트,서울특별시 강남구 언주로29길 34,위탁관리,계단식,19861027,025736088,180,17550.0,0.0,180.0,0.0,0.0,13489.2,9,9,1,10,06297,37.486268493442,127.047594324939
A13585402,타워팰리스2차,1168011800,서울특별시,강남구,도곡동,,서울특별시 강남구 도곡동 467-17 타워팰리스2차,분양,지역난방,296650.3,2,813.0,삼성중공업,삼성중공업,0221874900,,주상복합,서울특별시 강남구 언주로30길 57,위탁관리,혼합식,20030228,0221874901,813,126724.61,0.0,8.0,206.0,599.0,126724.61,55,55,6,30,06293,37.4894573055974,127.053964659634
A13585403,타워팰리스G동,1168011800,서울특별시,강남구,도곡동,,서울특별시 강남구 도곡동 467-29 타워팰리스G동,분양,지역난방,222720.84,1,480.0,삼성중공업,삼성생명,0234970200,,주상복합,서울특별시 강남구 언주로30길 26,위탁관리,복도식,20040419,0234970205,480,106201.82,0.0,0.0,76.0,404.0,75439.259,69,69,6,16,06294,37.4877632466167,127.052530150983
A13585404,래미안도곡카운티,1168011800,서울특별시,강남구,도곡동,,서울특별시 강남구 도곡동 538 래미안도곡카운티,혼합,지역난방,67379.79,8,397.0,삼성물산,삼성물산,0234615380,,아파트,서울특별시 강남구 도곡로 320,자치관리,계단식,20160902,0234625380,397,43122.11,81.0,159.0,157.0,0.0,33275.43,21,21,2,13,06275,37.4956390045387,127.052002706504
A13585804,역삼럭키,1168011800,서울특별시,강남구,도곡동,,서울특별시 강남구 도곡동 963 역삼럭키,분양,지역난방,155069.47,10,1094.0,럭키,럭키,0234621077,,아파트,서울특별시 강남구 논현로 213,위탁관리,혼합식,19951228,0234621079,1094,138068.0,0.0,674.0,420.0,0.0,109509.38,15,15,1,23,06262,37.4915488149067,127.040954182934
A13586101,도곡대림,1168011800,서울특별시,강남구,도곡동,,서울특별시 강남구 도곡동 960 도곡대림,분양,개별난방,22757.13,2,197.0,대림건설,법무부 주택조합외 4개주택조합,0234623976,,아파트,,자치관리,계단식,19921119,0234623975,197,22147.78,0.0,197.0,0.0,0.0,16733.19,14,14,0,9,06270,37.4866129116061,127.039371908356
A13586102,도곡현대,1168011800,서울특별시,강남구,도곡동,,서울특별시 강남구 도곡동 961 도곡현대,분양,지역난방,25345.98,3,211.0,현대산업개발,현대산업개발,0234631849,,아파트,서울특별시 강남구 도곡로18길 34,위탁관리,복도식,19941230,0234619220,211,25110.898,0.0,211.0,0.0,0.0,17926.56,15,15,0,4,06263,37.4888495744392,127.037993820176
