kaptCode,kaptName,bjdCode,as1,as2,as3,as4,kaptAddr,codeSaleNm,codeHeatNm,kaptTarea,kaptDongCnt,kaptdaCnt,kaptBcompany,kaptAcompany,kaptTel,kaptUrl,codeAptNm,doroJuso,codeMgrNm,codeHallNm,kaptUsedate,kaptFax,hoCnt,kaptMarea,kaptMparea60,kaptMparea85,kaptMparea135,kaptMparea136,privArea,kaptTopFloor,ktownFlrNo,kaptBaseFloor,kaptdEcntp,zipcode,위도,경도
A10023365,수루배마을9단지,3611010100,세종특별자치시,,반곡동,,세종특별자치시  반곡동 873 수루배마을9단지,임대,지역난방,58816.7,16,326.0,계룡건설(주),(주)계룡코크렙제1호위탁관리투자회사,0448680774,,주상복합,세종특별자치시  시청대로 547,위탁관리,계단식,20221216,0448680775,326,52884.492,0.0,326.0,0.0,0.0,25793.5069,18,18,3,16,30146,36.498815755525,127.317671436055
A10023366,수루배마을7단지아파트,3611010100,세종특별자치시,,반곡동,,세종특별자치시  반곡동 861 수루배마을7단지아파트,임대,지역난방,33596.0,12,210.0,계룡건설,(주)계룡코크렙제1호위탁관리부동산투자회사,0448668995,,아파트,세종특별자치시  반곡로 72,위탁관리,계단식,20221220,0448668996,210,30103.283,132.0,78.0,0.0,0.0,14477.3909,15,15,2,13,30146,36.4986648855249,127.314172445394
A10023375,수루배마을8단지아파트,3611010100,세종특별자치시,,반곡동,,세종특별자치시  반곡동 858 수루배마을8단지아파트,임대,지역난방,88936.12,6,1032.0,극동건설주식회사,한국토지주택공사,0448642266,surub8.aptner.com,아파트,세종특별자치시  시청대로 546,위탁관리,복도식,20230220,0448642277,1032,88452.59,1032.0,0.0,0.0,0.0,38103.8,26,26,1,20,30146,36.4985040710063,127.316882715023
A10024397,세종 펠리스,3611010100,세종특별자치시,,반곡동,,세종특별자치시  반곡동 4121-1002 세종 펠리스,분양,지역난방,17867.0,1,170.0,DL 종합건설,(주)월목,0448641943,,주상복합,세종특별자치시  한누리대로 1940,관리방식미정,복도식,20200220,0448641944,170,7888.5005,170.0,0.0,0.0,0.0,4379.9582,6,6,3,0,30147,36.4911402669013,127.30322529544
A10025230,수루배마을4단지,3611010100,세종특별자치시,,반곡동,,세종특별자치시  반곡동 59-7 수루배마을4단지,분양,지역난방,175813.97,21,1092.0,포스코건설,금성백조예미지,0447157013,,아파트,세종특별자치시  시청대로 500,위탁관리,혼합식,20190927,0447157014,1092,120826.625,305.0,436.0,351.0,0.0,89751.47,29,29,1,47,30146,36.4988957058191,127.313816875865
A10025330,수루배마을1단지아파트,3611010100,세종특별자치시,,반곡동,,세종특별자치시  반곡동  수루배마을1단지아파트,분양,지역난방,206412.34,17,1111.0,"롯데, 신동아","롯데, 신동아",0448686396,수루배마을1단지.apti.co.kr,아파트,세종특별자치시  반곡로 14,위탁관리,계단식,20190826,0448686397,1111,141225.4,0.0,440.0,657.0,14.0,104167.151,28,28,2,39,30146,36.4971084211225,127.305598809854
A10025346,수루배마을6단지아파트,3611010100,세종특별자치시,,반곡동,,세종특별자치시  반곡동  수루배마을6단지아파트,분양,지역난방,112011.57,20,812.0,금성백조주택,포스코건설,0448689768,srb6.aptstory.com/,아파트,세종특별자치시  시청대로 598,위탁관리,계단식,20190607,0448689769,812,73299.2,481.0,331.0,0.0,0.0,52944.45,20,20,1,32,30145,36.493940941487,127.318320399076
A10025383,수루배마을2단지아파트,3611010100,세종특별자치시,,반곡동,,세종특별자치시  반곡동  수루배마을2단지아파트,분양,지역난방,91878.03,14,592.0,"신동아건설, 롯데건설","신동아건설, 롯데건설",0448681461,https://수루배마을2단지.apti.co.kr,아파트,세종특별자치시  반곡1길 9,위탁관리,계단식,20190226,0448681463,592,53897.637,350.0,242.0,0.0,0.0,37750.808,17,17,2,32,30145,36.4970957309575,127.311032667327
A10025486,수루배마을3단지,3611010100,세종특별자치시,,반곡동,,세종특별자치시  반곡동  수루배마을3단지,분양,지역난방,141373.53,24,784.0,"(주)계룡건설,(주)한양","(주)계룡건설,(주)보성",0448626728,,아파트,세종특별자치시  반곡로 15,위탁관리,계단식,20190524,0448626729,784,71965.23,0.0,477.0,307.0,0.0,71965.2287,29,29,2,31,30146,36.4990715360244,127.308315566006
A10025816,수루배마을5단지,3611010100,세종특별자치시,,반곡동,,세종특별자치시  반곡동 4101-3 수루배마을5단지,분양,지역난방,56003.062,13,362.0,(주)한양,계룡건설,0448624835,,아파트,세종특별자치시  반곡2길 9,위탁관리,혼합식,20181228,0448624836,362,34731.703,237.0,125.0,0.0,0.0,24713.0982,17,17,2,20,30145,36.4966131547244,127.311933127624
A10023940,새샘마을4단지아파트,3611010200,세종특별자치시,,소담동,,세종특별자치시  소담동 545 새샘마을4단지아파트,임대,지역난방,83865.945,4,1100.0,정인건설,LH주택공사,0448639955,,아파트,세종특별자치시  소담3로 21,위탁관리,복도식,20220208,0448639954,1101,83865.945,1100.0,0.0,0.0,0.0,40660.92,20,20,1,0,30151,36.4865948937413,127.297111956133
A10024345,힐스테이트세종리버파크 새샘마을7단지,3611010200,세종특별자치시,,소담동,,세종특별자치시  소담동 539 힐스테이트세종리버파크 새샘마을7단지,분양,지역난방,65440.547,3,342.0,현대엔지니어링,금강타워,0448685625,,주상복합,세종특별자치시  소담8로 6,위탁관리,계단식,20201027,0448685626,342,43447.223,0.0,170.0,170.0,2.0,32606.1061,48,48,2,9,30151,36.4867012445782,127.299557154993
A10024346,새샘마을8단지아파트,3611010200,세종특별자치시,,소담동,,세종특별자치시  소담동  새샘마을8단지아파트,분양,지역난방,60101.51,3,330.0,현대엔지니어링(주),금강타워(주),0448685623,ssm8.apti.co.kr,아파트,세종특별자치시  소담8로 22,위탁관리,계단식,20201027,0448685624,330,40533.78,0.0,166.0,162.0,2.0,30305.3961,48,48,2,9,30147,36.4875250089079,127.30005248209
A10026099,새샘마을1단지,3611010200,세종특별자치시,,소담동,,세종특별자치시  소담동  새샘마을1단지,분양,지역난방,167970.0,19,890.0,(주)새솔건설,(주)중흥건설,0448686314,ssamvillage1.aptner.com,아파트,세종특별자치시  남세종로 357,위탁관리,계단식,20180828,0448686316,890,108852.72,0.0,530.0,360.0,0.0,83829.7402,18,18,1,36,30150,36.48032904339,127.298813876938
A10026741,새샘마을6단지,3611010200,세종특별자치시,,소담동,,세종특별자치시  소담동 32-41 새샘마을6단지,분양,지역난방,206646.98,19,1522.0,한신공영(주),한국토지주택공사,0448645426,,아파트,세종특별자치시  남세종로 302,위탁관리,계단식,20170928,0448645428,1522,205763.52,1164.0,358.0,0.0,0.0,97522.26,29,29,2,0,30150,36.4846830109643,127.301846919306
A10027147,세종 한양수자인엘시티 새샘마을5단지아파트,3611010200,세종특별자치시,,소담동,,세종특별자치시  소담동 598 세종 한양수자인엘시티 새샘마을5단지아파트,분양,지역난방,101440.086,12,760.0,(주)한양,대상산업(주),0448684023,새샘마을5단지한양수자인.apti.co.kr,아파트,세종특별자치시  남세종로 301,위탁관리,계단식,20170217,0448684024,760,69511.21,554.0,206.0,0.0,0.0,50371.9096,22,22,1,25,30150,36.4813310703209,127.304435103267
A10027408,새샘마을9단지아파트,3611010200,세종특별자치시,,소담동,,세종특별자치시  소담동 325 새샘마을9단지아파트,분양,지역난방,183940.14,13,946.0,중흥개발(주),중흥개발(주),0448684726,sstown9.aptner.co.kr,아파트,세종특별자치시  국책연구원1로 15,위탁관리,계단식,20160831,0448684725,946,115128.945,0.0,454.0,488.0,4.0,88929.2784,29,29,2,26,30147,36.49101863889,127.299898214554
A10027453,새샘마을3단지 아파트,3611010200,세종특별자치시,,소담동,,세종특별자치시  소담동 333-10 새샘마을3단지 아파트,분양,지역난방,204595.75,16,1211.0,주)씨에치아이건설,주)씨에치아이건설,0448679847,sstown3.aptner.co.kr/,아파트,세종특별자치시  시청대로 236,위탁관리,혼합식,20160729,0448649847,1211,200378.5,0.0,502.0,705.0,4.0,112840.9308,29,29,1,32,30151,36.4850639476117,127.296048734716
A10027525,새샘마을2단지아파트,3611010200,세종특별자치시,,소담동,,세종특별자치시  소담동 594 새샘마을2단지아파트,분양,지역난방,203802.34,18,1397.0,(주)한양,(주)파인자산관리,0448677684,새샘2단지.apti.co.kr,아파트,세종특별자치시  남세종로 358,위탁관리,계단식,20160429,0448677683,1397,137466.1,724.0,673.0,0.0,0.0,100577.2047,29,29,0,40,30149,36.4814889004799,127.300581137028
A10025238,호려울마을7단지,3611010300,세종특별자치시,,보람동,,세종특별자치시  보람동 738 호려울마을7단지,분양,중앙난방,111723.41,6,548.0,대방건설,대방이노베이션(주),0448685652,,주상복합,세종특별자치시  남세종로 480,위탁관리,혼합식,20190925,0448685653,548,69191.33,0.0,278.0,270.0,0.0,51491.5497,34,34,0,13,30150,36.4768923074722,127.286011407297
A10025730,호려울마을3단지,3611010300,세종특별자치시,,보람동,,세종특별자치시  보람동 3-2 호려울마을3단지,분양,지역난방,103832.555,11,713.0,"이주민아파트조합,신동아건설","이주민아파트조합,신동아건설",0448660713,,아파트,세종특별자치시  시청대로 78,위탁관리,계단식,20190208,0448630713,713,67371.1,431.0,282.0,0.0,0.0,49643.579,29,29,2,0,30151,36.4767351560151,127.280578563874
A10026159,호려울마을2단지아파트,3611010300,세종특별자치시,,보람동,,세종특별자치시  보람동 664-98 호려울마을2단지아파트,임대,지역난방,49899.34,5,674.0,양우건설,한국주택토지공사,0448687919,호려울마을2단지.apti.co.kr/apthome/,아파트,세종특별자치시  보람1길 12,위탁관리,복도식,20180718,0448687920,674,49712.902,674.0,0.0,0.0,0.0,21030.18,18,18,1,11,30150,36.4755849803905,127.283829065116
A10026642,호려울마을6단지아파트,3611010300,세종특별자치시,,보람동,,세종특별자치시  보람동 3201-3 호려울마을6단지아파트,분양,지역난방,96998.21,12,498.0,혜림건설(주),덕평산업개발(주),0448641264,,아파트,세종특별자치시  보람동로 13,위탁관리,계단식,20171124,0448641265,498,64124.86,0.0,152.0,346.0,0.0,49286.3454,18,18,1,19,30150,36.4769808093993,127.295367781917
A10026728,세종 호려울마을1단지,3611010300,세종특별자치시,,보람동,,세종특별자치시  보람동 664-102 세종 호려울마을1단지,분양,지역난방,130494.17,12,1002.0,대방건설,노블랜드 주식회사,0448679014,호려울마을1단지.com,아파트,세종특별자치시  남세종로 503,위탁관리,계단식,20171020,0448679015,1002,87690.336,848.0,154.0,0.0,0.0,63947.9464,29,29,1,22,30150,36.4750024345066,127.286146395215
A10026794,호려울마을5단지,3611010300,세종특별자치시,,보람동,,세종특별자치시  보람동  호려울마을5단지,분양,지역난방,90498.66,9,510.0,(주)제일건설,(주)창암종합건설,0448682573,,아파트,세종특별자치시  남세종로 441,위탁관리,계단식,20170721,0448682576,510,61716.535,0.0,236.0,274.0,0.0,94883.2056,22,22,1,20,30150,36.4769246468113,127.290456391507
A10027057,호려울마을4단지,3611010300,세종특별자치시,,보람동,,세종특별자치시  보람동 700-1 호려울마을4단지,분양,지역난방,120292.0,14,649.0,(주)세종개발산업,(주)라인건설,0448666871,호려울마을4단지.apti.co.kr,아파트,세종특별자치시  남세종로 469,위탁관리,계단식,20170224,0448666872,649,81641.9,0.0,279.0,370.0,0.0,63978.0879,22,22,1,25,30150,36.4764891524659,127.289440355468
A10027099,호려울마을8단지,3611010300,세종특별자치시,,보람동,,세종특별자치시  보람동 777 호려울마을8단지,분양,지역난방,107400.836,19,900.0,증흥건설,중봉건설,0448665438,hoho8.aptner.com,아파트,세종특별자치시  보람동로 14,위탁관리,계단식,20170223,0448665439,900,105861.78,0.0,632.0,268.0,0.0,81484.6861,29,29,1,26,30150,36.4775706566465,127.296260808322
A10027210,(주)일택 호려울마을10단지아파트,3611010300,세종특별자치시,,보람동,,세종특별자치시  보람동 3202-4 (주)일택 호려울마을10단지아파트,분양,지역난방,128418.0,12,656.0,중흥건설,신세종,0448666930,,아파트,세종특별자치시  시청대로 210,위탁관리,계단식,20161130,0448666930,656,89083.945,0.0,0.0,651.0,5.0,136208.0784,29,29,1,18,30151,36.482248003726,127.29320502708
A10027651,호려울마을9단지아파트,3611010300,세종특별자치시,,보람동,,세종특별자치시  보람동 774 호려울마을9단지아파트,분양,지역난방,121897.87,12,773.0,(주)한양,(주)코리아에셋매니지먼트,0448657684,호려울마을9단지.apti.co.kr/aptHome/,아파트,세종특별자치시  남세종로 384,위탁관리,계단식,20160226,0448657685,773,82655.87,183.0,590.0,0.0,0.0,61072.7443,27,27,1,24,30150,36.4802607791345,127.296629251026
A10025826,해들마을5단지 아파트,3611010400,세종특별자치시,,대평동,,세종특별자치시  대평동  해들마을5단지 아파트,분양,지역난방,170665.61,18,1438.0,계룡건설(주),한국토지주택공사,0448658982,haedeul5@naver.com,아파트,세종특별자치시  대평로 56,위탁관리,계단식,20190109,0448658983,1438,169431.5,1438.0,0.0,0.0,0.0,86086.86,29,29,1,43,30153,36.4732842832306,127.278876253283
A10026057,해들마을4단지아파트,3611010400,세종특별자치시,,대평동,,세종특별자치시  대평동 77-22 해들마을4단지아파트,분양,지역난방,183145.42,23,1015.0,중흥에스클래스(주),중흥에스클래스(주),0448686946,,아파트,세종특별자치시  대평로 34,위탁관리,계단식,20180814,0448686947,1015,124352.04,0.0,435.0,580.0,0.0,95259.123,29,29,0,32,30153,36.4718571643556,127.280624580732
A10026220,해들마을6단지아파트,3611010400,세종특별자치시,,대평동,,세종특별자치시  대평동 668 해들마을6단지아파트,분양,지역난방,169194.17,13,849.0,대림산업,국제자산투자신탁,0448689235,sjriverpark.com,아파트,세종특별자치시  대평로 80,위탁관리,계단식,20180620,0448689237,849,109539.92,0.0,0.0,844.0,5.0,84407.6369,30,30,1,26,30152,36.4748883647427,127.276855785881
A10026440,세종시 해들마을2단지아파트,3611010400,세종특별자치시,,대평동,,세종특별자치시  대평동 266-6 세종시 해들마을2단지아파트,분양,지역난방,65615.0,8,331.0,근화건설(주),근화건설(주),0448643707,,아파트,세종특별자치시  대평1길 37,위탁관리,계단식,20180223,0448663708,377,35132.57,0.0,331.0,0.0,0.0,26072.3237,29,29,2,0,30153,36.4697210522421,127.276066764741
A10026548,해들마을1단지,3611010400,세종특별자치시,,대평동,,세종특별자치시  대평동 707 해들마을1단지,분양,지역난방,65681.15,6,363.0,신동아건설,신동아건설,0448655103,,아파트,세종특별자치시  대평1길 27,위탁관리,계단식,20180116,0448655104,363,43258.13,0.0,227.0,136.0,0.0,32510.5971,29,29,2,12,30153,36.4698645904144,127.277356518501
A10026554,해들마을3단지,3611010400,세종특별자치시,,대평동,,세종특별자치시  대평동 147-3 해들마을3단지,분양,지역난방,53237.33,8,366.0,(주)우남건설,(주)다림씨앤씨,0448688041,https://www.zigbang.com/,아파트,세종특별자치시  대평1길 38,위탁관리,계단식,20171206,0448688042,366,28352.258,224.0,142.0,0.0,0.0,22628.266,15,15,1,0,30153,36.4711966274927,127.277691084336
A33982101,첫마을1단지,3611010600,세종특별자치시,,한솔동,,세종특별자치시  한솔동 939 첫마을1단지,분양,지역난방,169706.83,11,895.0,금호산업(주),LH한국토지주택공사,0448670061,첫마을1단지아파트.apti.co.kr,아파트,세종특별자치시  노을3로 14,위탁관리,혼합식,20111130,0448670074,895,112181.0,156.0,425.0,302.0,12.0,81978.28,29,29,1,0,30130,36.4823487827508,127.257162918359
A33982102,첫마을3단지아파트,3611010600,세종특별자치시,,한솔동,,세종특별자치시  한솔동 2 첫마을3단지아파트,분양,지역난방,177207.0,12,901.0,한신공영(주),한국토지주택공사,0448670063,첫마을3단지.apti.co.kr,아파트,세종특별자치시  나리1로 16,위탁관리,계단식,20111130,0448670073,901,115832.914,122.0,451.0,312.0,16.0,83258.68,27,27,2,44,,36.4792645927167,127.261423205199
A33982103,첫마을2단지,3611010600,세종특별자치시,,한솔동,,세종특별자치시  한솔동 940 첫마을2단지,혼합,지역난방,74247.95,2,446.0,(주)대보건설,한국토지주택공사(LH),0448670062,,아파트,세종특별자치시  노을1로 16,위탁관리,혼합식,20111107,0448670072,446,40282.99,320.0,126.0,0.0,0.0,26915.58,25,25,3,11,30130,36.480647649368,127.26086566007
A33982104,첫마을7단지래미안,3611010600,세종특별자치시,,한솔동,,세종특별자치시  한솔동 976 첫마을7단지래미안,분양,지역난방,226646.9,13,1328.0,삼성,한국토지주택공사,0448685037,sjraemian.com/skin_default,아파트,세종특별자치시  나리로 38,위탁관리,혼합식,20120608,0448685067,1328,223124.38,214.0,364.0,726.0,24.0,127588.39,29,29,1,41,30130,36.4744562808825,127.255513780242
A33982105,첫마을4단지,3611010600,세종특별자치시,,한솔동,,세종특별자치시  한솔동 1226 첫마을4단지,혼합,지역난방,46987.54,5,322.0,대우푸르지오,한국토지주택공사,0448685034,,아파트,세종특별자치시  누리로 119,위탁관리,계단식,20120608,0448685064,322,46033.754,114.0,208.0,0.0,0.0,24451.9,25,25,1,0,30130,36.4800537592975,127.250961124539
A33982106,첫마을5단지아파트,3611010600,세종특별자치시,,한솔동,,세종특별자치시  한솔동 59 첫마을5단지아파트,혼합,지역난방,197824.0,25,1240.0,대우,한국토지공사(LH),0448685035,첫마을5단지.apti.co.kr,아파트,세종특별자치시  누리로 54,위탁관리,계단식,20120608,0448685065,1240,113724.54,156.0,616.0,456.0,12.0,113724.54,28,28,1,49,30130,36.4761412736415,127.251951200134
A33982107,첫마을6단지,3611010600,세종특별자치시,,한솔동,,세종특별자치시  한솔동 27 첫마을6단지,혼합,지역난방,215972.0,17,1388.0,한국토지주택공사,현대건설,0448685036,첫마을6단지.apti.co.kr,아파트,세종특별자치시  누리로 27,위탁관리,계단식,20120608,0448685066,1388,123217.04,224.0,726.0,426.0,12.0,123214.11,29,29,1,0,30130,36.4757869473668,127.251519453712
A10021583,세종퍼스트타워,3611010700,세종특별자치시,,나성동,,세종특별자치시  나성동 712- 세종퍼스트타워,분양,,0.0,1,138.0,-,-,0448625313,,주상복합,세종특별자치시  한누리대로 211,위탁관리,계단식,20131206,0448625313,138,8031.24,138.0,0.0,0.0,0.0,3541.662,1,8,0,0,,36.4834883296149,127.259479139416
A10021715,한스웰시티,3611010700,세종특별자치시,,나성동,,세종특별자치시  나성동 748- 한스웰시티,분양,,13697.0,1,145.0,(주)한스웰시티,(주)한스웰시티,0448679220,,도시형 생활주택(주상복합),세종특별자치시  한누리대로 237,위탁관리,복도식,20151027,,145,5435.35,145.0,0.0,0.0,0.0,3559.7,8,8,4,0,,36.485571346005,127.258029296037
A10022052,에스알파크,3611010700,세종특별자치시,,나성동,,세종특별자치시  나성동 714- 에스알파크,분양,지역난방,0.0,1,140.0,성암토건,에스알토건,0448669235,에스알토건,도시형 생활주택(아파트),세종특별자치시  한누리대로 205,위탁관리,계단식,20141002,0448669239,140,10225.952,140.0,0.0,0.0,0.0,4712.164,1,8,3,0,,36.4829078380373,127.259918778705
A10024125,나릿재마을3단지,3611010700,세종특별자치시,,나성동,,세종특별자치시  나성동  나릿재마을3단지,분양,지역난방,168231.98,9,771.0,제일건설(주),제일건설(주),0448679927,,주상복합,세종특별자치시  국세청로 45,위탁관리,계단식,20210924,0448679928,771,95318.74,0.0,388.0,373.0,10.0,71052.285,37,37,2,0,30128,36.4898544712085,127.262730617953
A10024175,나릿재마을5단지 아파트,3611010700,세종특별자치시,,나성동,,세종특별자치시  나성동  나릿재마을5단지 아파트,분양,지역난방,131896.58,12,661.0,한신공영(주),한신공영(주),0448689280,,주상복합,세종특별자치시  나성북1로 23,위탁관리,계단식,20210820,0448689281,661,85790.97,0.0,325.0,336.0,0.0,61130.5306,45,45,2,22,30128,36.4927814962446,127.257449302265
A10024176,나릿재마을6단지,3611010700,세종특별자치시,,나성동,,세종특별자치시  나성동  나릿재마을6단지,분양,지역난방,73238.46,5,370.0,한신공영(주),한신공영(주),0448689647,nra6.aptner.com,주상복합,세종특별자치시  나성북1로 51,위탁관리,혼합식,20210820,0448689648,370,48606.062,0.0,191.0,179.0,0.0,34077.7513,43,43,2,1,30128,36.4923112410356,127.260577313847
A10024269,나릿재마을2단지,3611010700,세종특별자치시,,나성동,,세종특별자치시  나성동  나릿재마을2단지,분양,지역난방,158712.0,8,845.0,신동아건설 외 2사,신동아건설 외 2사,0448660614,sjleadersfore2.aptner.com,아파트,세종특별자치시  중앙공원서로 10,위탁관리,계단식,20210602,0448670614,845,105301.52,0.0,419.0,423.0,3.0,80736.4871,48,48,2,0,30128,36.4882758350481,127.2644390327
A10024399,나릿재마을4단지아파트,3611010700,세종특별자치시,,나성동,,세종특별자치시  나성동  나릿재마을4단지아파트,분양,지역난방,113417.66,5,528.0,(주)부원건설,(주)부원건설,0448687277,,주상복합,세종특별자치시  나성북로 47,위탁관리,계단식,20210226,0448687278,528,64518.246,0.0,264.0,264.0,0.0,47595.672,37,37,2,18,30128,36.4912363285845,127.260789334686
A10024482,나릿재마을1단지,3611010700,세종특별자치시,,나성동,,세종특별자치시  나성동 259-1 나릿재마을1단지,분양,지역난방,71961.0,3,343.0,(주)한화건설,(주)한화건설,0448629906,나릿재마을1단지아파트.apti.co.kr,주상복합,세종특별자치시  국세청로 46,위탁관리,계단식,20210105,0448629907,343,42507.312,0.0,170.0,172.0,1.0,32186.1364,37,37,2,0,30128,36.4872932917734,127.262894502052
A10025319,SR파크센텀,3611010700,세종특별자치시,,나성동,,세종특별자치시  나성동 728 SR파크센텀,분양,지역난방,17677.898,1,295.0,성암토건,드림디엔씨,0448657208,,주상복합,세종특별자치시  한누리대로 331,위탁관리,복도식,20190816,0448657209,295,9741.328,295.0,0.0,0.0,0.0,5971.29,8,8,4,5,30123,36.4939327698124,127.25583589547
A10025860,세종마루2,3611010700,세종특별자치시,,나성동,,세종특별자치시  나성동 757 세종마루2,분양,지역난방,15092.599,1,162.0,(주)건국건설,(주)반석건설,0448675126,,도시형 생활주택(주상복합),세종특별자치시  한누리대로 316,위탁관리,복도식,20180327,0448675128,162,6707.7935,162.0,0.0,0.0,0.0,8951.868,8,8,4,2,30128,36.4924823285133,127.256814495365
A10026426,세종포레뷰2차,3611010700,세종특별자치시,,나성동,,세종특별자치시  나성동 737 세종포레뷰2차,분양,지역난방,17563.227,1,202.0,(주)대성건설,(주)디에스글로벌,0448626122,,도시형 생활주택(주상복합),세종특별자치시  한누리대로 291,위탁관리,복도식,20171101,0448626121,202,8487.98,202.0,0.0,0.0,0.0,5681.122,8,8,3,0,30127,36.4902093057163,127.256033911695
A10026611,SR파크시티,3611010700,세종특별자치시,,나성동,,세종특별자치시  나성동 730 SR파크시티,분양,지역난방,16049.878,1,299.0,성암토건,주식회사에스알토건,0448677206,,주상복합,세종특별자치시  한누리대로 321,위탁관리,혼합식,20171023,0448645546,299,10870.241,299.0,0.0,0.0,0.0,7357.72,8,8,3,5,30123,36.4930119021507,127.255782531634
A10027190,세종 행복의아침 도시형생활주택,3611010700,세종특별자치시,,나성동,,세종특별자치시  나성동 763 세종 행복의아침 도시형생활주택,분양,지역난방,16101.0,1,166.0,(주)우석건설,(주)우석디앤씨,0448686038,,주상복합,세종특별자치시  한누리대로 292,,복도식,20161110,0448686039,166,12213.456,166.0,0.0,0.0,0.0,4888.789,8,8,4,0,30128,36.4903246735595,127.257030692034
A10027225,포레뷰1차,3611010700,세종특별자치시,,나성동,,세종특별자치시  나성동 380-49 포레뷰1차,분양,지역난방,16967.53,1,204.0,대성건설,DS글로벌,0448665412,forv5412@hanmail.net,도시형 생활주택(주상복합),세종특별자치시  한누리대로 287,위탁관리,복도식,20160906,0448665413,204,8108.556,204.0,0.0,0.0,0.0,11020.08,8,8,0,1,30127,36.4897960421941,127.256156542828
A10027610,갤러리밸류시티,3611010700,세종특별자치시,,나성동,,세종특별자치시  나성동 764 갤러리밸류시티,분양,지역난방,14177.62,1,180.0,다우건설주식회사,다우건설주식회사,0448641789,무,아파트,세종특별자치시  한누리대로 288,위탁관리,복도식,20150224,0448642789,180,10980.0,180.0,0.0,0.0,0.0,4558.509,8,8,3,3,30128,36.4899317172292,127.257096579017
A10027672,세종마루,3611010700,세종특별자치시,,나성동,,세종특별자치시  나성동 455-1 세종마루,분양,지역난방,15329.0,1,174.0,인덕건설(주),에이플러스세종(주),0448678421,www.onlineapt.co.kr/apt/60849,도시형 생활주택(주상복합),세종특별자치시  한누리대로 223,위탁관리,계단식,20151120,0448688422,174,6711.5957,174.0,0.0,0.0,0.0,4369.776,8,8,4,2,30127,36.4845204124295,127.258779863057
A10027689,세종 모닝시티2.0S 도시형생활주택,3611010700,세종특별자치시,,나성동,,세종특별자치시  나성동 361-86 세종 모닝시티2.0S 도시형생활주택,분양,지역난방,18111.54,1,216.0,나성산업개발(주),세종비케이개발(주),0448669935,,주상복합,세종특별자치시  한누리대로 311,위탁관리,복도식,20160205,0448679935,216,7838.22,216.0,0.0,0.0,0.0,5021.2968,8,8,4,3,30123,36.492070617908,127.255836690696
A10027766,세종의아침,3611010700,세종특별자치시,,나성동,,세종특별자치시  나성동 2421-1401 세종의아침,분양,지역난방,32613.498,1,156.0,"(주)우석건설, (주)에스에이치건설",(주)우석DNC,0448687892,,주상복합,세종특별자치시  한누리대로 193,위탁관리,복도식,20151026,0448680889,156,9199.3,156.0,0.0,0.0,0.0,3511.425,8,8,4,7,30130,36.4820796620759,127.260502652606
A10027859,세진팰리스,3611010700,세종특별자치시,,나성동,,세종특별자치시  나성동 739 세진팰리스,분양,지역난방,16262.781,1,164.0,동천월,동천월,0449986071,,주상복합,세종특별자치시  한누리대로 288,위탁관리,계단식,20150608,0449986073,164,9723.56,164.0,0.0,0.0,0.0,4557.79,8,8,3,0,30128,36.4899317172292,127.257096579017
A10027973,세종 블루지움,3611010700,세종특별자치시,,나성동,,세종특별자치시  나성동 361-80 세종 블루지움,분양,지역난방,13268.9,1,150.0,신해공영(주),세종(주),0449990095,,도시형 생활주택(주상복합),세종특별자치시  한누리대로 306,,복도식,20150430,0448660197,150,10002.3,150.0,0.0,0.0,0.0,4334.46,8,8,4,2,30128,36.4917184082028,127.256860856819
A10028095,세종 리베라아이누리아파트,3611010700,세종특별자치시,,나성동,,세종특별자치시  나성동 445-2 세종 리베라아이누리아파트,분양,지역난방,15348.761,1,173.0,아이누리건설산업(주),리베라종합건설(주),0448623394,,주상복합,세종특별자치시  한누리대로 223,위탁관리,복도식,20150410,0448623395,173,7739.518,173.0,0.0,0.0,0.0,5251.1131,8,8,3,0,30127,36.4845204124295,127.258779863057
A10025451,새뜸마을13단지,3611010800,세종특별자치시,,새롬동,,세종특별자치시  새롬동 85-1 새뜸마을13단지,분양,지역난방,63401.855,7,386.0,부원건설,00,0448684347,새뜸13단지.apti.co.kr,주상복합,세종특별자치시  새롬로 32,위탁관리,계단식,20190607,0448684348,386,39998.62,0.0,386.0,0.0,0.0,29646.036,24,24,2,12,30127,36.4872250301122,127.255614966784
A10026493,새뜸마을8단지아파트,3611010800,세종특별자치시,,새롬동,,세종특별자치시  새롬동  새뜸마을8단지아파트,임대,지역난방,66160.98,5,906.0,(주)한양,LH,0448686373,,아파트,세종특별자치시  새롬중앙로 20,위탁관리,복도식,20180208,0448686374,908,29940.78,906.0,0.0,0.0,0.0,29940.78,21,21,1,13,30127,36.4836135065727,127.253692829799
A10026739,새뜸마을7단지아파트,3611010800,세종특별자치시,,새롬동,,세종특별자치시  새롬동 556 새뜸마을7단지아파트,분양,지역난방,170611.5,27,1164.0,계룡건설,한국토지주택공사,0448644812,,아파트,세종특별자치시  새롬중앙로 89,위탁관리,혼합식,20170914,0448644814,1164,170106.64,294.0,870.0,0.0,0.0,87201.85,28,28,1,63,30126,36.4878014523053,127.249679272595
A10027022,새뜸마을11단지아파트,3611010800,세종특별자치시,,새롬동,,세종특별자치시  새롬동 2202-4 새뜸마을11단지아파트,분양,지역난방,85279.484,10,445.0,현대건설,포스코건설,0448621568,saeddm11.aptner.com/v2,아파트,세종특별자치시  새롬로 55,위탁관리,계단식,20170420,0448641568,445,56397.21,0.0,149.0,296.0,0.0,42191.7564,29,29,0,16,30127,36.4903906008548,127.254018380046
A10027024,새뜸마을10단지아파트,3611010800,세종특별자치시,,새롬동,,세종특별자치시  새롬동 2202-3 새뜸마을10단지아파트,분양,지역난방,104264.0,13,1027.0,(주)포스코건설,"(주)포스코건설,현대건설(주)",0448681980,saetteum10aptner.com,아파트,세종특별자치시  새롬중앙로 90,위탁관리,계단식,20170420,0448671981,1027,102378.19,667.0,219.0,141.0,0.0,72652.5581,29,29,2,30,30127,36.4885913440018,127.251126377917
A10027028,새뜸마을9단지아파트,3611010800,세종특별자치시,,새롬동,,세종특별자치시  새롬동 2202-9 새뜸마을9단지아파트,분양,지역난방,41329.21,6,200.0,(주)금성백조주택,(주)금성백조주택,0448679285,새뜸마을9단지.apti.co.kr,아파트,세종특별자치시  새롬남로 98,위탁관리,계단식,20170427,0448679286,200,28148.516,0.0,0.0,200.0,0.0,21179.7292,26,26,1,0,30127,36.4848515346529,127.256089488048
A10027029,새뜸마을6단지아파트,3611010800,세종특별자치시,,새롬동,,세종특별자치시  새롬동 2201-3 새뜸마을6단지아파트,분양,지역난방,73407.61,8,393.0,현대엔지니어링,대우건설외 3사,0448683143,새뜸6단지.apti.co.kr,아파트,세종특별자치시  새롬중앙1로 13,위탁관리,계단식,20170426,0448683144,393,49565.9,0.0,148.0,245.0,0.0,39405.8683,17,17,1,0,30126,36.4837253610027,127.249882017009
A10027031,새뜸마을12단지아파트,3611010800,세종특별자치시,,새롬동,,세종특별자치시  새롬동 2202-10 새뜸마을12단지아파트,분양,지역난방,68770.4,9,472.0,(주)금성백조주택,(주)금성백조주택,0448647220,aptner.co.kr,아파트,세종특별자치시  새롬남로 102,위탁관리,계단식,20170427,0448647218,472,44414.9,298.0,174.0,0.0,0.0,32338.363,29,29,2,14,30127,36.4851427480972,127.256863141229
A10027038,새뜸마을 메이저시티 1단지,3611010800,세종특별자치시,,새롬동,,세종특별자치시  새롬동 2202-6 새뜸마을 메이저시티 1단지,분양,지역난방,184880.52,14,1077.0,대우건설,메이저시티,0448683051,,아파트,세종특별자치시  새롬남로 18,위탁관리,계단식,20170426,0448683052,1079,129985.266,0.0,660.0,417.0,0.0,102608.4942,29,29,2,1,30126,36.4799349696676,127.246777822814
A10027039,새뜸마을메이저시티2단지,3611010800,세종특별자치시,,새롬동,,세종특별자치시  새롬동 2201-2 새뜸마을메이저시티2단지,분양,지역난방,97986.31,9,696.0,계룡건설,메이저시티,0448660360,saetteum2.aptner.co.kr,아파트,세종특별자치시  새롬남로 17,위탁관리,계단식,20170426,0448660361,707,60645.492,593.0,103.0,0.0,0.0,44304.0884,22,22,0,0,30126,36.4839570919755,127.248653431746
A10027041,세종 메이저시티 새뜸마을5단지아파트,3611010800,세종특별자치시,,새롬동,,세종특별자치시  새롬동 2202-7 세종 메이저시티 새뜸마을5단지아파트,분양,지역난방,151518.0,12,1005.0,현대산업개발,현대산업개발,0448626171,,아파트,세종특별자치시  새롬중앙로 19,위탁관리,계단식,20170426,0448626172,1005,98755.4,561.0,280.0,164.0,0.0,74115.3914,29,29,1,29,30126,36.4835905851459,127.252347931377
A10027055,새뜸마을14단지,3611010800,세종특별자치시,,새롬동,,세종특별자치시  새롬동 2202-5 새뜸마을14단지,분양,지역난방,47565.742,5,222.0,현대건설,현대건설,0448641877,ntis.kr/새뜸마을14,아파트,세종특별자치시  새롬로 56,위탁관리,계단식,20170420,0448641878,225,30492.951,0.0,0.0,222.0,0.0,22965.2656,24,24,1,9,,36.4891809464414,127.255425977253
A10027056,새뜸마을3단지,3611010800,세종특별자치시,,새롬동,,세종특별자치시  새롬동 2201-1 새뜸마을3단지,분양,지역난방,117312.164,10,677.0,롯데건설,롯데건설,0448639177,sarom9177@naver.com,아파트,세종특별자치시  새롬북로 14,위탁관리,계단식,20170410,0448649477,677,76913.49,0.0,510.0,167.0,0.0,58432.6548,22,22,2,2,30126,36.4860306473136,127.245918433071
A10027061,새뜸마을 4단지,3611010800,세종특별자치시,,새롬동,,세종특별자치시  새롬동 2202-1 새뜸마을 4단지,분양,지역난방,220443.55,19,1267.0,"롯데건설, 신동아건설","롯데건설, 신동아건설",0448638477,https://cafe.naver.com/saetteumapt4,아파트,세종특별자치시  새롬북로 13,위탁관리,계단식,20170410,0448658477,1267,152196.42,0.0,714.0,553.0,0.0,116411.372,29,29,2,42,30126,36.4865053756268,127.245875517291
A10024520,가온마을7단지,3611010900,세종특별자치시,,다정동,,세종특별자치시  다정동 363-232 가온마을7단지,임대,지역난방,137806.45,9,1538.0,(주)서한,한국토지주택공사,0448624241,,주상복합,세종특별자치시  다정중앙로 20,위탁관리,복도식,20201118,0448624242,1538,122641.07,1538.0,0.0,0.0,0.0,57246.34,29,29,1,22,30123,36.4925571778608,127.250000451669
A10025292,가온마을9단지아파트,3611010900,세종특별자치시,,다정동,,세종특별자치시  다정동 4-11 가온마을9단지아파트,혼합,지역난방,141049.88,14,1080.0,코오롱글로벌(주),한국토지주택공사,0448685827,gaon190909.aptner.com/,아파트,세종특별자치시  다정북로 183,위탁관리,계단식,20190917,0448685828,1080,140819.17,606.0,474.0,0.0,0.0,74198.76,29,29,1,30,30123,36.4961445575241,127.251389390345
A10025487,가온마을4단지,3611010900,세종특별자치시,,다정동,,세종특별자치시  다정동  가온마을4단지,분양,지역난방,186493.97,15,1258.0,"LH공사, 대림산업, 대우건설","대림산업, 대우건설",0448653707,,아파트,세종특별자치시  다정중앙로 19,위탁관리,계단식,20190516,0448655763,1258,132124.22,430.0,828.0,0.0,0.0,96165.48,29,29,1,0,30124,36.4923276396426,127.248713332762
A10025497,가온마을11단지(세종지웰푸르지오),3611010900,세종특별자치시,,다정동,,세종특별자치시  다정동  가온마을11단지(세종지웰푸르지오),분양,지역난방,35822.375,3,190.0,(주)대우,(주)신영,0444151981,gaonvill11,아파트,세종특별자치시  가온로 10,위탁관리,계단식,20190326,0444151982,190,19279.826,0.0,190.0,0.0,0.0,14157.7292,35,35,2,0,30123,36.4918347730363,127.254620635302
A10026273,가온마을1단지아파트,3611010900,세종특별자치시,,다정동,,세종특별자치시  다정동 2102-4 가온마을1단지아파트,분양,지역난방,278418.97,25,1631.0,현대건설,"현대건설,현대엔지니어링",0448684257,sjhill2.aptner.co.kr/,아파트,세종특별자치시  다정남로 22,위탁관리,계단식,20180329,0448684259,1631,185145.47,294.0,743.0,594.0,0.0,140712.0086,29,29,2,52,30124,36.4929952827929,127.244803276708
A10026288,가온마을6단지,3611010900,세종특별자치시,,다정동,,세종특별자치시  다정동 2102-2 가온마을6단지,분양,지역난방,206369.72,18,1076.0,중흥S클래스(주),중흥토건(주),0448656683,gaon6.aptner.com,아파트,세종특별자치시  다정중앙로 77,위탁관리,계단식,20180426,0448656684,1076,126857.414,202.0,463.0,411.0,0.0,94937.0233,29,29,2,39,30124,36.4978774175673,127.248321341118
A10026302,가온마을 10단지,3611010900,세종특별자치시,,다정동,,세종특별자치시  다정동 2102-7 가온마을 10단지,분양,지역난방,57899.14,8,333.0,(주)금호건설,더하이스트,0448673548,gaon10.aptner.com/,아파트,세종특별자치시  가온로 9,위탁관리,계단식,20180424,0448673549,333,30514.023,0.0,207.0,126.0,0.0,30514.0229,29,29,1,12,30123,36.4924796467947,127.25364473297
A10026378,가온마을3단지,3611010900,세종특별자치시,,다정동,,세종특별자치시  다정동 916 가온마을3단지,분양,지역난방,269936.8,27,1655.0,한신공영(주),한신공영(주),0448660558,gaon3.aptner.com,아파트,세종특별자치시  다정북로 109,위탁관리,복도식,20180321,0448660559,1655,182763.58,297.0,803.0,555.0,0.0,136181.1565,29,29,2,55,30124,36.4965569936987,127.242297055683
A10026430,가온마을12단지,3611010900,세종특별자치시,,다정동,,세종특별자치시  다정동 2101-4 가온마을12단지,분양,지역난방,122092.875,17,765.0,계룡건설,계룡건설,0448641547,gaon12.aptner.com/,아파트,세종특별자치시  다정남로 123,위탁관리,계단식,20180221,0448621547,765,81942.54,278.0,319.0,168.0,0.0,60871.3498,22,22,1,32,30123,36.4928783759173,127.254844253217
A10026435,가온마을 8단지,3611010900,세종특별자치시,,다정동,,세종특별자치시  다정동 16 가온마을 8단지,분양,지역난방,48217.676,8,319.0,금호건설,더하이스트,0448641545,,아파트,세종특별자치시  다정북로 180,위탁관리,계단식,20180222,0448651545,319,27802.953,319.0,0.0,0.0,0.0,19067.8473,19,19,2,15,30123,36.4955050217996,127.250482489197
A10026515,가온마을2단지 아파트,3611010900,세종특별자치시,,다정동,,세종특별자치시  다정동 2101-1 가온마을2단지 아파트,분양,지역난방,154116.36,22,855.0,제일건설(주),한신공영(주)/제일건설(주),0448689780,,아파트,세종특별자치시  다정북로 110,위탁관리,계단식,20180131,0448689781,855,101188.64,0.0,518.0,331.0,6.0,75265.1109,21,21,1,39,30124,36.4957819852324,127.243587330162
A10026525,가온마을5단지아파트,3611010900,세종특별자치시,,다정동,,세종특별자치시  다정동 2101-2 가온마을5단지아파트,분양,지역난방,70991.7,11,370.0,중흥건설,중흥건설,0448681186,cafe.naver.com/5village,아파트,세종특별자치시  다정서로 60,위탁관리,계단식,20180118,0448681187,370,46262.66,0.0,239.0,131.0,0.0,69158.2034,20,20,1,0,30124,36.4952954824714,127.245331182165
A10023493,세종 한뜰마을5단지,3611011000,세종특별자치시,,어진동,,세종특별자치시  어진동 682 세종 한뜰마을5단지,분양,지역난방,91362.0,3,465.0,우미건설(주),우미건설(주),0448687189,,주상복합,세종특별자치시  다솜로 7,위탁관리,계단식,20221123,0448687188,465,43784.473,0.0,229.0,233.0,3.0,43784.4722,41,41,3,0,30122,36.4983131463068,127.256490530578
A10023822,한뜰마을4단지,3611011000,세종특별자치시,,어진동,,세종특별자치시  어진동  한뜰마을4단지,분양,지역난방,125996.125,6,596.0,한신공영,한신공영,0448688723,https://sjreserve2.aptstory.com/aptAdm/admIndex.apt,주상복합,세종특별자치시  다솜1로 9,위탁관리,기타,20220426,028688724,596,75901.42,0.0,377.0,217.0,2.0,57393.1927,34,34,3,18,30115,36.5008637596778,127.255532879292
A10024130,한뜰마을6단지아파트,3611011000,세종특별자치시,,어진동,,세종특별자치시  어진동  한뜰마을6단지아파트,분양,지역난방,136819.64,4,576.0,중흥토건,중봉건설,0448681968,,아파트,세종특별자치시  다솜로 50,위탁관리,계단식,20210910,0448681969,576,85905.23,0.0,273.0,37.0,266.0,66752.2503,42,42,3,20,30121,36.4950624846328,127.258791047519
A10027726,세종모닝시티1차 도시형생활주택,3611011000,세종특별자치시,,어진동,,세종특별자치시  어진동 1521-3702 세종모닝시티1차 도시형생활주택,분양,지역난방,20043.441,1,289.0,나성산업개발(주),(주)영토,0448664235,,주상복합,세종특별자치시  가름로 170-17,위탁관리,복도식,20150616,0448664236,289,9667.164,289.0,0.0,0.0,0.0,7606.5382,8,8,5,0,30121,36.496979023927,127.259016968307
A10028148,세종리슈빌S도시형생활주택,3611011000,세종특별자치시,,어진동,,세종특별자치시  어진동 548 세종리슈빌S도시형생활주택,분양,지역난방,18335.174,1,299.0,계룡건설(주),KR유통(주),0448643011,,주상복합,세종특별자치시  한누리대로 496,자치관리,복도식,20140530,0448643013,299,8602.156,299.0,0.0,0.0,0.0,5741.7455,17,17,5,2,30103,36.5077999111818,127.262236341296
A33980003,세종더샵레이크파크아파트,3611011000,세종특별자치시,,어진동,,세종특별자치시  어진동 3-81 세종더샵레이크파크아파트,분양,지역난방,85179.0,19,511.0,(주)포스코건설,(주)포스코건설,0448622595,sjlakepark.com/,아파트,세종특별자치시  다솜로 290,위탁관리,계단식,20130724,0448622565,511,60401.6,0.0,405.0,106.0,0.0,46368.37,12,12,2,30,30104,36.5056076476779,127.272934542607
A33980004,한뜰마을1단지임대,3611011000,세종특별자치시,,어진동,,세종특별자치시  어진동 554 한뜰마을1단지임대,임대,지역난방,77301.36,6,632.0,공무원연금공단,태영건설(주),0448689670,onlineapt.co.kr,아파트,세종특별자치시  갈매로 479,위탁관리,혼합식,20131204,0448689672,632,50251.527,314.0,318.0,0.0,0.0,36533.286,25,25,2,12,30104,36.5072110586756,127.26640221836
A33980006,세종더샆센트럴시티,3611011000,세종특별자치시,,어진동,,세종특별자치시  어진동 151-42 세종더샆센트럴시티,분양,지역난방,95393.0,8,626.0,포스코건설,포스코건설,0448660821,세종더샵센트럴시티.apti.co.kr,아파트,세종특별자치시  갈매로 480,위탁관리,계단식,20131211,0448660822,626,67985.12,104.0,446.0,76.0,0.0,52415.7,26,26,2,16,30104,36.5059945643114,127.268784177665
A33980031,호수의아침,3611011000,세종특별자치시,,어진동,,세종특별자치시  어진동 178-317 호수의아침,분양,지역난방,14277.096,1,288.0,(주)우석건설,(주)우석디엔씨,0448685739,,주상복합,세종특별자치시  가름로 253,위탁관리(총액관리제),복도식,20141013,0448685740,288,5277.488,288.0,0.0,0.0,0.0,5277.336,9,9,5,2,30120,36.4948708075693,127.267213209369
A10027294,가재마을1단지아파트,3611011100,세종특별자치시,,종촌동,,세종특별자치시  종촌동 686 가재마을1단지아파트,임대,지역난방,132545.44,9,1684.0,(주)고려개발,LH공사,0448650261,,아파트,세종특별자치시  도움1로 145,위탁관리,복도식,20161109,0448650263,1684,132089.25,1684.0,0.0,0.0,0.0,60689.04,21,21,1,28,30064,36.5015410357208,127.24144350974
A10027343,가재마을6단지 입주자대표회의,3611011100,세종특별자치시,,종촌동,,세종특별자치시  종촌동 644 가재마을6단지 입주자대표회의,분양,개별난방+기타,42599.18,3,310.0,(주)세경건설,(주)세경건설,0448679924,www.raybol.net,아파트,세종특별자치시  달빛1로 74,위탁관리,계단식,20161031,0448679925,310,31911.703,0.0,310.0,0.0,0.0,26190.8806,27,27,1,0,30064,36.5063519229739,127.245734657661
A10027749,가재마을 8단지,3611011100,세종특별자치시,,종촌동,,세종특별자치시  종촌동 692 가재마을 8단지,분양,지역난방,35391.22,3,254.0,세경건설주식회사,세경건설주식회사,0448685137,www.raybol.net/E00132,아파트,세종특별자치시  달빛로 16,위탁관리,계단식,20151027,0448685138,254,26478.25,0.0,254.0,0.0,0.0,21475.6736,26,26,1,5,30064,36.499747499444,127.249916746323
A10027905,가재마을4단지아파트,3611011100,세종특별자치시,,종촌동,,세종특별자치시  종촌동 640 가재마을4단지아파트,분양,지역난방,228078.45,19,1623.0,동부건설,한국토지주택공사,0448687626,,아파트,세종특별자치시  도움3로 160,위탁관리,계단식,20150731,0448687628,1625,170489.36,0.0,1623.0,0.0,0.0,129072.17,30,30,2,40,30064,36.5081745339724,127.242950346614
A10028185,가재마을3단지아파트,3611011100,세종특별자치시,,종촌동,,세종특별자치시  종촌동 159 가재마을3단지아파트,분양,지역난방,98930.0,10,559.0,중흥건설,중봉건설,0448686308,https://가재마을3.apti.co.kr,아파트,세종특별자치시  도움3로 159,위탁관리,계단식,20150209,0448686309,560,70176.64,0.0,200.0,359.0,0.0,56001.99,18,18,1,21,30064,36.5039345942703,127.243748266775
A10028197,가재마을12단지아파트,3611011100,세종특별자치시,,종촌동,,세종특별자치시  종촌동 652 가재마을12단지아파트,분양,지역난방,221165.0,21,1371.0,중흥건설(주),중흥건설(주),0448687305,gjtown12,아파트,세종특별자치시  달빛로 80,위탁관리,계단식,20150115,0448687308,1371,156380.58,0.0,1217.0,154.0,0.0,119878.0797,29,29,2,32,30064,36.5048659643189,127.253083698242
A33980005,가재마을11단지,3611011100,세종특별자치시,,종촌동,,세종특별자치시  종촌동 151-42 가재마을11단지,분양,지역난방,92622.945,10,696.0,한신공영(주),한신공영(주),0448685430,"gjvillage11,aptner.com",아파트,세종특별자치시  도움3로 75,위탁관리,계단식,20131204,0448685433,696,65739.1,400.0,296.0,0.0,0.0,49000.735,15,15,1,0,30064,36.5041378547016,127.251709471221
A33980009,가재마을9단지,3611011100,세종특별자치시,,종촌동,,세종특별자치시  종촌동 697 가재마을9단지,분양,지역난방,161666.0,11,955.0,한신공영(주),세종주민주택조합,0448672266,,아파트,세종특별자치시  도움1로 55,위탁관리,계단식,20140404,0448682267,955,115072.97,0.0,568.0,387.0,0.0,88562.051,29,29,1,23,30064,36.5015814473138,127.251029912412
A33980013,가재마을5단지,3611011100,세종특별자치시,,종촌동,,세종특별자치시  종촌동 110 가재마을5단지,분양,지역난방,242566.03,29,1940.0,현대엔지니어링(주),국제자산신탁,0448649881,gjtown5.aptner.com,아파트,세종특별자치시  도움1로 105,위탁관리,계단식,20140829,0448649884,1940,179561.69,1228.0,712.0,0.0,0.0,134084.7318,30,30,1,0,30064,36.5015060560043,127.245600803132
A33980015,가재마을10단지 제일풍경채에듀파크,3611011100,세종특별자치시,,종촌동,,세종특별자치시  종촌동 97-22 가재마을10단지 제일풍경채에듀파크,분양,지역난방,73053.0,9,436.0,세종화건설,제일건설,0448625925,,아파트,세종특별자치시  도움1로 74,위탁관리,계단식,20140828,0448625936,436,53051.395,0.0,247.0,189.0,0.0,41466.7832,15,15,1,19,30064,36.5018458449445,127.253290300919
A33980016,가재마을2단지,3611011100,세종특별자치시,,종촌동,,세종특별자치시  종촌동 683 가재마을2단지,분양,지역난방,76296.07,9,557.0,호반건설,티에스주택,0448645820,http://가재마을2단지.apti.co.kr,아파트,세종특별자치시  달빛1로 39,위탁관리,계단식,20141107,0448645821,557,51766.5,334.0,223.0,0.0,0.0,38959.7774,18,18,1,19,30064,36.502175384169,127.244572431579
A33980018,가재마을7단지,3611011100,세종특별자치시,,종촌동,,세종특별자치시  종촌동 169-7 가재마을7단지,분양,지역난방,141411.0,13,866.0,중흥건설(주),중흥산업개발(주).제이원산업개발(주),0448677207,가재마을7단지.apti.co.kr,아파트,세종특별자치시  달빛로 77,위탁관리,계단식,20141029,0448637207,866,78719.45,0.0,631.0,235.0,0.0,78719.391,30,30,2,0,30064,36.5055566768748,127.248421212178
A10023006,가락마을12단지 한림풀에버 아파트,3611011200,세종특별자치시,,고운동,,세종특별자치시  고운동 1411 가락마을12단지 한림풀에버 아파트,분양,지역난방,95092.23,9,458.0,한림건설(주),한림건설(주),0448668064,,아파트,세종특별자치시  마음안로 101,위탁관리,계단식,20230914,0448668065,458,94820.79,0.0,0.0,455.0,3.0,49032.2091,29,29,2,12,30063,36.5109289764153,127.231916043818
A10025026,가락마을 14단지,3611011200,세종특별자치시,,고운동,,세종특별자치시  고운동 1403 가락마을 14단지,분양,지역난방,58470.0,6,290.0,우남건설(주),우남건설(주),0448684768,,아파트,세종특별자치시  마음안로 131,위탁관리,계단식,20200224,0448684769,290,39670.133,0.0,0.0,290.0,0.0,32344.0146,28,28,1,7,30062,36.5142647233366,127.231619995413
A10025727,가락마을19단지 아파트,3611011200,세종특별자치시,,고운동,,세종특별자치시  고운동 2111 가락마을19단지 아파트,분양,지역난방,167706.34,19,998.0,동양건설산업,주식회사 라인건설,0448669052,galak19.aptner.com,아파트,세종특별자치시  밝은뜰로 15,위탁관리,계단식,20190322,0448669253,998,108819.45,270.0,430.0,298.0,0.0,83844.2739,18,18,2,52,30062,36.5249534048372,127.231705672356
A10025728,가락마을2단지아파트,3611011200,세종특별자치시,,고운동,,세종특별자치시  고운동 1731 가락마을2단지아파트,분양,지역난방,76593.984,8,345.0,(주)원건설,(주)플레니엄,0448650943,garak2.aptner.com,주상복합,세종특별자치시  마음로 49,위탁관리,계단식,20190124,0448640944,347,47442.195,0.0,0.0,332.0,13.0,38900.1404,17,17,1,16,30063,36.5037358765187,127.235408043569
A10025877,가락마을1단지,3611011200,세종특별자치시,,고운동,,세종특별자치시  고운동 1729 가락마을1단지,분양,지역난방,115201.734,12,555.0,주)원건설,주)플레니엄,0448643363,garak1.aptner.com,아파트,세종특별자치시  마음로 67,위탁관리,계단식,20181122,0448643364,555,74633.02,0.0,0.0,555.0,0.0,60458.6066,18,18,2,21,30063,36.5048214169672,127.232785913049
A10026235,가락마을18단지아파트,3611011200,세종특별자치시,,고운동,,세종특별자치시  고운동  가락마을18단지아파트,분양,지역난방,94024.0,14,667.0,현대엔지니어링(주),(주)캡스톤디엔씨,0448689442,garak0531@naver.com,아파트,세종특별자치시  마음안1로 139,위탁관리,계단식,20180525,0448689443,667,67030.0,0.0,0.0,667.0,0.0,67541.9028,18,18,2,26,30062,36.5215542252198,127.234213665742
A10027642,가락마을11단지,3611011200,세종특별자치시,,고운동,,세종특별자치시  고운동 1409 가락마을11단지,분양,지역난방,89088.28,9,607.0,중흥건설,중흥건설,0448620046,,아파트,세종특별자치시  마음로 152,위탁관리,계단식,20160217,0448620047,607,56713.414,323.0,284.0,0.0,0.0,41878.1154,29,29,2,13,30063,36.512286479599,127.230984922451
A10027763,가락마을 22단지 아파트,3611011200,세종특별자치시,,고운동,,세종특별자치시  고운동 1387 가락마을 22단지 아파트,분양,지역난방,79905.96,7,440.0,중흥토건(주),"중흥S-클래스(주), 중봉건설(주)",0448676848,garak22@daum.net,아파트,세종특별자치시  마음로 322,위탁관리,계단식,20151013,0448676849,440,51537.137,0.0,263.0,177.0,0.0,39371.2216,23,23,2,13,30062,36.5189309637531,127.241581260058
A10027779,가락마을13단지,3611011200,세종특별자치시,,고운동,,세종특별자치시  고운동 1401 가락마을13단지,분양,지역난방,71090.0,8,490.0,대광건영(주),대광에이엠씨,0448636736,garak13.aptstory.com,아파트,세종특별자치시  마음로 182,위탁관리,계단식,20151130,0448636737,492,48139.715,220.0,270.0,0.0,0.0,35956.13,29,29,2,1,30062,36.5145608513135,127.230265581995
A10027786,가락마을7단지중흥s클래스프라디움,3611011200,세종특별자치시,,고운동,,세종특별자치시  고운동 1724 가락마을7단지중흥s클래스프라디움,분양,지역난방,96801.62,10,572.0,중흥종합건설(주),주식회사씨티건설,0448637333,,아파트,세종특별자치시  마음안로 130,위탁관리,혼합식,20151209,0448637303,572,48569.68,0.0,572.0,0.0,0.0,48569.6796,25,25,2,20,30101,36.5135317486509,127.233364713075
A10027787,가락마을6단지 중흥S-클래스프라디움,3611011200,세종특별자치시,,고운동,,세종특별자치시  고운동 739-63 가락마을6단지 중흥S-클래스프라디움,분양,지역난방,126338.734,14,887.0,(주)시티건설산업,(주)시티건설산업,0448626333,karak6.aptner.com,아파트,세종특별자치시  마음로 14,위탁관리,계단식,20151209,0448626335,887,73908.04,887.0,0.0,0.0,0.0,52994.9716,29,29,3,30,30063,36.5026188021609,127.239798092043
A10027857,가락마을5단지 유승한내들,3611011200,세종특별자치시,,고운동,,세종특별자치시  고운동 739-112 가락마을5단지 유승한내들,분양,지역난방,95392.805,10,663.0,(주)유승종합건설,(주)유승종합건설,0448686456,garak5.oitalk.net/,아파트,세종특별자치시  마음안로 34,위탁관리,계단식,20150819,0448686531,663,61445.55,435.0,228.0,0.0,0.0,45379.1752,29,29,2,20,30101,36.5086790679683,127.238765895008
A10027878,가락마을15단지,3611011200,세종특별자치시,,고운동,,세종특별자치시  고운동 175 가락마을15단지,분양,지역난방,53161.027,7,365.0,(주) 중흥건설,(주) 세종그린,0448680288,,아파트,세종특별자치시  마음안로 190,위탁관리,계단식,20150831,0448680279,365,35091.465,140.0,225.0,0.0,0.0,26365.634,18,18,1,13,30101,36.5157578036765,127.237190062644
A10027889,가락마을17단지아파트,3611011200,세종특별자치시,,고운동,,세종특별자치시  고운동 1386 가락마을17단지아파트,분양,지역난방,69513.55,10,508.0,보광건설,골드클래스,0448622502,www.raybol.net/e00091,아파트,세종특별자치시  마음안1로 167,위탁관리,계단식,20150909,0448662502,508,42064.86,508.0,0.0,0.0,0.0,30446.1802,18,18,2,3,30062,36.5184516322314,127.237320646385
A10027915,가락마을10단지,3611011200,세종특별자치시,,고운동,,세종특별자치시  고운동 747 가락마을10단지,분양,지역난방,158684.97,17,900.0,(주)라인,이지건설(주),0448659978,,아파트,세종특별자치시  마음로 181,위탁관리,계단식,20150710,0448659980,900,103086.92,0.0,618.0,282.0,0.0,78883.215,18,18,1,30,30062,36.5148470829088,127.228000599068
A10027926,에듀센트럴 가락마을21단지,3611011200,세종특별자치시,,고운동,,세종특별자치시  고운동 326 에듀센트럴 가락마을21단지,분양,지역난방,66235.305,5,406.0,(주)모아종합건설,모아건설(주),0448681528,가락마을21단지.apti.co.kr/,아파트,세종특별자치시  마음안로 221,위탁관리,계단식,20150820,0448671528,406,47718.74,0.0,268.0,138.0,0.0,36564.772,27,27,1,11,30062,36.51846858104,127.239840178754
A10028013,세종5차 호반베르디움 가락마을20단지아파트,3611011200,세종특별자치시,,고운동,,세종특별자치시  고운동 162 세종5차 호반베르디움 가락마을20단지아파트,분양,지역난방,123633.0,10,688.0,호반건설,티에스주택,0448688607,http://mo-vill.com/30101_5th,아파트,세종특별자치시  만남로 190,위탁관리,계단식,20150605,0448688608,688,70087.766,198.0,490.0,0.0,0.0,53505.1989,25,25,2,20,30101,36.5170635630589,127.241017466402
A10028038,가락마을16단지(에듀그린),3611011200,세종특별자치시,,고운동,,세종특별자치시  고운동 174-2 가락마을16단지(에듀그린),분양,지역난방,64530.734,6,463.0,(주)한양,한국자산신탁,0448667684,,아파트,세종특별자치시  만남로 187,위탁관리,계단식,20150123,0448677684,463,46921.06,171.0,292.0,0.0,0.0,35035.787,29,29,1,12,30101,36.5155457244987,127.238834881321
A10028136,가락마을9단지아파트,3611011200,세종특별자치시,,고운동,,세종특별자치시  고운동 760 가락마을9단지아파트,분양,지역난방,78059.14,9,538.0,신동아파밀리에,신동아파밀리에,0448665839,가락마을9단지.apti.co.kr,아파트,세종특별자치시  마음로 151,위탁관리,계단식,20150316,0448685839,538,52160.383,296.0,242.0,0.0,0.0,38319.688,17,17,2,16,30063,36.5121056347724,127.229013128159
A10028175,가락마을8단지,3611011200,세종특별자치시,,고운동,,세종특별자치시  고운동 1706 가락마을8단지,분양,지역난방,138186.56,11,982.0,한신공영(주),한국토지주택공사(주),0448668685,movill.net/30101_8,아파트,세종특별자치시  만남로 92,위탁관리,계단식,20150108,0448668695,995,137900.36,0.0,982.0,0.0,0.0,77188.34,25,25,1,24,30101,36.5056980185585,127.240753284994
A33980020,가락마을3단지,3611011200,세종특별자치시,,고운동,,세종특별자치시  고운동 235 가락마을3단지,분양,지역난방,59006.06,8,424.0,호반건설,티에스주택,0448661078,,아파트,세종특별자치시  마음안로 47,위탁관리,계단식,20141107,0448661079,424,40657.184,206.0,218.0,0.0,0.0,30864.696,18,18,1,16,30063,36.5056254096208,127.236187890858
A33980021,가락마을4단지아파트,3611011200,세종특별자치시,,고운동,,세종특별자치시  고운동 1703 가락마을4단지아파트,분양,지역난방,45359.24,6,305.0,(주)라인이노텍,(주)라인이노텍,0448686338,garack4@naver.com,아파트,세종특별자치시  마음안로 48,위탁관리,계단식,20141219,0448686339,306,27487.016,194.0,111.0,0.0,0.0,20470.8489,17,17,2,9,30101,36.5067997245303,127.23726788421
A10027683,범지기3단지아파트,3611011300,세종특별자치시,,아름동,,세종특별자치시  아름동 1297 범지기3단지아파트,분양,지역난방,151410.83,14,852.0,중흥에스클래스,중흥건설,0448666878,,아파트,세종특별자치시  달빛1로 206,위탁관리,계단식,20151211,0448666879,852,101621.48,0.0,358.0,494.0,0.0,77922.8048,29,29,2,22,30100,36.5154012228372,127.246215630694
A10027810,범지기마을1단지,3611011300,세종특별자치시,,아름동,,세종특별자치시  아름동 104-2 범지기마을1단지,분양,중앙난방,113901.0,12,818.0,보성건설,한양건설,0448687468,educentum.aptner.com/,아파트,세종특별자치시  절재로 13,위탁관리,계단식,20151008,0448687469,818,81253.21,287.0,531.0,0.0,0.0,60422.2602,29,29,1,23,30100,36.51042040047,127.242103596946
A10028118,범지기마을9단지,3611011300,세종특별자치시,,아름동,,세종특별자치시  아름동 300 범지기마을9단지,분양,지역난방,113864.0,9,687.0,한신공영(주),한신공영(주),0448676306,https://cafe.daum.net/sejongelitepark,아파트,세종특별자치시  달빛1로 206,위탁관리,기타,20150331,0448676308,688,82955.734,0.0,279.0,408.0,0.0,64502.4423,29,29,2,19,30100,36.5154012228372,127.246215630694
A10028155,범지기마을12단지(중흥S-에코타운),3611011300,세종특별자치시,,아름동,,세종특별자치시  아름동 81 범지기마을12단지(중흥S-에코타운),분양,지역난방,75536.46,8,452.0,중흥건설(주),(주)신세종,0448666845,beomjigi12.apti.co.kr,아파트,세종특별자치시  보듬3로 74,위탁관리,계단식,20150209,0448666847,452,41471.51,0.0,176.0,276.0,0.0,41472.048,20,20,1,16,30100,36.5119004853426,127.250941661707
A33980007,범지기마을8단지,3611011300,세종특별자치시,,아름동,,세종특별자치시  아름동 1279 범지기마을8단지,분양,개별난방+기타,93835.0,11,622.0,대우건설,대우건설,0448642284,beomjigi8apt.com/,아파트,세종특별자치시  달빛로 165,위탁관리,계단식,20131211,0448642286,622,51313.453,0.0,622.0,0.0,0.0,51313.4368,19,19,2,19,30100,36.5129216023484,127.248391943781
A33980012,범지기마을5단지6단지,3611011300,세종특별자치시,,아름동,,세종특별자치시  아름동 100-1 범지기마을5단지6단지,임대,지역난방,128926.266,11,1029.0,금호건설,공무원연금관리공단,0448688185,,아파트,세종특별자치시  달빛로 135,위탁관리,계단식,20140707,0448688187,1029,86629.25,600.0,429.0,0.0,0.0,61858.417,26,26,2,29,30100,36.510032402706,127.248656099436
A33980014,범지기마을 4단지(한양수자인 에듀시티),3611011300,세종특별자치시,,아름동,,세종특별자치시  아름동 109 범지기마을 4단지(한양수자인 에듀시티),분양,지역난방,58015.84,8,520.0,(주)한양,(주)한양,0448627684,siapt52@hanmail.net,아파트,세종특별자치시  달빛로 109,위탁관리,계단식,20140701,0448637684,520,57632.88,0.0,520.0,0.0,0.0,44125.536,29,29,1,12,30100,36.5093676126586,127.24783738961
A33980030,범지기마을11단지아파트,3611011300,세종특별자치시,,아름동,,세종특별자치시  아름동 76-4 범지기마을11단지아파트,혼합,지역난방,92929.61,9,587.0,(주)영무토건,(주)영무건설,0448689480,,아파트,세종특별자치시  보듬3로 73,위탁관리,계단식,20140926,0448689481,587,65593.37,0.0,587.0,0.0,0.0,49884.2472,28,28,3,18,30100,36.5110762901863,127.252095527387
A33980032,범지기마을7단지,3611011300,세종특별자치시,,아름동,,세종특별자치시  아름동 1284 범지기마을7단지,분양,지역난방,75719.25,9,470.0,호반건설(주),티에스건설 (주),0448674044,www.세종범지기7단지.apti.co.kr,아파트,세종특별자치시  달빛1로 158,위탁관리,계단식,20141104,0448674045,470,51712.14,0.0,470.0,0.0,0.0,39864.217,22,22,2,19,30100,36.5132156294996,127.246271559049
A33982109,범지기마을10단지,3611011300,세종특별자치시,,아름동,,세종특별자치시  아름동 293 범지기마을10단지,분양,지역난방,297996.28,23,1970.0,(주)대우건설,(주)대우건설,0448686933,www.sjprugio10.com,아파트,세종특별자치시  달빛로 211,위탁관리,계단식,20140818,0448686936,1970,217013.73,0.0,1784.0,186.0,0.0,166783.1798,30,30,2,42,30100,36.519170523896,127.25163389144
A10024586,세종도램마을16~19단지,3611011400,세종특별자치시,,도담동,,세종특별자치시  도담동 1401-7 세종도램마을16~19단지,분양,지역난방,114155.734,15,723.0,(주)모아종합건설/(주)씨에이치아이건설,(주)모아종합건설/(주)씨에이치아이건설,0448686318,zigbangmovill.com/,아파트,세종특별자치시  보듬4로 85,위탁관리,계단식,20150508,0448687318,723,82272.02,0.0,617.0,106.0,0.0,83942.6336,18,18,1,22,30097,36.5145716134523,127.266836377027
A10027058,도램마을11단지,3611011400,세종특별자치시,,도담동,,세종특별자치시  도담동 653 도램마을11단지,분양,지역난방,94715.57,8,580.0,반도건설,반도건설,0448659071,cafe.naver.com/sejongubora,주상복합,세종특별자치시  보듬4로 9,위탁관리,계단식,20170321,0448650933,580,65130.56,0.0,580.0,0.0,0.0,49289.8444,30,30,2,14,30098,36.5131131389938,127.260704077872
A10027675,까사리움,3611011400,세종특별자치시,,도담동,,세종특별자치시  도담동 651 까사리움,분양,지역난방,13547.324,1,175.0,파인건설(주),코람코신탁,0448665978,,주상복합,세종특별자치시  한누리대로 587,위탁관리,복도식,20151231,0448665974,175,6191.951,175.0,0.0,0.0,0.0,3997.2,8,8,4,5,30098,36.5156201009686,127.258447862773
A10027761,제일풍경채도램9단지,3611011400,세종특별자치시,,도담동,,세종특별자치시  도담동 1402-8 제일풍경채도램9단지,분양,지역난방,131611.0,11,700.0,제일건설,한국자산신탁(주),0448638034,,아파트,세종특별자치시  보람로 15,위탁관리,계단식,20150619,0448638035,700,90528.195,0.0,0.0,700.0,0.0,69165.223,29,29,1,24,30098,36.5106312427802,127.263587722513
A10027967,도램마을6단지(공무원 통합관사),3611011400,세종특별자치시,,도담동,,세종특별자치시  도담동 151-5 도램마을6단지(공무원 통합관사),사택 및 관사 등,지역난방,23753.86,4,350.0,대웅건설,한국자산관리공사,0448656366,,아파트,세종특별자치시  한누리대로 511,관리방식미정,복도식,20150610,0448659666,350,23634.2,350.0,0.0,0.0,0.0,8063.28,15,15,1,9,30098,36.5094831828645,127.260588756716
A10028070,도램마을14단지,3611011400,세종특별자치시,,도담동,,세종특별자치시  도담동 858 도램마을14단지,분양,지역난방,180274.3,14,979.0,한림건설(주),한림건설(주),0448665811,mo-vill.com/doraem14,아파트,세종특별자치시  보듬2로 42,위탁관리,계단식,20150430,0448665813,979,128861.8,0.0,0.0,974.0,5.0,99729.596,30,30,2,2,30098,36.511043911005,127.26649461294
A10028134,도램마을5단지,3611011400,세종특별자치시,,도담동,,세종특별자치시  도담동 260 도램마을5단지,분양,지역난방,54724.0,5,403.0,혜림건설(주),모아주택산업(주),0448679880,doram5.apti.co.kr,아파트,세종특별자치시  다솜1로 220,위탁관리,계단식,20150115,0448679881,403,33564.598,403.0,0.0,0.0,0.0,24147.8064,29,29,2,10,30098,36.518128957912,127.256631385834
A33980010,도램마을1단지,3611011400,세종특별자치시,,도담동,,세종특별자치시  도담동 311-1 도램마을1단지,분양,지역난방,110358.18,10,732.0,극동건설,웅진,0448665041,,아파트,세종특별자치시  다솜1로 140,위탁관리,계단식,20140416,0448675041,732,54453.95,310.0,422.0,0.0,0.0,54453.91,25,25,2,20,30098,36.5115065271044,127.256438050529
A33980011,도램마을2.3단지,3611011400,세종특별자치시,,도담동,,세종특별자치시  도담동 297-1 도램마을2.3단지,분양,지역난방,77183.63,9,610.0,극동건설(주),극동건설(주),0448661972,,아파트,세종특별자치시  다솜1로 164,위탁관리,계단식,20140502,0448671972,610,47039.555,610.0,0.0,0.0,0.0,33025.65,22,22,2,20,30098,36.512894793587,127.255874289437
A33980017,도램마을10단지,3611011400,세종특별자치시,,도담동,,세종특별자치시  도담동 181-1 도램마을10단지,분양,지역난방,103177.0,10,678.0,호반건설(주),티에스개발(주),0448637510,,아파트,세종특별자치시  보듬4로 20,위탁관리,계단식,20141104,0448638510,678,74300.67,0.0,678.0,0.0,0.0,57504.018,30,30,1,19,30098,36.5108691968191,127.261188967524
A33980019,엘가도램마을12단지,3611011400,세종특별자치시,,도담동,,세종특별자치시  도담동 651 엘가도램마을12단지,분양,지역난방,33266.59,4,190.0,혜림건설(주),(주)모아주택산업,0448660830,dr12apt@naver.com,아파트,세종특별자치시  보듬4로 19,위탁관리,계단식,20140926,0448660892,190,22478.07,0.0,62.0,128.0,0.0,17817.226,19,19,1,8,30098,36.5133647855639,127.262450925741
A33980022,도램마을4단지,3611011400,세종특별자치시,,도담동,,세종특별자치시  도담동 275 도램마을4단지,분양,지역난방,22672.92,4,159.0,(주)라인산업,라인이노텍,0448686361,dr6361.aptsaram.co.kr,아파트,세종특별자치시  다솜1로 200,위탁관리,계단식,20141217,0448686362,159,12948.33,159.0,0.0,0.0,0.0,9536.9522,18,18,2,4,30098,36.5158507763674,127.256536671952
A33980023,도램마을13단지아파트,3611011400,세종특별자치시,,도담동,,세종특별자치시  도담동 260-387 도램마을13단지아파트,분양,지역난방,123489.28,15,965.0,중흥건설,중흥주택,0448681025,,아파트,세종특별자치시  보람로 95,위탁관리,계단식,20141023,0448681026,965,78551.97,965.0,0.0,0.0,0.0,57044.238,25,25,2,26,30098,36.5163360970338,127.261411753688
A33980024,도램마을15단지(세종힐스테이트),3611011400,세종특별자치시,,도담동,,세종특별자치시  도담동 381 도램마을15단지(세종힐스테이트),분양,지역난방,137826.97,9,876.0,현대건설,현대건설,0448686634,doram15.aptner.com/v2,아파트,세종특별자치시  보듬2로 43,위탁관리,계단식,20141205,0448686636,876,99030.73,0.0,876.0,0.0,0.0,74375.537,30,30,2,19,30098,36.5127859483206,127.2638110451
A33980025,도램마을7단지,3611011400,세종특별자치시,,도담동,,세종특별자치시  도담동 176 도램마을7단지,임대,지역난방,40874.875,4,400.0,계성건설,행정중심복합도시건설청,0448632280,,아파트,세종특별자치시  보듬1로 12,위탁관리,혼합식,20141021,0448632287,400,40604.176,400.0,0.0,0.0,0.0,20716.42,20,20,1,9,30098,36.5099603850103,127.259950368993
A33980027,라온프라이빗시티1차,3611011400,세종특별자치시,,도담동,,세종특별자치시  도담동 664 라온프라이빗시티1차,분양,지역난방,14930.01,1,290.0,(주)라온산업개발,행복도시2상가개발(주),0448686452,홈페이지 없음,아파트,세종특별자치시  보듬3로 8-12,위탁관리,복도식,20141112,0448686453,290,8527.221,290.0,0.0,0.0,0.0,5906.6449,8,8,3,4,30098,36.5134266970215,127.258778830199
A33980028,도램마을20단지아파트,3611011400,세종특별자치시,,도담동,,세종특별자치시  도담동 43-5 도램마을20단지아파트,분양,지역난방,105529.78,10,718.0,(주)한양,(주)아시아신탁,0448642078,,아파트,세종특별자치시  보람로 96,위탁관리,계단식,20140926,0448642079,718,60936.29,0.0,718.0,0.0,0.0,60936.39,30,30,0,18,30098,36.5178215598647,127.26268234061
A33980029,라온프라이빗시티2차,3611011400,세종특별자치시,,도담동,,세종특별자치시  도담동 235-9 라온프라이빗시티2차,분양,지역난방,19190.979,1,291.0,라온산업개발(주),행복도시2상가개발(주),0448686642,,도시형 생활주택(아파트),세종특별자치시  보듬3로 6,위탁관리,복도식,20141112,0448686643,291,8667.96,291.0,0.0,0.0,0.0,6061.8349,8,8,3,6,30098,36.5128535715887,127.258941139226
A33982108,도램마을8단지,3611011400,세종특별자치시,,도담동,,세종특별자치시  도담동 202 도램마을8단지,임대,지역난방,37881.62,3,500.0,LH,행복청,0448622244,,아파트,세종특별자치시  보듬3로 7,위탁관리,복도식,20120919,0448662247,503,18619.5,500.0,0.0,0.0,0.0,18619.5,20,20,0,2,30098,36.5111425433015,127.258404397183
A10020719,산울마을 도심형주택1단지,3611011500,세종특별자치시,,산울동,,세종특별자치시  산울동 - 산울마을 도심형주택1단지,임대,지역난방,20135.682,2,200.0,계룡건설,LH한국토지주택공사,0448641180,,도시형 생활주택(주상복합),세종특별자치시  산울1로 34,위탁관리,복도식,20250317,0448641190,200,18887.67,200.0,0.0,0.0,0.0,5826.42,1,7,0,6,,36.5279631730417,127.262455794636
A10020752,산울마을도심형주택2단지,3611011500,세종특별자치시,,산울동,,세종특별자치시  산울동 378-4 산울마을도심형주택2단지,임대,지역난방,20363.508,2,216.0,계룡건설,한국토지주택공사(LH),0448622250,,도시형 생활주택(주상복합),세종특별자치시  산울1로 30,위탁관리,복도식,20250317,0448622260,216,19137.988,216.0,0.0,0.0,0.0,5724.58,7,7,4,5,,36.5276401311965,127.262200458984
A10020893,산울마을8단지아파트,3611011500,세종특별자치시,,산울동,,세종특별자치시  산울동 7- 산울마을8단지아파트,혼합,지역난방,158319.53,16,1035.0,계룡건설,"LH, 계룡건설",0444149021,,아파트,세종특별자치시  산울7로 10,위탁관리,계단식,20250124,07043249021,1035,94527.33,475.0,560.0,0.0,0.0,70153.68,29,29,2,36,,36.5318818477839,127.266187769887
A10022448,산울마을2단지(세종자이 더 시티 아파트),3611011500,세종특별자치시,,산울동,,세종특별자치시  산울동 259- 산울마을2단지(세종자이 더 시티 아파트),분양,지역난방,256813.0,24,1350.0,"GS건설(주),(주)태영건설,한신공영(주)","GS건설(주),(주)태영건설,한신공영(주)",0447155086,,,세종특별자치시  산울3로 45,위탁관리,계단식,20240621,0447155087,1350,180338.4,0.0,150.0,1154.0,46.0,145365.528,24,24,0,59,,36.5304459079859,127.258423595246
A10022716,산울마을7단지,3611011500,세종특별자치시,,산울동,,세종특별자치시  산울동 152-1 산울마을7단지,분양,지역난방,158306.98,10,770.0,금호건설,금호건설,0448627702,,아파트,세종특별자치시  산울7로 11,위탁관리,계단식,20240307,0448627703,770,83387.195,140.0,562.0,68.0,0.0,62048.7481,34,34,3,36,30091,36.5322046654215,127.264637526304
A10022718,산울마을6단지,3611011500,세종특별자치시,,산울동,,세종특별자치시  산울동 313-14 산울마을6단지,분양,지역난방,72414.52,6,580.0,신동아건설,"금호산업(주),신동아건설(주),(주)에이치엠지파트너스",0448657734,,주상복합,세종특별자치시  산울2로 10,위탁관리,혼합식,20240307,0448657735,580,62239.93,220.0,290.0,70.0,0.0,45476.9096,35,35,3,0,30091,36.5296440869953,127.262334403956
A10022869,산울마을5단지(세종파밀리에더파크),3611011500,세종특별자치시,,산울동,,세종특별자치시  산울동  산울마을5단지(세종파밀리에더파크),분양,지역난방,143695.61,14,995.0,신동아건설,한국토지주택공사,0442726601,,아파트,세종특별자치시  산울2로 40,위탁관리,계단식,20231218,0442726602,996,89159.24,730.0,265.0,0.0,0.0,64911.06,29,29,2,32,30091,36.5299493167079,127.259777283372
A10022644,세종하늘채펜트라움2블럭,3611011600,세종특별자치시,,해밀동,,세종특별자치시  해밀동  세종하늘채펜트라움2블럭,분양,지역난방,29397.0,1,163.0,코오롱글로벌,더시티(주),0448651445,,,세종특별자치시  해밀3로 17,위탁관리,혼합식,20240328,0448651445,163,12279.767,163.0,0.0,0.0,0.0,7000.5728,7,7,4,0,30092,36.5264789062828,127.262651537801
A10022653,세종하늘채펜트라움1블럭,3611011600,세종특별자치시,,해밀동,,세종특별자치시  해밀동  세종하늘채펜트라움1블럭,분양,지역난방,28295.0,1,166.0,코오롱글로벌,더파트너스(주),0448651445,,,세종특별자치시  해밀3로 27,위탁관리,혼합식,20240328,028651446,166,12474.536,166.0,0.0,0.0,0.0,7161.4707,7,7,4,0,30092,36.5272023585394,127.263138574773
A10022975,해밀마을행복주택,3611011600,세종특별자치시,,해밀동,,세종특별자치시  해밀동  해밀마을행복주택,임대,지역난방,62975.84,1,609.0,금성백조,한국토지주택공사,0448631223,해밀마을행복주택.apti.co.kr,주상복합,세종특별자치시  해밀3로 85,위탁관리,복도식,20231018,0448641223,609,53645.277,609.0,0.0,0.0,0.0,19094.81,7,7,2,12,30092,36.5308193318474,127.267703962279
A10024617,해밀마을2단지 세종마스터힐스,3611011600,세종특별자치시,,해밀동,,세종특별자치시  해밀동 118 해밀마을2단지 세종마스터힐스,분양,지역난방,212474.31,22,1110.0,현대건설(주),"현대건설(주),한림건설(주),(주)태영건설",0448687692,masterhills2.aptner.com/,아파트,세종특별자치시  해밀3로 90,위탁관리,계단식,20200928,0448688648,1110,137094.44,0.0,614.0,496.0,0.0,105961.93,25,25,2,51,30092,36.5302332317759,127.268421934491
A10024624,해밀마을1단지 세종마스터힐스,3611011600,세종특별자치시,,해밀동,,세종특별자치시  해밀동 6-4 해밀마을1단지 세종마스터힐스,분양,지역난방,319227.7,44,1990.0,"한림건설, 태영건설",현대건설,0442727741,masterhills1.aptner.com,아파트,세종특별자치시  해밀3로 32,위탁관리,계단식,20200928,0442727742,1990,202792.73,930.0,780.0,280.0,0.0,153734.87,25,25,2,0,30092,36.5293454219315,127.267175979123
A10023685,새나루마을10단지아파트,3611011800,세종특별자치시,,집현동,,세종특별자치시  집현동 170-1 새나루마을10단지아파트,혼합,지역난방,77045.64,7,597.0,신동아건설,한국토지주택공사,0448622983,새나루마을10단지.apti.co.kr,아파트,세종특별자치시  시청대로 643,위탁관리,계단식,20220823,0448622983,597,46716.246,597.0,0.0,0.0,0.0,33342.32,20,20,2,0,30141,36.4932789756531,127.324434481782
A10023806,새나루마을8단지,3611011800,세종특별자치시,,집현동,,세종특별자치시  집현동 883-72 새나루마을8단지,분양,지역난방,52768.18,7,499.0,"동부건설, 코오롱글로벌",한국토지주택공사 코오롱하늘채(주),0448687401,https://sejonghc8.aptner.com,아파트,세종특별자치시  집현서로 16,위탁관리,혼합식,20220318,0448687402,499,51139.84,164.0,235.0,100.0,0.0,39274.59,29,29,1,13,30141,36.4901402208978,127.321783641479
A10024019,새나루마을2단지,3611011800,세종특별자치시,,집현동,,세종특별자치시  집현동 4201-3001 새나루마을2단지,분양,지역난방,41715.0,6,318.0,"코오롱글로벌(주), 동부건설(주)","한국토지주택공사, 코오롱글로벌(주), 동부건설(주)",0448689849,cafe.naver.com/sejonghanulche2,아파트,세종특별자치시  집현서로 15,위탁관리,계단식,20211118,0448689850,318,27160.205,218.0,100.0,0.0,0.0,39335.9,20,20,1,0,30141,36.488136403993,127.321919876415
A10024038,새나루마을1단지아파트,3611011800,세종특별자치시,,집현동,,세종특별자치시  집현동 883-139 새나루마을1단지아파트,분양,지역난방,204812.28,18,1200.0,"LH, GS자이, Dl이앤씨",LH,0447155993,,아파트,세종특별자치시  남세종로 160,위탁관리,계단식,20211125,0447155994,1213,143115.45,0.0,720.0,467.0,13.0,114983.17,25,25,2,49,30144,36.4880401629684,127.31785163798
A10024041,새나루마을9단지아파트,3611011800,세종특별자치시,,집현동,,세종특별자치시  집현동 883-11 새나루마을9단지아파트,분양,지역난방,91179.47,8,598.0,금호건설,"LH 한국토지주택공사, 금호건설, 신동아건설",0448682208,,아파트,세종특별자치시  시청대로 642,위탁관리,계단식,20211118,0448682209,598,62106.74,234.0,194.0,170.0,0.0,47606.96,29,29,2,0,30141,36.4929200559595,127.322869251507
A10024043,새나루마을 11단지,3611011800,세종특별자치시,,집현동,,세종특별자치시  집현동  새나루마을 11단지,분양,지역난방,85633.14,9,612.0,"금호건설,신동아건설","금호건설,신동아건설",0448646608,,아파트,세종특별자치시  집현서2로 84,위탁관리,계단식,20211118,0448646609,612,55136.82,314.0,298.0,0.0,0.0,41516.13,29,29,2,24,30141,36.4970773678161,127.322863962964
A10024044,새나루마을3단지,3611011800,세종특별자치시,,집현동,,세종특별자치시  집현동 883-52 새나루마을3단지,분양,지역난방,81267.21,9,508.0,"한신공영, 금성백조","한신공영, 금성백조",0448687827,sjthyemizi2.com,아파트,세종특별자치시  집현서로 45,위탁관리,계단식,20211118,0448687828,508,52855.99,131.0,297.0,80.0,0.0,40846.86,20,20,1,0,30141,36.4915466033424,127.321233997914
A10024055,새나루마을4단지,3611011800,세종특별자치시,,집현동,,세종특별자치시  집현동 883-23 새나루마을4단지,분양,지역난방,50742.3,6,338.0,"한신공영(주), 금성백조",한국토지주택공사,0448688230,sjthyemizi1.com,아파트,세종특별자치시  집현서로 57,위탁관리,계단식,20211118,0448688231,338,33089.367,178.0,101.0,59.0,0.0,24991.37,20,20,1,2,30141,36.4929191348064,127.322009646365
A10024354,새나루마을12단지,3611011800,세종특별자치시,,집현동,,세종특별자치시  집현동 422 새나루마을12단지,임대,지역난방,95096.98,7,1500.0,남양건설(주),한국토지주택공사,0448632301,새나루마을12단지.apti.co.kr,아파트,세종특별자치시  집현북로 52,위탁관리,복도식,20210318,0448632302,1500,95096.63,1500.0,0.0,0.0,0.0,42112.8,18,18,1,22,30140,36.5016397061701,127.325129592904
A10021691,조치원 한신더휴,3611025000,세종특별자치시,,조치원읍,,세종특별자치시  조치원읍  26-1 조치원 한신더휴,분양,개별난방,33494.457,2,256.0,한신공영(주),교동아파트재건축정비사업조함,0448628808,http://thehue24.aptner.com,주상복합,세종특별자치시  조치원1길 29,위탁관리,계단식,20241021,0448628858,256,23317.559,0.0,0.0,256.0,0.0,23317.5579,29,0,2,0,,36.6028321842608,127.296888074626
A10020604,조치원역 행복주택,3611025021,세종특별자치시,,조치원읍,원리,세종특별자치시  조치원읍 원리 141-53 조치원역 행복주택,임대,개별난방,12392.43,3,151.0,대웅건설,한국토지주택공사,0442189542,,주상복합,세종특별자치시  충현로 154,위탁관리,복도식,20250520,0442189543,151,10402.622,151.0,0.0,0.0,0.0,4564.41,13,13,0,3,,36.6032156081169,127.294896191692
A33980008,조치원목화,3611025024,세종특별자치시,,조치원읍,교리,세종특별자치시  조치원읍 교리 12 조치원목화,분양,개별난방,14658.53,1,126.0,대창건설,대창건설,0448675911,,아파트,세종특별자치시  새내17길 7,위탁관리,혼합식,19940415,0448675912,126,12872.94,66.0,30.0,30.0,0.0,10365.9,15,15,1,9,30023,36.6045884373492,127.296589230434
A33980107,계룡아파트,3611025024,세종특별자치시,,조치원읍,교리,세종특별자치시  조치원읍 교리 11-1 계룡아파트,분양,개별난방,14361.94,2,156.0,계룡건설,계룡건설,0448640173,,아파트,세종특별자치시  새내로 143,위탁관리,복도식,19890529,0448640175,157,14319.865,84.0,72.0,0.0,0.0,10747.44,12,12,1,2,30023,36.6043675771531,127.297308953024
A33980110,연기 조치원현대아파트,3611025024,세종특별자치시,,조치원읍,교리,세종특별자치시  조치원읍 교리 140 연기 조치원현대아파트,분양,개별난방,24000.43,2,222.0,현대건설,중부산업,0448658330,,아파트,세종특별자치시  새내로 165,위탁관리,계단식,19920120,0448628331,222,23326.783,0.0,222.0,0.0,0.0,18867.78,15,15,1,8,30023,36.6066712952019,127.296530589221
A33980201,파크리안,3611025027,세종특별자치시,,조치원읍,남리,세종특별자치시  조치원읍 남리 456 파크리안,분양,개별난방,47921.914,3,392.0,다원주택(유),다원주택(유),0448631657,cafe.naver.com/dwparkrian,아파트,세종특별자치시  산책2길 8,위탁관리,계단식,20030326,0448651658,392,40235.12,0.0,392.0,0.0,0.0,32112.072,15,15,0,15,30035,36.5939710864743,127.300308969193
A33980705,욱일아파트,3611025028,세종특별자치시,,조치원읍,침산리,세종특별자치시  조치원읍 침산리 89 욱일아파트,분양,개별난방,134102.34,13,1208.0,"1차:욱일건설, 2차:주은산업","1차:욱일건설,2차:주은산업",0448674660,wookil4660.apti.co.kr/apthome/default.asp,아파트,세종특별자치시  충현로 159,위탁관리,계단식,19960523,0448674661,1208,112254.62,596.0,432.0,180.0,0.0,93693.484,25,25,1,30,30021,36.60293108309,127.294181259826
A33975104,조치원신흥주공2,3611025029,세종특별자치시,,조치원읍,신흥리,세종특별자치시  조치원읍 신흥리 393 조치원신흥주공2,분양,개별난방,93164.0,10,974.0,"계룡건설, 삼정건설",대한주택공사,0448658306,,아파트,세종특별자치시  이화로 5,위탁관리,혼합식,19990506,0448658307,974,92400.62,654.0,320.0,0.0,0.0,63221.66,20,20,1,20,30032,36.594700138431,127.28869965575
A33980703,조치원신흥이편한세상,3611025029,세종특별자치시,,조치원읍,신흥리,세종특별자치시  조치원읍 신흥리 399 조치원신흥이편한세상,분양,개별난방,117681.0,10,681.0,(주)삼호,(주)수피리오,0448665567,신흥e편한.apti.co.kr,아파트,세종특별자치시  이화1로 15,위탁관리,계단식,20080901,0448665569,681,91876.85,0.0,409.0,172.0,100.0,71040.626,21,21,2,20,30031,36.5934739987856,127.285050287239
A33980721,신흥푸르지오아파트,3611025029,세종특별자치시,,조치원읍,신흥리,세종특별자치시  조치원읍 신흥리 398 신흥푸르지오아파트,분양,개별난방,129033.38,12,802.0,(주)대우건설,금성유리(주),0448680025,,아파트,세종특별자치시  도원1로 16,위탁관리,계단식,20060829,0448680027,802,103120.52,0.0,412.0,330.0,60.0,80877.1716,15,15,1,27,30032,36.591854059277,127.289890254372
A33988406,조치원자이,3611025030,세종특별자치시,,조치원읍,죽림리,세종특별자치시  조치원읍 죽림리 396 조치원자이,분양,개별난방,231445.66,25,1429.0,GS건설,천도건설,0448683556,sjxiapt.com,아파트,세종특별자치시  도원로 16,위탁관리,계단식,20081030,0448683558,1429,177107.44,0.0,1039.0,346.0,44.0,139382.8267,15,15,1,55,30039,36.5911922896369,127.291135680237
A33988408,삼정하이츠,3611025030,세종특별자치시,,조치원읍,죽림리,세종특별자치시  조치원읍 죽림리 167 삼정하이츠,분양,개별난방,15932.76,1,173.0,삼정종합건설,삼정종합건설,0448650473,,아파트,세종특별자치시  도장말길 45,위탁관리,혼합식,19910126,0448650473,173,15847.107,0.0,173.0,0.0,0.0,12668.73,15,15,1,4,30037,36.5911004623479,127.296473577839
A33988409,삼일아파트,3611025030,세종특별자치시,,조치원읍,죽림리,세종특별자치시  조치원읍 죽림리 21-2 삼일아파트,분양,개별난방,16381.66,1,160.0,삼일주택공사,삼일주택공사,0448626196,없슴,주상복합,세종특별자치시  충현로 72,자치관리,계단식,19940915,0448656196,177,14659.492,128.0,32.0,0.0,0.0,10368,17,17,1,5,30034,36.5953483883018,127.297036980376
A33988411,죽림푸르지오아파트,3611025030,세종특별자치시,,조치원읍,죽림리,세종특별자치시  조치원읍 죽림리 389 죽림푸르지오아파트,분양,개별난방,44155.0,5,286.0,(주)대우건설,(주)원산,0448688802,죽림.apti.co.kr,아파트,세종특별자치시  죽림본로 33-6,위탁관리,계단식,20070530,0448628802,286,34149.023,0.0,172.0,114.0,0.0,26565.8232,15,15,2,10,30037,36.5910168324477,127.294803955524
A33988413,죽림신동아파밀리에,3611025030,세종특별자치시,,조치원읍,죽림리,세종특별자치시  조치원읍 죽림리 393 죽림신동아파밀리에,분양,개별난방,45338.0,5,291.0,신동아건설(주),(주)랜드유,0448644898,,아파트,세종특별자치시  도장말길 30,위탁관리,계단식,20080616,0448664898,291,29071.354,0.0,180.0,102.0,9.0,29071.3532,15,15,1,8,30037,36.5901501605231,127.297469635838
A33988416,조치원신동아아파트,3611025030,세종특별자치시,,조치원읍,죽림리,세종특별자치시  조치원읍 죽림리 158 조치원신동아아파트,분양,개별난방,46447.31,3,459.0,신동아건설(주),신동아건설(주),0448669738,,아파트,세종특별자치시  산막2길 7,위탁관리,혼합식,19960523,0448655139,459,44011.86,226.0,197.0,36.0,0.0,34383.58,20,20,0,10,30034,36.5931924539081,127.296802196298
A33988419,죽림우방유쉘아파트,3611025030,세종특별자치시,,조치원읍,죽림리,세종특별자치시  조치원읍 죽림리 72 죽림우방유쉘아파트,분양,개별난방,83767.72,9,513.0,우방,이디도시,0448638678,,아파트,세종특별자치시  산막길 17,위탁관리,혼합식,20080430,0448638679,513,65546.34,0.0,285.0,228.0,0.0,51756.6611,15,15,2,18,30034,36.5936060303477,127.295842485525
A33980417,번암주공아파트,3611025031,세종특별자치시,,조치원읍,번암리,세종특별자치시  조치원읍 번암리 75-2 번암주공아파트,분양,개별난방,23563.0,11,480.0,LH공사,LH공사,0448653393,,아파트,세종특별자치시  군청로 23,자치관리,계단식,19891116,0448633393,480,23076.9,480.0,0.0,0.0,0.0,20268.9,5,5,0,0,30038,36.5866953318614,127.293593887123
A33980001,유니빌,3611025032,세종특별자치시,,조치원읍,신안리,세종특별자치시  조치원읍 신안리 35-3 유니빌,혼합,개별난방,14904.743,1,299.0,일신건설,일신건설,0448660110,,아파트,세종특별자치시  신안새동네길 26-10,위탁관리,복도식,20020109,0448660132,299,8377.772,299.0,0.0,0.0,0.0,8377.772,14,14,1,3,30016,36.6148335928642,127.291649979885
A33980002,세종e편한세상,3611025032,세종특별자치시,,조치원읍,신안리,세종특별자치시  조치원읍 신안리 542 세종e편한세상,분양,개별난방,181493.25,12,983.0,대림산업,(주)생보부동산신탁,0448657250,https://sejongdaelim.aptner.com/v2,아파트,세종특별자치시  섭골길 59,위탁관리,계단식,20130214,0448657450,983,107368.164,0.0,271.0,596.0,116.0,107368.1645,20,20,2,31,30016,36.6153494373673,127.286059935699
A33988618,조형아파트,3611025032,세종특별자치시,,조치원읍,신안리,세종특별자치시  조치원읍 신안리 244-1 조형아파트,분양,개별난방,31859.0,8,492.0,조형주택,조형주택,0448657636,https://xn--sp5bt3aba061dcxk.apti.co.kr/aptHome/,아파트,세종특별자치시  운주산로 60,위탁관리,계단식,19910914,0448657635,492,31391.756,492.0,0.0,0.0,0.0,23929.4,6,6,1,0,30016,36.635839905626,127.289274715762
A10022262,엘리프세종아파트,3611025033,세종특별자치시,,조치원읍,봉산리,세종특별자치시  조치원읍 봉산리 372- 엘리프세종아파트,분양,개별난방,71672.0,12,660.0,계룡건설산업(주),"계룡건설산업(주), (주)대흥도시개발",0448688120,https://엘리프세종.apti.co.kr,아파트,세종특별자치시  서북부4로 10,위탁관리,혼합식,20240925,0448688121,660,70189.34,191.0,389.0,78.0,2.0,53010.7813,29,29,0,27,,36.6034756456291,127.28111198679
A10025489,세종서창행복주택아파트,3611025034,세종특별자치시,,조치원읍,서창리,세종특별자치시  조치원읍 서창리 26-1 세종서창행복주택아파트,임대,개별난방,25271.42,4,450.0,남진건설(주),토지주택공사,0448683976,,아파트,세종특별자치시  조치원중고길 7,위탁관리,복도식,20190514,0448683977,450,25140.617,450.0,0.0,0.0,0.0,12114.76,19,19,0,7,30017,36.6108860063207,127.296857465779
A33986301,청정아파트,3611032023,세종특별자치시,,연동면,명학리,세종특별자치시  연동면 명학리 255 청정아파트,분양,개별난방,26902.816,4,439.0,다산건설,다산건설,0448684868,세종청정.apti.co.kr,아파트,세종특별자치시  태산로 58,위탁관리,혼합식,20010303,0448671969,439,25730.9,439.0,0.0,0.0,0.0,20352.822,10,10,0,14,30067,36.5291466560722,127.350788804646
A36394101,대신하나로아파트,3611033021,세종특별자치시,,부강면,부강리,세종특별자치시  부강면 부강리 498-7 대신하나로아파트,분양,개별난방,20515.0,3,211.0,대신건설(주),대신건설(주),0442753323,,아파트,세종특별자치시  부강로 29-11,위탁관리,혼합식,20020105,0442753322,211,17326.81,152.0,59.0,0.0,0.0,13918.13,15,15,1,5,30076,36.5285317266519,127.365577438287
A33983101,신성미소지움,3611034021,세종특별자치시,,금남면,용포리,세종특별자치시  금남면 용포리 263 신성미소지움,분양,개별난방,31231.0,4,228.0,신성건설,이아손씨엔티,0448663974,,아파트,세종특별자치시  용포2길 57-15,위탁관리,계단식,20071029,0448663975,228,24456.6,0.0,228.0,0.0,0.0,19352.386,15,15,1,8,30083,36.4656067668267,127.278102025533
A33983501,두진리버빌 아파트,3611034021,세종특별자치시,,금남면,용포리,세종특별자치시  금남면 용포리 320 두진리버빌 아파트,분양,개별난방,69545.0,5,913.0,두진,두진,0448680100,,아파트,세종특별자치시  용포2길 70,위탁관리,혼합식,20001229,0448680101,913,59745.86,913.0,0.0,0.0,0.0,43784.6768,15,15,1,15,30083,36.4632697330016,127.279706353622
A33981301,연기 대원네스트빌 아파트,3611036033,세종특별자치시,,연서면,봉암리,세종특별자치시  연서면 봉암리 622 연기 대원네스트빌 아파트,분양,개별난방,35555.0,7,414.0,대원종합건설,대원종합건설,0448671002,,아파트,세종특별자치시  당산로 290,위탁관리,계단식,20021126,0448688203,414,34869.43,174.0,240.0,0.0,0.0,29525.532,10,10,1,21,30047,36.560092451801,127.28043162915
A33985301,성호늘푸른아파트,3611037022,세종특별자치시,,전의면,동교리,세종특별자치시  전의면 동교리 213-28 성호늘푸른아파트,분양,개별난방,19219.55,1,197.0,성호건설,성호건설,0448621884,,아파트,세종특별자치시  동교동촌2길 16,위탁관리,복도식,19971106,0448624808,197,19219.348,197.0,0.0,0.0,0.0,11593.44,15,15,1,3,30004,36.6829409336957,127.20562297302
A33987101,KCC사원아파트,3611039021,세종특별자치시,,소정면,소정리,세종특별자치시  소정면 소정리 24 KCC사원아파트,사택 및 관사 등,중앙난방,15180.75,4,299.0,KCC건설,KCC건설,0445541147,,아파트,세종특별자치시  소정샘골길 17,위탁관리,복도식,19980120,0448674790,299,11967.94,299.0,0.0,0.0,0.0,11967.94,5,5,0,0,30001,36.7198155259429,127.159521047992
A33987201,신창무궁화아파트,3611039022,세종특별자치시,,소정면,운당리,세종특별자치시  소정면 운당리 35-1 신창무궁화아파트,분양,개별난방,13646.0,1,176.0,(주)신창건설,(주)신창건설,0445660789,,아파트,세종특별자치시  세종로 4283,위탁관리,복도식,19960513,0445661789,176,13395.168,156.0,20.0,0.0,0.0,10908.2,12,12,1,2,30000,36.6981289889361,127.151980347314
