kaptCode,kaptName,bjdCode,as1,as2,as3,as4,kaptAddr,codeSaleNm,codeHeatNm,kaptTarea,kaptDongCnt,kaptdaCnt,kaptBcompany,kaptAcompany,kaptTel,kaptUrl,codeAptNm,doroJuso,codeMgrNm,codeHallNm,kaptUsedate,kaptFax,hoCnt,kaptMarea,kaptMparea60,kaptMparea85,kaptMparea135,kaptMparea136,privArea,kaptTopFloor,ktownFlrNo,kaptBaseFloor,kaptdEcntp,zipcode,위도,경도
A10023127,검암역 로열파크씨티푸르지오2단지,2826010100,인천광역시,서구,백석동,,인천광역시 서구 백석동 132-5 검암역 로열파크씨티푸르지오2단지,분양,개별난방,365631.6,12,2426.0,대우건설,DK아시아,0325631108,,아파트,인천광역시 서구 한들로 73,위탁관리,계단식,20230629,0325631109,2426,252132.1,514.0,1668.0,233.0,11.0,188897.0674,40,40,2,71,22687,37.5780524279041,126.669139597591
A10023138,검암역 로열파크씨티푸르지오1단지,2826010100,인천광역시,서구,백석동,,인천광역시 서구 백석동 173-3 검암역 로열파크씨티푸르지오1단지,분양,개별난방,352074.44,13,2379.0,대우건설,DK ASIA,0325621107,,아파트,인천광역시 서구 한들로 33,위탁관리,계단식,20230629,0325621108,2379,242300.12,684.0,1493.0,191.0,11.0,181071.6857,40,40,2,72,22687,37.578766073094,126.664595660918
A40470703,검암1차신명스카이뷰,2826010300,인천광역시,서구,검암동,,인천광역시 서구 검암동 629-1 검암1차신명스카이뷰,분양,개별난방,34260.07,4,268.0,신명종합건설(주),신명주택건설(주),0325685520,,아파트,인천광역시 서구 승학로 447,위탁관리,계단식,20030721,0325685521,268,28384.842,30.0,238.0,0.0,0.0,22018.338,15,15,0,9,22697,37.5613465557094,126.672938527111
A40479811,은빛마을풍림1차,2826010300,인천광역시,서구,검암동,,인천광역시 서구 검암동 511 은빛마을풍림1차,분양,개별난방,36770.94,4,280.0,풍림건설,풍림건설,0325625410,,아파트,인천광역시 서구 검암로20번길 47,위탁관리,계단식,20030906,0325625412,280,30108.96,0.0,210.0,70.0,0.0,24043.7052,19,19,2,8,22703,37.5684744880944,126.684021857656
A40484701,검암마젤란21,2826010300,인천광역시,서구,검암동,,인천광역시 서구 검암동 595-5 검암마젤란21,분양,개별난방,26258.373,2,176.0,(주)유진기업,(주)크레오건설,0325642290,검암마젤란21.apti.co.kr,아파트,인천광역시 서구 도요지로189번길 104,위탁관리,계단식,20060602,0322612290,176,20833.057,0.0,138.0,38.0,0.0,16209.84,19,19,1,6,22695,37.5653420802662,126.672574704585
A40484702,검암1차삼보해피하임,2826010300,인천광역시,서구,검암동,,인천광역시 서구 검암동 628 검암1차삼보해피하임,분양,개별난방,31270.988,3,252.0,삼보공영개발(주),(주)삼보종합건걸,0325652984,,아파트,인천광역시 서구 승학로 457,위탁관리,계단식,20030801,0325652988,252,25474.08,0.0,252.0,0.0,0.0,19737.3128,16,16,2,8,22697,37.5623393360022,126.672962483004
A40484704,검암해들마을신명3차,2826010300,인천광역시,서구,검암동,,인천광역시 서구 검암동 605-1 검암해들마을신명3차,분양,개별난방,36045.0,4,282.0,신명종합건설,신명종합건설,0325683385,,아파트,인천광역시 서구 승학로471번길 7,위탁관리,계단식,20040519,0322933385,282,29105.24,62.0,220.0,0.0,0.0,22405.1358,17,17,0,0,22697,37.5637369996532,126.673075897096
A40484705,검암2차삼보해피하임,2826010300,인천광역시,서구,검암동,,인천광역시 서구 검암동 512-1 검암2차삼보해피하임,분양,개별난방,34283.45,3,288.0,삼보공영개발(주),삼보공영개발(주),0325651954,,아파트,인천광역시 서구 검암로20번길 52,위탁관리,계단식,20030801,0325651956,288,29630.68,0.0,288.0,0.0,0.0,22975.1896,19,19,1,8,22703,37.5674708858688,126.685545234906
A40484706,검암신명4차,2826010300,인천광역시,서구,검암동,,인천광역시 서구 검암동 535-2 검암신명4차,분양,개별난방,41452.742,8,311.0,신명종합건설,신명산업개발(주),0325662533,www.skyviewgold.com,아파트,인천광역시 서구 검암로10번길 36,위탁관리,계단식,20040825,0322922533,311,34764.297,0.0,311.0,0.0,0.0,26307.1168,15,15,1,11,22703,37.5652852216022,126.685193353469
A40484707,검암신명2차,2826010300,인천광역시,서구,검암동,,인천광역시 서구 검암동 535-1 검암신명2차,분양,개별난방,41576.0,6,325.0,신명종합건설,신명릿시건설,0325617851,,아파트,인천광역시 서구 검암로10번길 54,위탁관리,계단식,20031024,0325617852,325,35576.45,0.0,325.0,0.0,0.0,27613.95,19,19,0,10,22703,37.5661936066379,126.686108626812
A40484708,검암풍림3차,2826010300,인천광역시,서구,검암동,,인천광역시 서구 검암동 512-2 검암풍림3차,분양,개별난방,44607.63,6,341.0,풍림산업(주),풍림산업(주),0322813294,검암풍림3차.apti.co.kr,아파트,인천광역시 서구 검암로10번길 39,위탁관리,계단식,20040722,0325693297,341,32618.19,154.0,187.0,0.0,0.0,25092.9668,18,18,2,11,22703,37.5662908830283,126.684339861897
A40484709,검암2차풍림아이원,2826010300,인천광역시,서구,검암동,,인천광역시 서구 검암동 501-1 검암2차풍림아이원,분양,개별난방,87276.2,13,718.0,풍림산업(주),일주건설(주),0325612467,,아파트,인천광역시 서구 검암로 53,위탁관리,계단식,20040528,0325612468,718,73134.68,128.0,590.0,0.0,0.0,55632.63,19,19,1,23,22704,37.5687000539776,126.681324422148
A40484710,검암서해그랑블,2826010300,인천광역시,서구,검암동,,인천광역시 서구 검암동 595-3 검암서해그랑블,분양,개별난방,113694.15,11,950.0,서해종합건설,서해종합건설,0325614174,검암서해.apti.co.kr,아파트,인천광역시 서구 승학로495번길 7,위탁관리,계단식,20030901,0322724174,950,93482.96,0.0,950.0,0.0,0.0,73247.9516,19,19,0,26,22695,37.5670552932704,126.675044491772
A10023917,북청라하우스토리,2826010400,인천광역시,서구,경서동,,인천광역시 서구 경서동 1032 북청라하우스토리,분양,개별난방,50383.816,6,430.0,남광토건(주),대승종합관리(주),0325687822,,아파트,인천광역시 서구 경서로31번길 15,위탁관리,계단식,20220225,0325687823,430,34197.785,430.0,0.0,0.0,0.0,25769.2642,20,20,2,0,22692,37.5556411957986,126.651827361104
A10026618,아시아드 대광로제비앙,2826010400,인천광역시,서구,경서동,,인천광역시 서구 경서동 994 아시아드 대광로제비앙,분양,개별난방,113201.625,13,720.0,(주)대광건영,(주)대광에이엠씨,0325644780,http://아시아드대광로제비앙.com,아파트,인천광역시 서구 모월곶로 41,위탁관리,계단식,20171218,0325644786,720,82383.195,0.0,587.0,133.0,0.0,62941.0566,15,15,2,26,22700,37.5568926786863,126.666880833525
A40417001,경서우정에쉐르,2826010400,인천광역시,서구,경서동,,인천광역시 서구 경서동 719-3 경서우정에쉐르,분양,개별난방,35601.03,5,292.0,우정건설주식회사,우정건설주식회사,0325662977,,아파트,인천광역시 서구 경서로 99,위탁관리,계단식,20060519,0322072977,292,29976.963,72.0,220.0,0.0,0.0,22918.1536,19,19,0,8,22691,37.5609974953078,126.652312092097
A40470903,태평샹베르1차아파트,2826010400,인천광역시,서구,경서동,,인천광역시 서구 경서동 722-1 태평샹베르1차아파트,분양,개별난방,79692.06,10,572.0,(주)태평주택,(주)태평주택,0325690064,,아파트,인천광역시 서구 도요지로 15,위탁관리,계단식,20050203,0325690065,572,60376.85,132.0,376.0,64.0,0.0,47001.334,19,19,2,17,22691,37.5600658822058,126.653235667598
A40471902,가이아샹베르2차아파트,2826010400,인천광역시,서구,경서동,,인천광역시 서구 경서동 727-1 가이아샹베르2차아파트,분양,개별난방,71557.04,10,560.0,"가이아 건설(주),세계건설(주)",가이아건설(주),0325690302,,아파트,인천광역시 서구 경서로31번길 47,위탁관리,계단식,20050331,0325690336,560,44148.848,128.0,432.0,0.0,0.0,44149.1968,18,18,1,17,22692,37.5573676792338,126.651125447793
A40420001,공촌 경남 아파트,2826010500,인천광역시,서구,공촌동,,인천광역시 서구 공촌동 314 공촌 경남 아파트,분양,개별난방,27553.37,3,232.0,경남기업,경남기업,0325676634,,아파트,인천광역시 서구 경명대로694번길 10,위탁관리,계단식,19981102,0325676635,232,23026.85,72.0,160.0,0.0,0.0,17899.52,18,18,1,9,22709,37.5510954752552,126.685025694442
A40420002,연희18차광명아파트,2826010500,인천광역시,서구,공촌동,,인천광역시 서구 공촌동 318-1 연희18차광명아파트,분양,개별난방,42258.83,4,299.0,광명주택,광명주택,0325674956,,아파트,인천광역시 서구 심곡로 170,위탁관리,계단식,19981022,0325654956,299,31227.2,65.0,212.0,22.0,0.0,24747.06,20,20,3,6,22709,37.5481465570572,126.682181897728
A10020987,연희2차한국아파트,2826010600,인천광역시,서구,연희동,,인천광역시 서구 연희동 682-14 연희2차한국아파트,분양,개별난방,12987.75,1,120.0,한국종합건설(주),한국종합건설(주),0322644483,,아파트,인천광역시 서구 서곶로369번길 6,자치관리,혼합식,19971129,0322644483,120,3206.731,80.0,40.0,0.0,0.0,8172.19,1,21,1,3,,37.5508804776379,126.675994255215
A40483603,연희중앙,2826010600,인천광역시,서구,연희동,,인천광역시 서구 연희동 682 연희중앙,분양,개별난방,16406.87,1,294.0,중앙공영(주),중앙공영(주),0325671405,,아파트,인천광역시 서구 승학로 334,위탁관리,혼합식,19970826,0322731405,294,13279.14,294.0,0.0,0.0,0.0,9752.995,15,15,1,6,22720,37.5515279270453,126.674028232014
A40483604,연희한국1차,2826010600,인천광역시,서구,연희동,,인천광역시 서구 연희동 682-12 연희한국1차,분양,개별난방,43800.71,5,356.0,한국종합건설(주),한국종합건설(주),0325614483,,아파트,인천광역시 서구 서곶로369번길 18,위탁관리,혼합식,19940831,0325663861,356,38284.04,148.0,164.0,44.0,0.0,28256.52,22,22,1,7,22720,37.550805738362,126.674895511837
A40483605,연희태영데시앙,2826010600,인천광역시,서구,연희동,,인천광역시 서구 연희동 690 연희태영데시앙,분양,개별난방,42357.934,4,390.0,태영,태영,0325651751,연희태영데시앙.apti.co.kr,아파트,인천광역시 서구 대평로 10,위탁관리,혼합식,19961115,0322771751,390,27476.0,220.0,170.0,0.0,0.0,27476,20,20,2,8,22722,37.5474059991404,126.67593879546
A40483701,연희해드림,2826010600,인천광역시,서구,연희동,,인천광역시 서구 연희동 701-1 연희해드림,임대,개별난방,19379.08,7,250.0,영동건설,인천도시공사,0325639791,,아파트,인천광역시 서구 간촌로 40,위탁관리,복도식,20070928,0325679550,250,10199.1,250.0,0.0,0.0,0.0,10199.1,5,5,1,0,22712,37.5489204721493,126.680531184302
A40483806,연희우성,2826010600,인천광역시,서구,연희동,,인천광역시 서구 연희동 729-1 연희우성,분양,개별난방,44231.195,4,410.0,(주)우성건설,(주)우성건설,0325654464,,아파트,인천광역시 서구 대평로56번길 32,위탁관리,복도식,19970610,0325654464,410,39051.56,168.0,242.0,0.0,0.0,30563.536,18,18,0,12,22718,37.5498867060293,126.671115057355
A10022955,가정2지구1단지행복주택,2826010700,인천광역시,서구,심곡동,,인천광역시 서구 심곡동 0 가정2지구1단지행복주택,임대,지역난방,36442.17,5,510.0,태평양개발,한국토지주택공사,0325671291,,아파트,인천광역시 서구 행복2로 40,위탁관리,복도식,20231026,0325671292,518,36442.17,510.0,0.0,0.0,0.0,16614.3,19,19,1,10,22732,37.5383869821008,126.664531758977
A40479104,연희극동늘푸른 아파트,2826010700,인천광역시,서구,심곡동,,인천광역시 서구 심곡동 259-2 연희극동늘푸른 아파트,분양,개별난방,112597.11,8,998.0,극동건설,극동건설,0325670697,cafe.daum.net/kd998,아파트,인천광역시 서구 승학로 198,위탁관리,계단식,19970826,0325670698,998,95274.83,480.0,518.0,0.0,0.0,72659.08,24,24,2,25,22730,37.5408517003195,126.673190330793
A40479205,연희 대동주택 아파트,2826010700,인천광역시,서구,심곡동,,인천광역시 서구 심곡동 285 연희 대동주택 아파트,분양,개별난방,119978.9,8,1048.0,대동주택,대동주택,0325616001,,아파트,인천광역시 서구 심곡로 135,위탁관리,혼합식,19950518,0322726001,1048,99431.12,576.0,472.0,0.0,0.0,73757.44,24,24,2,19,22714,37.5451537346761,126.679952051569
A40483401,심곡 한국 아파트,2826010700,인천광역시,서구,심곡동,,인천광역시 서구 심곡동 302 심곡 한국 아파트,분양,개별난방,46112.0,2,392.0,한국종합건설,한국종합건설,0325613562,,아파트,인천광역시 서구 탁옥로74번길 3,위탁관리,혼합식,19950228,0325620627,392,41970.438,152.0,164.0,76.0,0.0,32630.34,21,21,0,8,22711,37.5432084250658,126.678536885344
A40483502,연희삼성아파트,2826010700,인천광역시,서구,심곡동,,인천광역시 서구 심곡동 330-1 연희삼성아파트,분양,개별난방,49200.453,4,421.0,삼성물산,삼성물산,0325658573,,아파트,인천광역시 서구 용두산로13번길 12,위탁관리,계단식,19970603,0322728573,421,41552.55,172.0,249.0,0.0,0.0,31439.586,24,24,1,12,22724,37.544310092224,126.670890500805
A40483503,연희광명17차아파트,2826010700,인천광역시,서구,심곡동,,인천광역시 서구 심곡동 336-1 연희광명17차아파트,분양,개별난방,69298.43,5,604.0,광명주택,광명주택,0322636482,,아파트,인천광역시 서구 심곡로 11,위탁관리,계단식,19970110,0322636483,604,59540.38,266.0,338.0,0.0,0.0,44583.72,22,22,1,15,22728,37.5427736950381,126.671530689112
A40483602,연희동남아파트,2826010700,인천광역시,서구,심곡동,,인천광역시 서구 심곡동 287 연희동남아파트,분양,개별난방,30733.13,2,280.0,동남기업,동남건설,0325612533,,아파트,인천광역시 서구 심곡로132번길 17,위탁관리,혼합식,19950829,0325612590,280,25918.8,160.0,120.0,0.0,0.0,19737.6,20,20,2,0,22711,37.5457925775719,126.683441951552
A10020922,가정동 하나1차아파트,2826010800,인천광역시,서구,가정동,,인천광역시 서구 가정동 341-13 가정동 하나1차아파트,분양,개별난방,212920.0,5,252.0,(주)한국공영,(주)한국공영,0325629422,,아파트,인천광역시 서구 봉오대로318번길 18,자치관리,계단식,19891130,0325629422,252,17336.52,156.0,96.0,0.0,0.0,17336.52,1,6,0,0,,37.5262721293538,126.684963115288
A10020966,현광아파트,2826010800,인천광역시,서구,가정동,,인천광역시 서구 가정동 17-9 현광아파트,분양,개별난방,8288.54,2,144.0,현광,현광,0325683422,,아파트,인천광역시 서구 천마로14번길 6,자치관리,계단식,19890403,0325683422,144,8280.0,144.0,0.0,0.0,0.0,6374.16,6,6,0,0,,37.5288069071314,126.677221762327
A10022850,가정2지구3단지,2826010800,인천광역시,서구,가정동,,인천광역시 서구 가정동  가정2지구3단지,임대,지역난방,16385.82,2,246.0,(주)만훈,한국토지주택공사,0325673090,,아파트,인천광역시 서구 행복1로 30,위탁관리,복도식,20231228,025673091,247,16338.956,246.0,0.0,0.0,0.0,7042.26,20,20,1,5,22732,37.5357840904113,126.666407226097
A10022881,길운시티빌라,2826010800,인천광역시,서구,가정동,,인천광역시 서구 가정동 556 길운시티빌라,분양,개별난방,13794.0,8,160.0,(주)보람주택,(주)보람주택,0325835197,,연립주택,인천광역시 서구 서곶로 11,자치관리,계단식,19971223,025835197,160,13063.68,112.0,32.0,16.0,0.0,11208.672,4,4,2,0,22798,37.5197074231776,126.681259037874
A10023140,루원 린스트라우스 더 린시티,2826010800,인천광역시,서구,가정동,,인천광역시 서구 가정동  루원 린스트라우스 더 린시티,분양,지역난방,246772.19,5,1412.0,(주)우미건설,(주)우미글로벌,0325790408,,아파트,인천광역시 서구 서곶로 45,위탁관리,계단식,20230616,0325790409,1412,172168.45,0.0,1412.0,0.0,0.0,119667.5953,47,47,3,30,22776,37.5217187547601,126.678312705133
A10023254,루원대성베르힐더센트로,2826010800,인천광역시,서구,가정동,,인천광역시 서구 가정동 539 루원대성베르힐더센트로,분양,지역난방,199598.92,6,1059.0,디에스종합건설,디에스종합건설,0322661114,luwonsiti.aptner.com/v2,아파트,인천광역시 서구 서곶로 50,위탁관리,계단식,20230427,0322661115,1059,123508.33,0.0,869.0,164.0,26.0,94454.4552,48,48,5,10,22776,37.5232157453463,126.678802214186
A10023403,루원시티2차SK리더스뷰아파트,2826010800,인천광역시,서구,가정동,,인천광역시 서구 가정동  루원시티2차SK리더스뷰아파트,분양,지역난방,297471.38,9,1789.0,SK에코플랜트,서림주택관리(주),0325744083,,아파트,인천광역시 서구 봉오대로 270,위탁관리,계단식,20230126,0325754083,1789,204167.73,0.0,1789.0,0.0,0.0,151273.0993,46,46,4,36,22776,37.5239167403055,126.680236578352
A10023430,포레나루원시티아파트,2826010800,인천광역시,서구,가정동,,인천광역시 서구 가정동  포레나루원시티아파트,분양,지역난방,176355.0,14,1128.0,한화건설,제이에스파트너스개발(주),0325696337,,아파트,인천광역시 서구 서곶로 120,위탁관리,계단식,20221223,0325696339,1128,112941.29,348.0,780.0,0.0,0.0,85899.9846,29,29,4,31,22715,37.528490384394,126.676990300262
A10023497,루원지웰시티푸르지오 아파트,2826010800,인천광역시,서구,가정동,,인천광역시 서구 가정동 577-2 루원지웰시티푸르지오 아파트,분양,지역난방,128994.32,5,778.0,대우건설,주식회사 신영루원시티개발,0325729952,https://xn--2s2b2jx4vpoc85ao3aog96sda670uqrauk36n.apti.co.kr/aptHome/,주상복합,인천광역시 서구 가정로 406,위탁관리,계단식,20221130,0325749953,778,128994.32,0.0,778.0,0.0,0.0,65780.4324,49,49,3,20,22775,37.5214629875846,126.673952289268
A10023500,동우1차아파트,2826010800,인천광역시,서구,가정동,,인천광역시 서구 가정동 5-92 동우1차아파트,분양,개별난방,20000.0,5,474.0,동우건설,동우건설,0325646311,,연립주택,인천광역시 서구 천마로13번길 6,자치관리,계단식,19880105,0325686312,474,19577.52,474.0,0.0,0.0,0.0,19577.52,6,6,0,0,22715,37.5302678555307,126.67846967961
A10023964,루원시티 SK리더스뷰,2826010800,인천광역시,서구,가정동,,인천광역시 서구 가정동  루원시티 SK리더스뷰,분양,지역난방,382801.94,11,2378.0,SK에코플랜트,(주)디에스루원피에프브이,0327139974,lu1sk.aptner.com,아파트,인천광역시 서구 가정로 437,위탁관리,계단식,20220112,0327139976,2378,267738.06,0.0,2214.0,164.0,0.0,202685.562,45,45,4,0,22775,37.5242524636212,126.670117744395
A10025224,루원더퍼스트아파트,2826010800,인천광역시,서구,가정동,,인천광역시 서구 가정동 597-1 루원더퍼스트아파트,분양,지역난방,80497.0,7,616.0,"제일건설(주),남양건설(주),",한국토지주택공사,0325696013,루원더퍼스트.apti.co.kr/aptHome/,아파트,인천광역시 서구 봉오재2로 13,위탁관리,계단식,20191021,0325696015,616,59340.32,300.0,316.0,0.0,0.0,42983.41,25,25,1,16,22732,37.5334651433798,126.665147449868
A10026254,루원제일풍경채아파트,2826010800,인천광역시,서구,가정동,,인천광역시 서구 가정동 603-1 루원제일풍경채아파트,분양,지역난방,133154.34,9,900.0,제일건설(주),제일건설(주),0325697986,lu1jeil.com,아파트,인천광역시 서구 봉오재3로 11,위탁관리,계단식,20180129,0325697987,900,94901.48,0.0,900.0,0.0,0.0,71917.4766,25,25,1,19,22858,37.5310761124724,126.6673341889
A10026367,루원시티프라디움아파트,2826010800,인천광역시,서구,가정동,,인천광역시 서구 가정동 610-1 루원시티프라디움아파트,분양,지역난방,257105.95,16,1598.0,시티건설,시티글로벌,0325697861,pradium.aptstory.com,아파트,인천광역시 서구 봉오재3로 66,위탁관리,계단식,20180330,0325697863,1598,183000.28,0.0,1470.0,128.0,0.0,137857.8262,25,25,2,35,22858,37.5274786323503,126.66434915023
A10026574,루원 호반베르디움 더센트럴아파트,2826010800,인천광역시,서구,가정동,,인천광역시 서구 가정동 609-1 루원 호반베르디움 더센트럴아파트,분양,지역난방,143025.75,10,980.0,(주)호반건설산업,티에스주택(주),0325697251,http://5bl-hoban.com,아파트,인천광역시 서구 봉오재3로 75,위탁관리,계단식,20180108,0325697253,980,102893.84,0.0,980.0,0.0,0.0,76142.783,25,25,1,21,22858,37.5293366234205,126.668158624395
A10027589,한국지엠(주)사원임대아파트,2826010800,인천광역시,서구,가정동,,인천광역시 서구 가정동 21-21 한국지엠(주)사원임대아파트,임대,개별난방,16044.09,5,320.0,대우건설,대우건설,0325671680,,아파트,인천광역시 서구 봉오대로 331,위탁관리,계단식,19900702,0325671680,320,11430.6,320.0,0.0,0.0,0.0,11430.6,5,5,0,0,22716,37.5269641316914,126.687349847436
A10027936,루원시티 어울림,2826010800,인천광역시,서구,가정동,,인천광역시 서구 가정동 58-22 루원시티 어울림,혼합,지역난방,168516.88,13,1243.0,금호건설 등,LH,0325696791,lh웨스턴블루힐.apti.co.kr,아파트,인천광역시 서구 봉오재2로 37,위탁관리,계단식,20150818,0325696794,1243,168516.69,443.0,800.0,0.0,0.0,90862.53,25,25,1,27,22858,37.5346329441758,126.666555138241
A40423001,가정LH3단지,2826010800,인천광역시,서구,가정동,,인천광역시 서구 가정동 604-1 가정LH3단지,임대,지역난방,125856.28,17,1525.0,한진중공업,한국토지주택공사,0325695661,,아파트,인천광역시 서구 봉오재3로 14,위탁관리,혼합식,20121123,0325695664,1525,125338.51,1525.0,0.0,0.0,0.0,61264.57,20,20,1,0,22732,37.5323370382095,126.664524238589
A40423002,예뜰채,2826010800,인천광역시,서구,가정동,,인천광역시 서구 가정동 523-2 예뜰채,분양,개별난방,14645.573,1,93.0,태훈,태훈,0325793373,,아파트,인천광역시 서구 가정로336번길 24,자치관리,계단식,20171115,0325793373,93,8213.46,1.0,72.0,20.0,0.0,8213.4604,10,10,2,5,22783,37.5143807728626,126.67565488066
A40423201,가정하나3차아파트,2826010800,인천광역시,서구,가정동,,인천광역시 서구 가정동 341-15 가정하나3차아파트,분양,개별난방,30138.27,2,274.0,한국공영,한국공영,0325626909,,아파트,인천광역시 서구 봉오대로318번길 21,자치관리,혼합식,19931027,0325666909,274,28451.58,108.0,106.0,60.0,0.0,22041.78,18,18,1,7,22716,37.5257463214105,126.684698570556
A40423205,가정 하나2차 아파트,2826010800,인천광역시,서구,가정동,,인천광역시 서구 가정동 341-14 가정 하나2차 아파트,분양,개별난방,43749.0,5,495.0,한국공영,한국공영,0325631919,,아파트,인천광역시 서구 봉오대로318번길 23-1,위탁관리,혼합식,19920213,0325631917,495,43749.0,240.0,255.0,0.0,0.0,34433.7,15,15,0,12,22716,37.5262205174597,126.684192925581
A40423302,가정 한신그랜드힐빌리지,2826010800,인천광역시,서구,가정동,,인천광역시 서구 가정동 546 가정 한신그랜드힐빌리지,분양,개별난방,104020.28,40,920.0,한신공영,남성건설,0325725569,cafe.naver.com/hansin1992,연립주택,인천광역시 서구 서곶로 12,위탁관리,계단식,19920211,0325813602,920,85315.72,0.0,904.0,16.0,0.0,72141.4,4,4,1,0,22797,37.5221006149823,126.685308711343
A40470401,가정 한국 아파트,2826010800,인천광역시,서구,가정동,,인천광역시 서구 가정동 567 가정 한국 아파트,분양,개별난방,83564.79,4,620.0,한국종합건설(주),한국종합건설(주),0325796399,,아파트,인천광역시 서구 서달로163번길 16,위탁관리,계단식,19921231,0325797604,620,74512.39,0.0,464.0,116.0,40.0,59831.08,20,20,0,16,22799,37.5134643974927,126.677047604366
A40471206,가정 뉴서울 아파트,2826010800,인천광역시,서구,가정동,,인천광역시 서구 가정동 284-401 가정 뉴서울 아파트,분양,개별난방,50648.0,3,555.0,뉴서울건설,뉴서울건설,0325638307,newseoul2836.apti.co.kr,아파트,인천광역시 서구 봉오대로283번길 6,위탁관리,복도식,19901210,0325668307,555,49313.684,345.0,210.0,0.0,0.0,34706.7,15,15,0,7,22716,37.5249345583751,126.682124166633
A10026262,루원시티 루에블리,2826010900,인천광역시,서구,신현동,,인천광역시 서구 신현동 304-2 루원시티 루에블리,임대,지역난방,76742.67,6,686.0,삼환기업,LH한국토지주택공사,0325753900,,아파트,인천광역시 서구 봉오재1로 49,위탁관리,계단식,20180515,0325763900,686,76484.25,686.0,0.0,0.0,0.0,39178.44,25,25,1,1,22779,37.5239415144338,126.667094144179
A10026479,루원시티센트럴타운아파트,2826010900,인천광역시,서구,신현동,,인천광역시 서구 신현동 306-1 루원시티센트럴타운아파트,분양,지역난방,99826.4,10,743.0,남양건설(주),한국토지주택공사,0325728561,"루원시티센트럴타운.apti,co.kr",아파트,인천광역시 서구 봉오재1로 36,위탁관리,계단식,20171212,0325728562,743,74538.164,196.0,547.0,0.0,0.0,55000.66,23,23,1,21,22779,37.5204820034216,126.66682569696
A10026702,루원시티대성베르힐,2826010900,인천광역시,서구,신현동,,인천광역시 서구 신현동 304-1 루원시티대성베르힐,분양,지역난방,176629.0,12,1147.0,대성베르힐건설(주) 디에스종합건설(주),디에스종합건설(주),0325847505,,아파트,인천광역시 서구 봉오재1로 15,위탁관리,계단식,20170927,0325847506,1147,129256.4,0.0,867.0,280.0,0.0,99269.8901,25,25,1,24,22779,37.5244371390741,126.66533554761
A40478504,루원e편한세상하늘채,2826010900,인천광역시,서구,신현동,,인천광역시 서구 신현동 302-1 루원e편한세상하늘채,분양,지역난방,565393.8,36,3331.0,"대림, 코오롱","대림, 코오롱",0325753600,www.shinhyunapt.co.kr,아파트,인천광역시 서구 가정로 387,위탁관리,계단식,20100212,0325753607,3331,415500.16,699.0,1346.0,776.0,510.0,326048.027,33,33,2,74,22778,37.5216812205617,126.672750890456
A40483002,신현효성아파트,2826010900,인천광역시,서구,신현동,,인천광역시 서구 신현동 151-3 신현효성아파트,분양,개별난방,44628.0,5,452.0,효성중공업(주),효성중공업(주),0325775639,,아파트,인천광역시 서구 새오개로 53,자치관리,계단식,19910130,0325775648,452,40224.793,0.0,452.0,0.0,0.0,33494.46,13,13,1,18,22780,37.5152023494927,126.665049670178
A40483101,신현 원흥 아파트,2826010900,인천광역시,서구,신현동,,인천광역시 서구 신현동 200-4 신현 원흥 아파트,분양,개별난방,17056.0,1,183.0,원흥건설,원흥건설,0325735868,,아파트,인천광역시 서구 율도로15번길 26-8,자치관리,복도식,19910129,0325735869,183,16837.76,65.0,118.0,0.0,0.0,11644.46,13,13,0,3,22780,37.5154231451871,126.664179075345
A10020772,석남브라운스톤더프라임,2826011000,인천광역시,서구,석남동,,인천광역시 서구 석남동 491-3 석남브라운스톤더프라임,분양,개별난방,67828.164,4,511.0,이수건설,우람롯데아파트재건축조합,0325779144,우람롯데아파트재건축조합,주상복합,인천광역시 서구 서달로 91,위탁관리,계단식,20241118,0325779145,511,67828.164,284.0,227.0,0.0,0.0,34356.5115,29,29,4,10,,37.5076699799843,126.67823931588
A10020825,석남신광1차아파트,2826011000,인천광역시,서구,석남동,,인천광역시 서구 석남동 485- 석남신광1차아파트,분양,개별난방,135827936.0,1,134.0,신광,신광,0325827944,,아파트,인천광역시 서구 서달로137번길 13,위탁관리,복도식,19950330,0325827945,134,83936.26,134.0,0.0,0.0,0.0,7938.71,1,18,1,1,,37.5106669353921,126.677298309807
A40422001,석남 신광2차 아파트,2826011000,인천광역시,서구,석남동,,인천광역시 서구 석남동 206 석남 신광2차 아파트,분양,개별난방,19921.6,1,191.0,신광산업종합개발,신광산업종합개발,0325795045,,아파트,인천광역시 서구 율도로16번길 28,위탁관리,복도식,19970110,0325795046,191,15911.508,191.0,0.0,0.0,0.0,11199.27,14,14,2,2,22787,37.5107834558384,126.663423055655
A40422003,석남 동남 아파트,2826011000,인천광역시,서구,석남동,,인천광역시 서구 석남동 208-1 석남 동남 아파트,분양,개별난방,22635.84,4,360.0,LG U+,(주)동남건설,0325744867,,아파트,인천광역시 서구 새오개로 19,위탁관리,계단식,19890530,0325744867,360,21859.2,360.0,0.0,0.0,0.0,17243.28,6,6,1,0,22787,37.5118185669232,126.66438773404
A40482201,석남 대명 아파트,2826011000,인천광역시,서구,석남동,,인천광역시 서구 석남동 209 석남 대명 아파트,분양,개별난방,14754.75,1,184.0,(주)대명건설,(주)대명건설,0325791991,,아파트,인천광역시 서구 새오개로 4,위탁관리,혼합식,19980430,0325794736,184,12648.4,184.0,0.0,0.0,0.0,8698.72,18,18,1,4,22786,37.5102468426866,126.665715493483
A40482301,석남 신동아 아파트,2826011000,인천광역시,서구,석남동,,인천광역시 서구 석남동 486-1 석남 신동아 아파트,분양,개별난방,19497.88,1,190.0,태창주택,신동아주택,0325766821,석남신동아.apti.co.kr/default.asp,아파트,인천광역시 서구 서달로123번길 12-4,위탁관리,복도식,19960330,0325786821,190,15675.0,190.0,0.0,0.0,0.0,11396.2,18,18,1,2,22800,37.5100664910382,126.677654911383
A40482302,석남태화아파트,2826011000,인천광역시,서구,석남동,,인천광역시 서구 석남동 109-55 석남태화아파트,분양,개별난방,27148.55,2,299.0,태화건설(주),태화건설(주),0325735200,,아파트,인천광역시 서구 서달로116번길 12,위탁관리,혼합식,19901114,0322655200,299,26602.81,0.0,299.0,0.0,0.0,20309.77,13,13,0,6,22801,37.5091442511413,126.680282978827
A40482402,서인천 월드메르디앙아파트,2826011000,인천광역시,서구,석남동,,인천광역시 서구 석남동 446 서인천 월드메르디앙아파트,분양,개별난방,105152.77,13,778.0,재건축조합,월드건설,0325798023,,아파트,인천광역시 서구 신석로 71,위탁관리,계단식,20060727,0325798024,778,83930.74,172.0,511.0,95.0,0.0,64341.3567,20,20,1,0,22785,37.5116023329527,126.668730639345
A40482703,석남 금호어울림,2826011000,인천광역시,서구,석남동,,인천광역시 서구 석남동 532 석남 금호어울림,분양,개별난방,105854.36,13,769.0,금호건설(주),(주)리치월드컨설팅,0325748598,석남금호어울림.apti.co.kr.,아파트,인천광역시 서구 가정로223번길 28,위탁관리,계단식,20071130,0325748625,769,79114.03,206.0,461.0,102.0,0.0,62665.1803,28,28,2,20,,37.5061343025719,126.669360783999
A40482901,석남 우림필유,2826011000,인천광역시,서구,석남동,,인천광역시 서구 석남동 588 석남 우림필유,분양,개별난방,37854.0,4,288.0,우림건설(주),우연재건축조합,0325728021,,아파트,인천광역시 서구 염곡로 198,위탁관리,계단식,20060913,0325728022,288,28571.896,63.0,225.0,0.0,0.0,22128.1152,27,27,1,7,22795,37.5019906743721,126.668360096975
A40482902,석남 경남아너스빌,2826011000,인천광역시,서구,석남동,,인천광역시 서구 석남동 593 석남 경남아너스빌,분양,개별난방,59168.77,6,471.0,경남건설,새인천 재건축 조합,0325711031,,아파트,인천광역시 서구 염곡로 172,위탁관리,혼합식,20061101,0325713434,471,45226.434,149.0,322.0,0.0,0.0,35670.09,23,23,2,8,22795,37.4995710340059,126.668906385581
A10023028,가재울역트루엘에코시티아파트,2826011200,인천광역시,서구,가좌동,,인천광역시 서구 가좌동 627 가재울역트루엘에코시티아파트,혼합,개별난방,166089.52,10,1218.0,일성건설(주),가좌라이프빌라구역 주택재건축정비사업조합,0325761218,truelecocity.aptner.com,아파트,인천광역시 서구 열우물로240번길 20,위탁관리,계단식,20240126,025761219,1218,106261.2,725.0,493.0,0.0,0.0,79239.46,29,29,3,26,22823,37.4849143252991,126.686648331878
A10026638,"가좌두산위브트레지움1,2단지아파트",2826011200,인천광역시,서구,가좌동,,"인천광역시 서구 가좌동 611 가좌두산위브트레지움1,2단지아파트",분양,개별난방,234594.08,16,1757.0,두산건설,인천가좌 주공2단지 주택재건축정비사업,0325738814,http://kjds.aptner.com,아파트,인천광역시 서구 여우재로 136,위탁관리,계단식,20171208,0325738815,1757,232746.16,992.0,765.0,0.0,0.0,115341.76,27,27,2,45,22814,37.4908980541952,126.686368464715
A40425302,가좌신현대아파트,2826011200,인천광역시,서구,가좌동,,인천광역시 서구 가좌동 217 가좌신현대아파트,분양,개별난방,34546.53,1,343.0,신현대주택,신현대주택,0325827985,,아파트,인천광역시 서구 원적로47번길 35,위탁관리,계단식,19950401,0322727985,343,32538.87,164.0,179.0,0.0,0.0,25019.215,24,24,1,8,22818,37.4913803017882,126.67635773758
A40476201,가좌 진주5단지 아파트,2826011200,인천광역시,서구,가좌동,,인천광역시 서구 가좌동 30-102 가좌 진주5단지 아파트,분양,개별난방,37694.074,3,268.0,라이프주택(주),라이프주택(주),0325771548,,아파트,인천광역시 서구 장고개로 319,자치관리,계단식,19910720,0322771548,268,37694.074,0.0,178.0,0.0,90.0,29001.1,15,15,1,9,22815,37.4917212160379,126.685726026447
A40476203,가좌 진주4단지 아파트,2826011200,인천광역시,서구,가좌동,,인천광역시 서구 가좌동 30-100 가좌 진주4단지 아파트,분양,개별난방,40390.84,4,302.0,라이프주택건설,라이프주택,0325775023,,아파트,인천광역시 서구 장고개로309번길 19,자치관리,계단식,19910128,0325791923,302,32467.87,0.0,163.0,15.0,124.0,32467.76,15,15,1,12,22815,37.4910597850563,126.682422577584
A40476206,가좌 진주2단지 아파트,2826011200,인천광역시,서구,가좌동,,인천광역시 서구 가좌동 30-4 가좌 진주2단지 아파트,분양,개별난방,67537.84,7,644.0,라이프건설,라이프건설,0325775059,,아파트,인천광역시 서구 장고개로309번길 24,자치관리,혼합식,19840813,0325749758,644,66367.28,224.0,252.0,168.0,0.0,54147.24,14,14,1,17,22815,37.4915057923843,126.684612674525
A40476207,가좌 진주1단지 아파트,2826011200,인천광역시,서구,가좌동,,인천광역시 서구 가좌동 30-2 가좌 진주1단지 아파트,분양,개별난방,49342.766,3,686.0,라이프주택,라이프주택,0325768204,jj1.atpi.co.kr,아파트,인천광역시 서구 원적로 82,자치관리,복도식,19811012,0325768214,686,45024.0,686.0,0.0,0.0,0.0,36029.44,14,14,1,6,22815,37.4935113386576,126.682997609473
A40476209,가좌 진주3단지 아파트,2826011200,인천광역시,서구,가좌동,,인천광역시 서구 가좌동 30-86 가좌 진주3단지 아파트,분양,개별난방,59663.0,6,798.0,라이프 주택개발(주),라이프 주택개발(주),0325765313,,아파트,인천광역시 서구 장고개로309번길 29,자치관리,혼합식,19891125,0325825523,798,59662.168,592.0,206.0,0.0,0.0,48019.1,15,15,1,17,22815,37.4923065605722,126.682075126078
A40480704,가좌현대아파트,2826011200,인천광역시,서구,가좌동,,인천광역시 서구 가좌동 81-22 가좌현대아파트,분양,개별난방,47856.51,6,460.0,현대산업개발,현대산업개발,0325767449,,아파트,인천광역시 서구 원적로124번길 21,위탁관리,계단식,19850620,0325767448,460,47140.477,0.0,460.0,0.0,0.0,39090.8,14,14,1,17,22807,37.4966636067587,126.686855607807
A40480705,가좌 범양파크 아파트,2826011200,인천광역시,서구,가좌동,,인천광역시 서구 가좌동 81-59 가좌 범양파크 아파트,분양,개별난방,60625.0,6,510.0,범양건설(주),범양건설(주),0325768838,,아파트,인천광역시 서구 원적로124번길 31,자치관리,계단식,19900830,0325768819,510,60624.938,0.0,300.0,90.0,120.0,51378.9,15,15,0,17,22807,37.4962945317846,126.689166428984
A40480710,가좌 한신휴플러스아파트,2826011200,인천광역시,서구,가좌동,,인천광역시 서구 가좌동 7 가좌 한신휴플러스아파트,혼합,개별난방,331685.0,35,2276.0,한신공영(주),한신공영(주),0325710936,ikhyuplus.co.kr,아파트,인천광역시 서구 건지로 402,위탁관리,계단식,20071025,0325710938,2276,248972.56,542.0,1348.0,242.0,144.0,193044.4,25,25,2,55,22810,37.4952664818856,126.6844067696
A40480901,가좌 현대3차 아파트,2826011200,인천광역시,서구,가좌동,,인천광역시 서구 가좌동 122-2 가좌 현대3차 아파트,분양,개별난방,33000.12,1,263.0,현대건설,현대건설,0325810925,,아파트,인천광역시 서구 원적로95번길 5,위탁관리,혼합식,19981120,0325810926,263,25449.57,131.0,132.0,0.0,0.0,19039.5,24,24,0,6,22809,37.4952727991392,126.681422960313
A40481303,가좌 풍림 아파트,2826011200,인천광역시,서구,가좌동,,인천광역시 서구 가좌동 214 가좌 풍림 아파트,분양,개별난방,36523.34,3,358.0,(주)창보종합건설,피스건설(주),0325738532,없음,아파트,인천광역시 서구 원적로47번길 6,위탁관리,계단식,19960925,0322888532,358,34459.9,178.0,180.0,0.0,0.0,25930.58,21,21,2,11,22817,37.4917529698394,126.679967573863
A40481601,가좌 유영그랑빌아파트,2826011200,인천광역시,서구,가좌동,,인천광역시 서구 가좌동 407 가좌 유영그랑빌아파트,분양,개별난방,13753.836,2,200.0,유영건설,유영건설,0325751514,,아파트,인천광역시 서구 여우재로75번길 3,위탁관리,계단식,20041222,0322661514,200,13752.836,200.0,0.0,0.0,0.0,10662.168,10,10,1,10,22823,37.4844747561138,126.6885000369
A10020943,목화아파트,2826011300,인천광역시,서구,마전동,,인천광역시 서구 마전동 916- 목화아파트,분양,개별난방,21698.23,4,300.0,주식회사 동문주택,주식회사 동문주택,0325647007,,아파트,인천광역시 서구 완정로178번길 31,자치관리,계단식,19900803,0325647006,299,21698.227,260.0,40.0,0.0,0.0,16595.7,5,5,1,0,,37.6044890037892,126.658933471267
A10020953,장미아파트,2826011300,인천광역시,서구,마전동,,인천광역시 서구 마전동 920- 장미아파트,분양,개별난방,15835.73,6,260.0,선우공영,선우공영,0325646494,,아파트,인천광역시 서구 완정로178번길 51,자치관리,계단식,19901024,0322726494,260,15534.0,260.0,0.0,0.0,0.0,11601.45,5,5,1,0,,37.6060758430155,126.659253290505
A10022482,마전풍림아이원2차아파트,2826011300,인천광역시,서구,마전동,,인천광역시 서구 마전동 1151- 마전풍림아이원2차아파트,분양,개별난방,14152.0,1,109.0,풍림아이원,동승개발,0325680264,,아파트,인천광역시 서구 가현로 55,위탁관리,계단식,20050129,0325680265,109,12528.88,1.0,108.0,0.0,0.0,9155.523,15,15,0,0,,37.6129236832166,126.66000014293
A10023072,미래지향아파트,2826011300,인천광역시,서구,마전동,,인천광역시 서구 마전동 928-17 미래지향아파트,분양,개별난방,18819.484,3,128.0,이지종합건설 주식회사,이지종합건설 주식회사,0325692206,,아파트,인천광역시 서구 검단로501번안길 5,위탁관리,계단식,20080418,0325692209,128,14092.952,0.0,128.0,0.0,0.0,10845.4166,10,10,0,5,22618,37.60413812322,126.659826097256
A10023074,동남아파트,2826011300,인천광역시,서구,마전동,,인천광역시 서구 마전동 922-2 동남아파트,분양,개별난방,14561.0,2,111.0,동남기업(주),동남기업(주),0325668747,마전동남.apti.co.kr,아파트,인천광역시 서구 검단로487번안길 11-14,위탁관리,계단식,19991112,0325678748,111,11236.414,56.0,28.0,27.0,0.0,8899.7314,14,14,0,4,22611,37.6069965653635,126.661634947145
A10023902,검단양우내안애퍼스트힐,2826011300,인천광역시,서구,마전동,,인천광역시 서구 마전동 1131-1 검단양우내안애퍼스트힐,분양,개별난방,75928.766,7,545.0,양우건설,마전지구 지역주택조합,0325659251,,아파트,인천광역시 서구 검단로609번길 23,위탁관리,계단식,20220220,0325659520,545,51023.0,273.0,272.0,0.0,0.0,39020.8689,18,18,3,19,22601,37.6115504442588,126.669980784742
A10026092,검단2차 우방아이유쉘아파트,2826011300,인천광역시,서구,마전동,,인천광역시 서구 마전동 996-1 검단2차 우방아이유쉘아파트,분양,개별난방,57608.0,5,380.0,에스엠상선(주) 건설부문,에스엠상선(주),0325695640,,아파트,인천광역시 서구 완정로 126,위탁관리,계단식,20180629,0325695639,380,36775.027,231.0,149.0,0.0,0.0,26479.2607,15,15,3,8,22635,37.601171987348,126.662462516107
A40426001,마전 금호어울림,2826011300,인천광역시,서구,마전동,,인천광역시 서구 마전동 49-1 마전 금호어울림,분양,개별난방,20595.871,3,163.0,금호산업(주),천산개발(주),0325621933,,아파트,인천광역시 서구 가현로 33,위탁관리,계단식,20070919,0325621966,163,17500.555,0.0,163.0,0.0,0.0,13466.0304,15,15,2,6,22608,37.6147019219355,126.658615000064
A40426004,마전풍림아이원1차,2826011300,인천광역시,서구,마전동,,인천광역시 서구 마전동 50-1 마전풍림아이원1차,분양,개별난방,36674.0,4,286.0,풍림산업,한솔공영(주),0325622293,.,아파트,인천광역시 서구 가현로 7,위탁관리,계단식,20040730,0322741488,286,31120.42,0.0,286.0,0.0,0.0,24191.7504,14,14,2,12,22608,37.6145755983918,126.65712142013
A40426006,마전대원레스피아2차,2826011300,인천광역시,서구,마전동,,인천광역시 서구 마전동 43-2 마전대원레스피아2차,분양,개별난방,38110.16,4,311.0,대원산업개발(주),대원산업개발(주),0322726012,,아파트,인천광역시 서구 가현로 71,위탁관리,계단식,20041125,0322726013,311,31658.596,76.0,235.0,0.0,0.0,24493.743,19,19,1,9,22609,37.6118405083138,126.661846426929
A40426007,마전대주파크빌,2826011300,인천광역시,서구,마전동,,인천광역시 서구 마전동 344-2 마전대주파크빌,분양,개별난방,45982.0,5,346.0,(주)대주건설,(주)대주건설,0325623058,,아파트,인천광역시 서구 마전로99번길 8,위탁관리,계단식,20050203,0325623059,346,37829.03,0.0,346.0,0.0,0.0,28248.194,15,15,0,12,22601,37.6101055428756,126.668120489942
A40426010,마전대원레스피아1차,2826011300,인천광역시,서구,마전동,,인천광역시 서구 마전동 49-4 마전대원레스피아1차,분양,개별난방,53563.0,5,423.0,대원산업개발(주),대원산업개발(주),0325681248,,아파트,인천광역시 서구 가현로 41,위탁관리,계단식,20041021,0322751248,423,34213.395,68.0,355.0,0.0,0.0,34213.394,20,20,2,12,22608,37.6138576140491,126.65827420573
A40426011,검단우림필유,2826011300,인천광역시,서구,마전동,,인천광역시 서구 마전동 999-11 검단우림필유,분양,개별난방,58200.0,9,429.0,(주)우림건설,검단우림주택조합,0325693870,,아파트,인천광역시 서구 완정로34번길 29,위탁관리,계단식,20070130,0325693871,429,45709.727,90.0,285.0,54.0,0.0,35582.3637,15,15,3,18,22640,37.5982293151892,126.671125692911
A40426012,검단서해아파트,2826011300,인천광역시,서구,마전동,,인천광역시 서구 마전동 686-118 검단서해아파트,분양,개별난방,37400.0,8,464.0,서해건설,서해건설,0325624532,,아파트,인천광역시 서구 검단로487번안길 16,위탁관리(직영+위탁),계단식,19921226,0325861028,464,34183.2,464.0,0.0,0.0,0.0,26557.88,6,6,1,0,22611,37.6056322672541,126.662223679173
A40426013,검단힐스테이트,2826011300,인천광역시,서구,마전동,,인천광역시 서구 마전동 997-3 검단힐스테이트,분양,개별난방,59841.0,9,465.0,현대건설,대상산업,0325660786,힐스테이트1차.apti.co.kr,아파트,인천광역시 서구 완정로92번길 11,위탁관리,계단식,20070123,0325660798,465,51659.12,0.0,407.0,58.0,0.0,39510.3942,15,15,0,16,22634,37.6005443263142,126.664885201529
A40426015,검단아이파크,2826011300,인천광역시,서구,마전동,,인천광역시 서구 마전동 998-1 검단아이파크,분양,개별난방,76562.46,10,573.0,현대산업개발,대상산업,0325663206,검단아이파크apti.co.kr,아파트,인천광역시 서구 완정로92번길 28,위탁관리,계단식,20070123,0325693207,573,65352.703,0.0,522.0,51.0,0.0,49539.5427,15,15,1,0,22633,37.6012252167206,126.664668346206
A40426016,당하3차풍림아이원,2826011300,인천광역시,서구,마전동,,인천광역시 서구 마전동 1055-1 당하3차풍림아이원,분양,개별난방,72050.0,8,579.0,풍림산업,근화건설,0325631189,,아파트,인천광역시 서구 원당대로685번길 23,위탁관리,계단식,20041015,0322792237,579,57870.0,237.0,342.0,0.0,0.0,43262.6262,19,19,0,17,22643,37.5955963057461,126.676189654099
A40426017,검단1차피오레,2826011300,인천광역시,서구,마전동,,인천광역시 서구 마전동 1029-2 검단1차피오레,분양,개별난방,138197.94,16,917.0,대주건설,하이브 종합건설(주),0325618670,검단1차피오레.apti.co.kr,아파트,인천광역시 서구 완정로65번안길 10,위탁관리,계단식,20070130,0325618672,917,109832.91,0.0,741.0,176.0,0.0,84221.6238,15,15,1,32,22638,37.5963703406583,126.664859533503
A40472719,마전동아,2826011300,인천광역시,서구,마전동,,인천광역시 서구 마전동 1003-1 마전동아,분양,개별난방,179704.56,17,1351.0,동아건설(주),동아건설(주),0325618443,마전동아.apti.co.kr,아파트,인천광역시 서구 완정로34번길 20,위탁관리,계단식,19990114,0325619904,1351,145019.75,478.0,633.0,240.0,0.0,114806.38,20,20,0,2,22642,37.5960555653127,126.672639012347
A40472809,마전현대,2826011300,인천광역시,서구,마전동,,인천광역시 서구 마전동 1004 마전현대,분양,개별난방,46366.438,3,417.0,현대산업개발(주),현대산업개발,0325625231,,아파트,인천광역시 서구 완정로34번길 47,위탁관리,계단식,19980530,0322725231,417,40471.707,135.0,282.0,0.0,0.0,31969.44,15,15,1,0,22642,37.5986646709416,126.674701427842
A40473018,마전영남탑스빌,2826011300,인천광역시,서구,마전동,,인천광역시 서구 마전동 639 마전영남탑스빌,분양,개별난방,255739.22,19,1042.0,영남건설,영남건설,0322889120,mjtopsvill.co.kr,아파트,인천광역시 서구 완정로64번길 7,위탁관리,계단식,20000412,0322889121,1042,169240.78,0.0,394.0,124.0,524.0,136171.16,25,25,2,24,22640,37.5983199607677,126.667622170057
A40473108,당하2차풍림아이원,2826011300,인천광역시,서구,마전동,,인천광역시 서구 마전동 1053 당하2차풍림아이원,분양,개별난방,51138.0,5,400.0,풍림산업(주),근화건설,0325649090,,아파트,인천광역시 서구 원당대로685번길 30,위탁관리,계단식,20041008,0322766200,400,41440.0,80.0,320.0,0.0,0.0,31987.712,20,20,0,10,22643,37.596957461676,126.676169148187
A40473120,마전풍림아이원3차,2826011300,인천광역시,서구,마전동,,인천광역시 서구 마전동 48-1 마전풍림아이원3차,분양,개별난방,38722.27,5,309.0,풍림산업개발,풍림산업개발,0325690655,,아파트,인천광역시 서구 가현로42번길 49,위탁관리,계단식,20050712,0325690656,309,33745.89,0.0,309.0,0.0,0.0,26162.6901,12,12,0,13,22609,37.6127992644523,126.658131471316
A40473121,검단2차풍림아이원,2826011300,인천광역시,서구,마전동,,인천광역시 서구 마전동 999-18 검단2차풍림아이원,분양,개별난방,20785.764,3,174.0,풍림산업,경도건설,0322637788,,아파트,인천광역시 서구 완정로64번길 23,위탁관리,계단식,20050228,0322637789,176,18366.396,0.0,174.0,0.0,0.0,14763.813,13,13,3,0,22640,37.5970645736369,126.670531575093
A40473122,미래지향2차아파트,2826011300,인천광역시,서구,마전동,,인천광역시 서구 마전동 928-33 미래지향2차아파트,분양,개별난방,10707.5,1,79.0,이지종합건설,현대주택건설,0325675677,,아파트,인천광역시 서구 검단로511번길 24,위탁관리,계단식,20091105,0325614315,79,8923.098,0.0,79.0,0.0,0.0,6713.3327,10,10,1,5,22618,37.6041302650454,126.661197435611
A40473123,검단2차아이파크,2826011300,인천광역시,서구,마전동,,인천광역시 서구 마전동 24-1 검단2차아이파크,분양,개별난방,103298.0,7,409.0,현대산업개발,대한토지신탁,0325657580,www.aptworld.co.kr/검단2차아이파크,아파트,인천광역시 서구 검단로540번길 59,위탁관리,계단식,20100519,0325657851,409,66486.0,0.0,0.0,293.0,116.0,54776.5472,15,15,3,15,22640,37.598810671171,126.666260898513
A40473124,검단현대힐스테이트2차,2826011300,인천광역시,서구,마전동,,인천광역시 서구 마전동 997-1 검단현대힐스테이트2차,분양,개별난방,65514.484,9,309.0,현대건설,대상산업(주),0325670974,,아파트,인천광역시 서구 완정로92번길 41,위탁관리,계단식,20100325,0325670979,309,48770.125,0.0,0.0,206.0,103.0,40011.544,15,15,0,11,22634,37.5996194225214,126.663382808605
A40473314,마전하나,2826011300,인천광역시,서구,마전동,,인천광역시 서구 마전동 892 마전하나,분양,개별난방,60337.0,5,477.0,(주)한국공영,(주)한국공영,0325610574,,아파트,인천광역시 서구 검단로 622,위탁관리,계단식,20010827,0325610575,477,49032.63,156.0,231.0,90.0,0.0,39049.656,18,18,1,14,22632,37.6079417012998,126.673437110658
A40482002,마전4차풍림아이원,2826011300,인천광역시,서구,마전동,,인천광역시 서구 마전동 1-1 마전4차풍림아이원,분양,개별난방,25720.076,5,216.0,풍림산업(주),주)프리마 건설,0325691555,,아파트,인천광역시 서구 마전로5번길 13,위탁관리,계단식,20070130,0325691556,216,25719.984,0.0,144.0,72.0,0.0,19837.728,12,12,1,9,22602,37.6144330636665,126.660205524064
A40482003,검단금호어울림,2826011300,인천광역시,서구,마전동,,인천광역시 서구 마전동 1030-1 검단금호어울림,분양,개별난방,29866.0,6,236.0,금호건설,금호건설,0325630093,,아파트,인천광역시 서구 완정로65번안길 17,위탁관리,계단식,20040615,0322790093,236,24965.283,0.0,236.0,0.0,0.0,20058.0648,10,10,0,13,22638,37.5952297100008,126.666839547364
A40482105,마전영진,2826011300,인천광역시,서구,마전동,,인천광역시 서구 마전동 927-5 마전영진,분양,개별난방,38879.23,3,299.0,영진산업개발,영진산업개발,0325629690,,아파트,인천광역시 서구 가현로 168,위탁관리,계단식,19990723,0325629680,299,31969.12,113.0,114.0,72.0,0.0,24574.436,19,19,0,9,22611,37.6048187894342,126.662105616345
A10020453,인천검단 LH37단지,2826011400,인천광역시,서구,당하동,,인천광역시 서구 당하동 1335-3 인천검단 LH37단지,임대,지역난방,60692.53,5,855.0,(주)대광건영,한국토지주택공사,0325616603,,아파트,인천광역시 서구 독정로 77,위탁관리,복도식,20250822,0325616604,855,60692.53,855.0,0.0,0.0,0.0,29533.23,29,29,1,17,,37.5873918552015,126.68270711574
A10020474,인천검단lh38단지,2826011400,인천광역시,서구,당하동,,인천광역시 서구 당하동 1335-2 인천검단lh38단지,임대,지역난방,73830.92,7,1083.0,(주)대광건영,한국토지주택공사,0325630994,,아파트,인천광역시 서구 독정로 57,위탁관리,복도식,20250822,0325630995,1083,59745.164,1083.0,0.0,0.0,0.0,35830.76,28,28,1,0,,37.5864711824635,126.679921739287
A10020529,아라역금강펜테리움더시글로2차,2826011400,인천광역시,서구,당하동,,인천광역시 서구 당하동 1233-1 아라역금강펜테리움더시글로2차,분양,지역난방,80366.47,3,483.0,금강 주택,금강펜테리움이앤씨,0325665547,,아파트,인천광역시 서구 원당대로 938,위탁관리,계단식,20250627,0325665548,483,80366.47,0.0,483.0,0.0,0.0,41035.4589,35,35,2,11,,37.5912783710491,126.70700219032
A10022739,e편한세상 검단어반센트로,2826011400,인천광역시,서구,당하동,,인천광역시 서구 당하동 223-1 e편한세상 검단어반센트로,분양,지역난방,106773.57,13,822.0,디엘이엔씨,"한국토지주택공사 외 5개사 (디엘이엔씨, 금호건설, 계룡건설, 금성백조, 고덕종합건설",0325618803,,아파트,인천광역시 서구 이음3로 101,위탁관리,계단식,20240207,0325618804,822,67618.945,822.0,0.0,0.0,0.0,49266.75,15,15,2,30,22684,37.5891091078283,126.701234802404
A10022792,금강펜테리움 더 시글로 1차 아파트,2826011400,인천광역시,서구,당하동,,인천광역시 서구 당하동 1235 금강펜테리움 더 시글로 1차 아파트,분양,지역난방,87494.59,3,447.0,금강주택,금강주택,0322726454,ara6454@naver.com,주상복합,인천광역시 서구 원당대로 966,위탁관리,복도식,20240130,0322726455,447,72906.195,0.0,447.0,0.0,0.0,37977.1253,35,35,2,14,,37.5913526419801,126.708907628287
A10022965,검단신도시 예미지 더 시그너스,2826011400,인천광역시,서구,당하동,,인천광역시 서구 당하동 1316-1 검단신도시 예미지 더 시그너스,분양,지역난방,202972.0,10,1172.0,(주)제이에스글로벌,(주)제이에스글로벌,0325610288,,아파트,인천광역시 서구 이음1로 136,위탁관리,계단식,20231013,0325610289,1172,136684.38,0.0,799.0,373.0,0.0,104482.4837,25,25,2,0,22872,37.5803522398866,126.705118167466
A10023082,검단우미린파크뷰2단지아파트,2826011400,인천광역시,서구,당하동,,인천광역시 서구 당하동 1311-1 검단우미린파크뷰2단지아파트,분양,지역난방,118277.0,8,810.0,우미개발,전승건설,0325689389,,아파트,인천광역시 서구 이음2로 90,위탁관리,계단식,20230731,0325689390,810,75281.29,545.0,265.0,0.0,0.0,55138.6005,25,25,2,19,22879,37.5829979131327,126.715472649216
A10023092,인천검단 우미린파크뷰1단지,2826011400,인천광역시,서구,당하동,,인천광역시 서구 당하동 1305-1 인천검단 우미린파크뷰1단지,분양,지역난방,54963.0,4,370.0,우미개발,우미산업개발,0325695752,,아파트,인천광역시 서구 이음2로 89,위탁관리,계단식,20230731,0325695753,370,34656.582,257.0,113.0,0.0,0.0,24984.3265,25,25,2,9,22878,37.5835951319062,126.716688915718
A10023142,인천검단lh36단지,2826011400,인천광역시,서구,당하동,,인천광역시 서구 당하동 1327-1 인천검단lh36단지,임대,중앙난방,131981.98,16,1746.0,LH공사,시티건설,0325689270,,아파트,인천광역시 서구 독정로 111,위탁관리,복도식,20230616,0325689271,1746,99154.74,1746.0,0.0,0.0,0.0,67251.28,25,25,2,31,22679,37.5904265522369,126.680364384667
A10023315,검단한신더휴어반파크 아파트,2826011400,인천광역시,서구,당하동,,인천광역시 서구 당하동 1274 검단한신더휴어반파크 아파트,임대,지역난방,136703.22,8,910.0,한신공영(주),(주)한신대한제1호위탁관리부동산투자회사,0325695203,gdthehueub.aptstory.com,아파트,,위탁관리,계단식,20230228,0325695204,910,95157.414,0.0,910.0,0.0,0.0,95157.4178,29,29,2,20,22870,37.5880210059055,126.70775803709
A10023529,검단LH 13단지,2826011400,인천광역시,서구,당하동,,인천광역시 서구 당하동 1272-4 검단LH 13단지,임대,지역난방,71893.39,6,1000.0,한진중공업,한국토지주택공사,0325679907,,아파트,인천광역시 서구 서로3로 49,위탁관리,복도식,20221118,0325679908,1001,71575.69,1000.0,0.0,0.0,0.0,35284.78,25,25,1,0,22874,37.5848198010673,126.705082204269
A10023534,검단신도시 대성베르힐 라 프리미어 아파트,2826011400,인천광역시,서구,당하동,,인천광역시 서구 당하동 1316-2 검단신도시 대성베르힐 라 프리미어 아파트,분양,지역난방,127379.0,10,745.0,디에스종합건설(주),(주)인천검단피에프브이.디에스종합건설(주),0325695338,,아파트,인천광역시 서구 이음1로 154,위탁관리,계단식,20221102,0325695339,745,87617.945,0.0,533.0,212.0,0.0,68609.8096,25,25,2,18,22872,37.5820751971407,126.708342931455
A10023645,검단신도시 모아미래도엘리트파크아파트,2826011400,인천광역시,서구,당하동,,인천광역시 서구 당하동 1318-8 검단신도시 모아미래도엘리트파크아파트,분양,지역난방,111462.17,7,658.0,미래도이엔씨(주),미래도이엔씨(주),0325645666,,아파트,인천광역시 서구 서로3로 50,위탁관리,계단식,20220819,0325645668,658,72006.82,0.0,658.0,0.0,0.0,55741.6894,25,25,2,19,22871,37.5840586302335,126.706921348628
A10023690,검단 신안인스빌어반퍼스트,2826011400,인천광역시,서구,당하동,,인천광역시 서구 당하동 1314 검단 신안인스빌어반퍼스트,분양,지역난방,188655.98,12,1073.0,(주)관악,신안,0325611992,,아파트,인천광역시 서구 이음1로 173,위탁관리,계단식,20220728,0325611994,1073,121348.69,0.0,748.0,325.0,0.0,94240.0606,25,25,2,0,22881,37.5823938425467,126.711444877587
A10023724,검단 호반써밋프라임뷰,2826011400,인천광역시,서구,당하동,,인천광역시 서구 당하동  검단 호반써밋프라임뷰,분양,중앙난방,81138.71,8,719.0,호반건설,티에스(주),0325640184,,아파트,인천광역시 서구 이음2로 70,위탁관리,계단식,20220502,0325640185,719,79811.0,0.0,506.0,213.0,0.0,61413.5496,25,25,2,16,22881,37.584137710853,126.712775345564
A10023751,파라곤 센트럴파크,2826011400,인천광역시,서구,당하동,,인천광역시 서구 당하동 1276-2 파라곤 센트럴파크,분양,지역난방,194027.31,12,1122.0,(주)라인산업,(주)이지종합개발,0325624676,paragonpark.aptner.com,아파트,인천광역시 서구 이음2로 29,위탁관리,계단식,20220629,0325624678,1122,124926.414,0.0,1122.0,0.0,0.0,95339.982,25,25,2,25,22870,37.5874616125578,126.709999064806
A10023931,검단신도시디에트르더펠리체아파트,2826011400,인천광역시,서구,당하동,,인천광역시 서구 당하동 1318-6 검단신도시디에트르더펠리체아파트,분양,지역난방,221097.0,15,1279.0,대방건설(주),대방건설(주),0325695683,,아파트,인천광역시 서구 이음2로 30,위탁관리,계단식,20220128,0325695684,1279,112267.36,0.0,1007.0,272.0,0.0,112267.3616,25,25,2,32,22871,37.5851145191438,126.709809812583
A10024140,한신더휴캐널파크아파트,2826011400,인천광역시,서구,당하동,,인천광역시 서구 당하동 1254-1 한신더휴캐널파크아파트,분양,지역난방,144028.4,9,936.0,한신공영(주),(주)보광종합건설,0325610501,www.gdhstw.com,아파트,인천광역시 서구 이음3로 125,위탁관리,계단식,20210906,0325610607,936,97303.78,0.0,936.0,0.0,0.0,75623.0022,28,28,2,2,22684,37.5902017465471,126.704963595069
A10024146,검단신도시 유승한내들에듀파크아파트,2826011400,인천광역시,서구,당하동,,인천광역시 서구 당하동 1272-2 검단신도시 유승한내들에듀파크아파트,분양,지역난방,154591.81,10,938.0,(주)유승종합건설,(주)유승종합건설,0325668834,,아파트,인천광역시 서구 이음3로 130,위탁관리,계단식,20210827,0325668835,938,104831.59,0.0,728.0,210.0,0.0,80976.4918,25,25,3,23,22874,37.5878900635748,126.705318500051
A10026787,검단 SK VIEW 아파트,2826011400,인천광역시,서구,당하동,,인천광역시 서구 당하동 1067-1 검단 SK VIEW 아파트,분양,개별난방,89805.28,8,530.0,SK건설,서인천개발,0325612650,검단sk뷰.apti.co.kr,아파트,인천광역시 서구 독정로 17,위탁관리,계단식,20170928,0325642650,530,57001.88,0.0,530.0,0.0,0.0,43450.1194,18,18,2,17,22686,37.5849071864089,126.677879765605
A40431001,당하 대주파크빌아파트,2826011400,인천광역시,서구,당하동,,인천광역시 서구 당하동 1098-1 당하 대주파크빌아파트,분양,개별난방,41191.58,4,276.0,대주건설,제일산업개발,0325632250,,아파트,인천광역시 서구 청마로 135,위탁관리,계단식,20060127,0325632251,276,33609.523,0.0,276.0,0.0,0.0,23393.1676,20,20,0,7,22677,37.5886777766589,126.677202066661
A40431002,금호어울림1차(원당지구 108BL 3L),2826011400,인천광역시,서구,당하동,,인천광역시 서구 당하동 1037-3 금호어울림1차(원당지구 108BL 3L),분양,개별난방,40192.902,6,341.0,금호산업(주),이토건설(주),0325673111,,아파트,인천광역시 서구 고산후로78번길 9,위탁관리,계단식,20040326,0322973111,341,36072.72,0.0,341.0,0.0,0.0,28982.1697,15,15,1,12,22683,37.5917798784604,126.699483359531
A40431003,원당 동문아파트,2826011400,인천광역시,서구,당하동,,인천광역시 서구 당하동 1027-3 원당 동문아파트,분양,개별난방,56208.0,7,434.0,동문건설,(주)국도이엔씨,0325649614,,아파트,인천광역시 서구 원당대로820번길 3,위탁관리,계단식,20041201,0325649615,434,45511.92,0.0,434.0,0.0,0.0,36550.868,15,15,1,15,22681,37.5935761731322,126.692727022538
A40431004,당하1차 풍림아이원 아파트,2826011400,인천광역시,서구,당하동,,인천광역시 서구 당하동 1099-3 당하1차 풍림아이원 아파트,분양,개별난방,52631.94,5,442.0,풍림산업(주),풍림산업(주),0325629451,,아파트,인천광역시 서구 청마로 160,위탁관리,계단식,20040409,0325629452,442,44741.02,188.0,254.0,0.0,0.0,32827.4122,20,20,0,12,22678,37.5913865355112,126.677706344409
A40431007,원당신안실크벨리아파트,2826011400,인천광역시,서구,당하동,,인천광역시 서구 당하동 1027-15 원당신안실크벨리아파트,분양,개별난방,127076.6,15,936.0,신안건설(주),신안건설(주),0325612852,,아파트,인천광역시 서구 원당대로840번길 22,위탁관리,계단식,20041210,0322662852,936,90715.02,629.0,307.0,0.0,0.0,63809.8985,20,20,2,29,22681,37.5925765325572,126.692487237083
A40431010,원당풍림아이원아파트,2826011400,인천광역시,서구,당하동,,인천광역시 서구 당하동 1031 원당풍림아이원아파트,분양,개별난방,177362.16,25,1739.0,풍림산업,유니스건설,0325681608,,아파트,인천광역시 서구 원당대로840번길 21,위탁관리,계단식,20040930,0325681662,1739,172723.95,415.0,1197.0,127.0,0.0,135404.0786,20,20,2,0,22682,37.5923411029005,126.694951950973
A40471005,당하동태평,2826011400,인천광역시,서구,당하동,,인천광역시 서구 당하동 820-1 당하동태평,분양,개별난방,54263.04,6,528.0,태평건설,태평건설,0325671266,없음,아파트,인천광역시 서구 독정로25번길 26-6,위탁관리,계단식,19990614,0325676266,528,44035.2,528.0,0.0,0.0,0.0,31667.04,18,18,0,16,22686,37.5850398678654,126.678495098069
A40472208,당하 KCC스위첸 아파트,2826011400,인천광역시,서구,당하동,,인천광역시 서구 당하동 1113-1 당하 KCC스위첸 아파트,분양,개별난방,132284.0,16,1015.0,kcc건설,kcc건설,0322660427,dhkcc.apti.co.kr,아파트,인천광역시 서구 청마로 124,위탁관리,계단식,20050428,0325690427,1015,108278.25,0.0,937.0,78.0,0.0,85531.954,20,20,1,28,22678,37.5884199335229,126.6790265202
A40472601,검단힐스테이트4단지,2826011400,인천광역시,서구,당하동,,인천광역시 서구 당하동 1090-1 검단힐스테이트4단지,분양,개별난방,118672.68,10,588.0,현대건설,이토건설,0325670919,hills4.apti.co.kr/,아파트,인천광역시 서구 청마로 92,위탁관리,계단식,20120224,0325670929,588,66711.12,0.0,0.0,588.0,0.0,66711.1134,15,15,2,21,22675,37.5855465088631,126.672795200953
A40472602,검단힐스테이트5차,2826011400,인천광역시,서구,당하동,,인천광역시 서구 당하동 1075-9 검단힐스테이트5차,분양,개별난방,67098.41,6,412.0,(주)현대건설,하나자산신탁,0325666501,검단힐스테이트5차.com,아파트,인천광역시 서구 청마로34번길 6,위탁관리,계단식,20130222,0325666503,412,46378.49,0.0,292.0,120.0,0.0,36752.344,15,15,2,17,22674,37.5913413732381,126.669294662939
A40472603,인천검단힐스테이트6차,2826011400,인천광역시,서구,당하동,,인천광역시 서구 당하동 1080-1 인천검단힐스테이트6차,분양,개별난방,72734.42,9,454.0,현대건설(주),글로벌씨앤디,0325611132,검단힐스테이트6차.apti.co.kr,아파트,인천광역시 서구 청마로51번안길 11,위탁관리,계단식,20131119,0325687924,454,50106.953,0.0,454.0,0.0,0.0,38585.2928,15,15,2,18,22675,37.5918841552577,126.670754487891
A40473206,당하 푸르지오아파트,2826011400,인천광역시,서구,당하동,,인천광역시 서구 당하동 1099-2 당하 푸르지오아파트,분양,개별난방,92711.0,11,719.0,(주)대우건설,(주)대승실업,0325645972,당하푸르지오.apti.co.kr,아파트,인천광역시 서구 청마로 170,위탁관리,계단식,20050127,0325645973,719,78321.83,0.0,566.0,153.0,0.0,61012.267,20,20,1,19,22678,37.5926375190999,126.678716615415
A40477109,당하 탑스빌 아파트,2826011400,인천광역시,서구,당하동,,인천광역시 서구 당하동 895-1 당하 탑스빌 아파트,분양,개별난방,181427.36,20,1368.0,"영남,신대진,성웅","영남,신대진,성웅",0325644980,,아파트,인천광역시 서구 서곶로 818,위탁관리,계단식,19980320,0325694981,1368,155003.42,452.0,638.0,102.0,176.0,117269.14,18,18,1,40,22677,37.59200163016,126.675532200986
A10022740,인천검단 26단지,2826011500,인천광역시,서구,원당동,,인천광역시 서구 원당동 1026 인천검단 26단지,임대,지역난방,86567.69,6,1152.0,(주)에스지씨이테크건설,한국토지주택공사,0325616997,,아파트,인천광역시 서구 이음1로 420,위탁관리,복도식,20240416,0325616998,1153,86082.88,1152.0,0.0,0.0,0.0,39980.69,24,24,1,22,22863,37.5986523735114,126.7155642206
A10023033,검단신도시 우미린 리버포레,2826011500,인천광역시,서구,원당동,,인천광역시 서구 원당동 1082-3 검단신도시 우미린 리버포레,임대,지역난방,103207.14,8,765.0,우미건설(주),(주)우미대한제28호위탁관리부동산투자회사,0325661129,,아파트,인천광역시 서구 이음3로 221,위탁관리,계단식,20230804,0325661128,765,66853.52,513.0,252.0,0.0,0.0,49226.2175,29,29,2,18,22685,37.5902791152631,126.715972111897
A10023422,검단신도시 모아엘가 그랑데 아파트,2826011500,인천광역시,서구,원당동,,인천광역시 서구 원당동 1063 검단신도시 모아엘가 그랑데 아파트,분양,지역난방,72806.0,5,510.0,혜림건설(주),덕평산업개발(주),0325616541,,아파트,인천광역시 서구 이음4로 93,위탁관리,계단식,20230116,0325616542,510,45955.97,342.0,168.0,0.0,0.0,34452.964,29,29,2,13,22876,37.5930675885989,126.718832799498
A10023550,검단신도시 디에트르 리버파크,2826011500,인천광역시,서구,원당동,,인천광역시 서구 원당동 1084-1 검단신도시 디에트르 리버파크,분양,지역난방,105059.23,7,722.0,대방건설,대방하우징(주),0325698296,,아파트,인천광역시 서구 이음1로 332,위탁관리,계단식,20221031,0325698297,722,66237.25,492.0,230.0,0.0,0.0,49058.007,29,29,2,14,22685,37.590637891089,126.7192113975
A10023580,우미린 더 헤리티지,2826011500,인천광역시,서구,원당동,,인천광역시 서구 원당동 1065-2 우미린 더 헤리티지,분양,지역난방,63357.0,4,437.0,"(주)우미건설, (주)우미토건",(주)심우건설,0325627013,,아파트,인천광역시 서구 이음4로 94,위탁관리,계단식,20221027,0325627014,437,40502.906,293.0,144.0,0.0,0.0,29748.8852,29,29,2,10,22876,37.5918933926296,126.720148399306
A10023624,검단신도시디에트르더힐아파트,2826011500,인천광역시,서구,원당동,,인천광역시 서구 원당동 987-1 검단신도시디에트르더힐아파트,분양,지역난방,243660.19,21,1417.0,대방건설(주),대방건설(주),0325689740,,아파트,인천광역시 서구 서로3로 255,위탁관리,계단식,20220929,0325689741,1417,158766.61,0.0,1047.0,370.0,0.0,124957.8395,20,20,3,46,22860,37.6010069478289,126.709360468052
A10023746,검단신도시 예미지 트리플에듀 아파트,2826011500,인천광역시,서구,원당동,,인천광역시 서구 원당동 1014 검단신도시 예미지 트리플에듀 아파트,분양,지역난방,207211.7,14,1249.0,(주)제이에스글로벌,금성백조,0325610937,,아파트,인천광역시 서구 서로4로 89,위탁관리,계단식,20220630,0325610938,1249,142556.25,0.0,868.0,381.0,0.0,109988.5655,25,25,2,30,22861,37.60208808539,126.712578608875
A10023780,검단신도시 파라곤보타닉파크아파트,2826011500,인천광역시,서구,원당동,,인천광역시 서구 원당동 114 검단신도시 파라곤보타닉파크아파트,분양,지역난방,147866.0,10,887.0,(주)라인건설,(주)바우하우스,0325683367,v2admin.aptner.com/login,아파트,인천광역시 서구 서로3로 225,위탁관리,계단식,20220527,0325683369,887,99455.88,0.0,887.0,0.0,0.0,150333.1517,25,25,1,23,22859,37.6007413486436,126.706489129249
A10023785,검단신도시로제비앙라포레,2826011500,인천광역시,서구,원당동,,인천광역시 서구 원당동 112-1 검단신도시로제비앙라포레,분양,지역난방,117998.01,9,735.0,대광건영,대광건영,0325694540,,아파트,인천광역시 서구 서로3로 277,위탁관리,계단식,20220530,0325694541,735,76703.1,0.0,735.0,0.0,0.0,121718.6001,20,20,2,21,22860,37.6025345432947,126.711810340674
A10023947,검단신도시 우미린 더 시그니처,2826011500,인천광역시,서구,원당동,,인천광역시 서구 원당동 1022-1 검단신도시 우미린 더 시그니처,분양,지역난방,199125.36,13,1268.0,우미건설(주),우미건설(주),0325660557,,아파트,인천광역시 서구 이음5로 39,위탁관리,계단식,20220124,0325660558,1268,134702.86,0.0,1268.0,0.0,0.0,101318.8724,29,29,2,25,22867,37.5965154123105,126.710598953569
A10024161,인천 검단 LH20단지아파트,2826011500,인천광역시,서구,원당동,,인천광역시 서구 원당동 1094 인천 검단 LH20단지아파트,임대,지역난방,112865.55,7,1942.0,동부건설,한국토지주택공사,0325616481,,아파트,인천광역시 서구 이음3로 220,위탁관리,복도식,20210729,0325616483,1942,112474.62,1942.0,0.0,0.0,0.0,56193.76,25,25,1,29,22878,37.5887971558048,126.71585489594
A10024163,검단푸르지오더베뉴,2826011500,인천광역시,서구,원당동,,인천광역시 서구 원당동 1018 검단푸르지오더베뉴,분양,지역난방,284250.0,16,1540.0,(주)대우건설,(주)대우건설,0325621540,thevenew.aptner.com,아파트,인천광역시 서구 이음6로 33,위탁관리,계단식,20210831,0325671540,1540,176004.22,0.0,1214.0,326.0,0.0,135951.1,29,29,2,34,22868,37.5975670560742,126.711338959187
A10024234,검단 금호어울림 센트럴,2826011500,인천광역시,서구,원당동,,인천광역시 서구 원당동 1024 검단 금호어울림 센트럴,분양,지역난방,219219.64,13,1452.0,금호건설(주),"인천도시공사, 금호건설(주), 경화건설(주)",0325621206,,아파트,인천광역시 서구 이음5로 65,위탁관리,계단식,20210604,0325621207,1452,154082.23,0.0,1452.0,0.0,0.0,116172.44,29,29,2,28,22864,37.5947337315248,126.713749299963
A10024268,검단호반써밋1차,2826011500,인천광역시,서구,원당동,,인천광역시 서구 원당동 1022 검단호반써밋1차,분양,지역난방,176961.77,14,1168.0,주식회사 호반산업,주식회사티에스주택,0325630133,https://ghs1.aptner.com/v2,아파트,인천광역시 서구 이음5로 15,위탁관리,계단식,20210603,0325630122,1168,123620.55,0.0,1168.0,0.0,0.0,94023.3627,27,27,2,27,22867,37.5962848101918,126.708131554426
A40432001,원당 e-편한세상 아파트,2826011500,인천광역시,서구,원당동,,인천광역시 서구 원당동 852-1 원당 e-편한세상 아파트,분양,개별난방,57360.69,7,449.0,대림산업,나누리아름건설,0325633177,www.wondangeapt.com,아파트,인천광역시 서구 고산로 38,위탁관리,계단식,20040830,0325633178,449,47665.79,119.0,330.0,0.0,0.0,35180.993,15,15,2,15,22625,37.5962352269615,126.701170983622
A40432002,대한항공 검단 사원 아파트,2826011500,인천광역시,서구,원당동,,인천광역시 서구 원당동 567 대한항공 검단 사원 아파트,임대,개별난방,69701.81,11,687.0,한진건설,대한항공,0325632011,,아파트,인천광역시 서구 고산로 19,위탁관리,복도식,19980703,0325632022,687,54148.0,687.0,0.0,0.0,0.0,37953.26,15,15,0,11,22624,37.5939687448359,126.700051810583
A40432003,LG원당자이,2826011500,인천광역시,서구,원당동,,인천광역시 서구 원당동 823-1 LG원당자이,분양,개별난방,122513.68,12,938.0,(주)정광종합건설,GS건설,0325618358,cafe.naver.com/wdlgxi,아파트,인천광역시 서구 원당대로839번길 34,위탁관리,계단식,20040628,0325618359,938,78739.49,125.0,719.0,94.0,0.0,78739.4907,19,19,3,0,22647,37.5949098977407,126.698594011938
A40473701,원당2차금호어울림아파트,2826011500,인천광역시,서구,원당동,,인천광역시 서구 원당동 854-3 원당2차금호어울림아파트,분양,개별난방,33450.65,3,269.0,금호건설,이토건설/이토씨앤디,0325665677,,아파트,인천광역시 서구 고산로 13,위탁관리,계단식,20050129,0322895677,269,33287.71,0.0,209.0,60.0,0.0,24218.5781,15,15,1,9,22624,37.5938972424093,126.7017014227
A10026685,검단우방아이유쉘아파트,2826011800,인천광역시,서구,금곡동,,인천광역시 서구 금곡동 728-6 검단우방아이유쉘아파트,분양,개별난방,82607.0,8,555.0,우방,하이플러스카드(주),0325616977,,아파트,인천광역시 서구 완정로 208,위탁관리,계단식,20170829,0325656978,555,59790.566,117.0,438.0,0.0,0.0,44109.5138,15,15,1,18,22612,37.6036974308949,126.65328645519
A40433001,금곡 하나 아파트,2826011800,인천광역시,서구,금곡동,,인천광역시 서구 금곡동 725-7 금곡 하나 아파트,분양,개별난방,30543.754,6,299.0,한국공영(주),한국공영(주),0325643588,금곡하나.apti.co.kr,아파트,인천광역시 서구 완정로216번길 5,위탁관리,계단식,19990722,0325643587,299,23958.756,107.0,138.0,54.0,0.0,23958.7563,15,15,0,12,22613,37.6037893878007,126.652753998607
A40433002,금곡 동남 아파트,2826011800,인천광역시,서구,금곡동,,인천광역시 서구 금곡동 722-2 금곡 동남 아파트,분양,개별난방,42610.36,4,370.0,동남기업,동남기업,0325642882,금곡동남.apti.co.kr,아파트,인천광역시 서구 완정로 242,위탁관리,계단식,19991115,0322642882,370,36129.3,146.0,224.0,0.0,0.0,27695.72,22,22,1,10,22613,37.6045775642824,126.650584595218
A10020872,왕길역 아테라 아파트,2826011900,인천광역시,서구,오류동,,인천광역시 서구 오류동 1719-5 왕길역 아테라 아파트,분양,개별난방,33869.04,4,243.0,금호건설 주식회사,우리자산신탁(주),0325637270,,아파트,인천광역시 서구 봉화로 60-11,위탁관리,계단식,20250123,0325637271,243,22436.275,134.0,109.0,0.0,0.0,17297.685,20,20,2,9,,37.5989648828447,126.63820860504
A10022450,검단힐스테이트3차,2826011900,인천광역시,서구,오류동,,인천광역시 서구 오류동 1719-2 검단힐스테이트3차,분양,개별난방,117667.0,9,651.0,현대건설,(주)한시스 (주)한백씨엔티,0325613062,,아파트,인천광역시 서구 봉화로 60-17,위탁관리,계단식,20101203,,677,84924.71,0.0,270.0,227.0,154.0,67842.9018,20,20,0,19,,37.6000051624072,126.639858573767
A10024329,검단오류역우방아이유쉘,2826011900,인천광역시,서구,오류동,,인천광역시 서구 오류동 1722-1 검단오류역우방아이유쉘,분양,개별난방,55436.312,6,420.0,SM우방산업,SM우방산업,0325687851,,아파트,인천광역시 서구 대촌로 26,위탁관리,계단식,20210405,0325687850,420,36846.176,0.0,420.0,0.0,0.0,27894.07,18,18,2,13,22656,37.5965255434426,126.633301149948
A40430003,검단오류풍림아이원,2826011900,인천광역시,서구,오류동,,인천광역시 서구 오류동 74-1 검단오류풍림아이원,분양,개별난방,31707.16,3,207.0,풍림산업,프리마건설,0325640438,,아파트,인천광역시 서구 봉화로 78,위탁관리,계단식,20110329,0325640439,207,22762.918,0.0,207.0,0.0,0.0,17540.54,20,20,2,6,22651,37.6007283354062,126.639606523076
A40473608,검단자이1단지,2826011900,인천광역시,서구,오류동,,인천광역시 서구 오류동 79 검단자이1단지,분양,개별난방,77428.0,6,418.0,GS건설(주),엔씨티건설,0325612506,없음,아파트,인천광역시 서구 버들로 27,위탁관리,계단식,20101228,0325612507,418,53326.824,0.0,302.0,116.0,0.0,39870.534,15,15,2,18,22657,37.5972396099988,126.6390410907
A10022296,왕길역로열파크씨티푸르지오,2826012000,인천광역시,서구,왕길동,,인천광역시 서구 왕길동 - 왕길역로열파크씨티푸르지오,분양,개별난방,227054.0,15,1500.0,대우건설,dk퍼스트,0325690569,,아파트,,위탁관리,계단식,20240930,0325690570,1500,151116.88,363.0,1067.0,70.0,0.0,114662.7184,29,29,2,0,,,
A40429001,왕길 동남디아망아파트,2826012000,인천광역시,서구,왕길동,,인천광역시 서구 왕길동 633-2 왕길 동남디아망아파트,분양,개별난방,40980.0,6,308.0,동남주택(주),동남주택(주),0325680754,www.검단동남디아망.com,아파트,인천광역시 서구 봉수대로1440번길 19,위탁관리,계단식,20060502,0325680755,308,34618.184,0.0,308.0,0.0,0.0,26169.2508,15,15,1,11,22614,37.6025659583076,126.65019776271
A40429002,왕길 원흥 아파트,2826012000,인천광역시,서구,왕길동,,인천광역시 서구 왕길동 273-5 왕길 원흥 아파트,분양,개별난방,35823.0,6,354.0,원흥종합건설(주),원흥종합건설(주),0325645443,,아파트,인천광역시 서구 검단로 419,위탁관리,계단식,19930710,0325634650,354,33790.586,168.0,174.0,12.0,0.0,25539.48,6,6,0,0,22615,37.6003074802672,126.65157662483
A40429003,신명스카이뷰드림,2826012000,인천광역시,서구,왕길동,,인천광역시 서구 왕길동 634-1 신명스카이뷰드림,분양,개별난방,65565.0,6,390.0,신명종합건설,신명종합건설,0325641338,apta854799,아파트,인천광역시 서구 봉수대로1440번길 29,자치관리,계단식,20041201,0325641339,390,49545.91,0.0,390.0,0.0,0.0,33125.742,15,15,2,13,22614,37.6025729461583,126.653176051666
A40429004,왕길 유승 아파트,2826012000,인천광역시,서구,왕길동,,인천광역시 서구 왕길동 295-1 왕길 유승 아파트,분양,개별난방,69416.54,5,608.0,유승건설,유승건설,0325658082,,아파트,인천광역시 서구 단봉로 12,위탁관리,계단식,20000421,0325638082,608,45201.92,256.0,352.0,0.0,0.0,45201.92,16,16,1,19,22659,37.6005061524361,126.649023924883
A40429005,검단대림e-편한세상,2826012000,인천광역시,서구,왕길동,,인천광역시 서구 왕길동 661-1 검단대림e-편한세상,분양,개별난방,157671.0,19,1003.0,대림산업(주),대림산업(주),0325694831,,아파트,인천광역시 서구 검단로 446,위탁관리,계단식,20070604,0325694833,1003,122938.94,0.0,716.0,229.0,58.0,98250.75,15,15,1,36,22636,37.6006965580617,126.657652699282
A40473606,검단1차풍림아파트,2826012000,인천광역시,서구,왕길동,,인천광역시 서구 왕길동 649-1 검단1차풍림아파트,분양,개별난방,37756.0,4,318.0,프리마건설,풍림산업,0325669304,,아파트,인천광역시 서구 봉수대로1440번길 4,위탁관리,계단식,20041001,0322959303,318,33369.18,48.0,270.0,0.0,0.0,25798.1652,15,15,0,11,22615,37.6014673088101,126.649079201596
A40473607,인천마전(공단),2826012000,인천광역시,서구,왕길동,,인천광역시 서구 왕길동 633-1 인천마전(공단),임대,개별난방,45506.18,5,621.0,한국토지주택공사,백일건설,0325636880,www.kohom.co.kr,아파트,인천광역시 서구 봉수대로1440번길 9,위탁관리,복도식,20040323,0325636881,621,45297.133,621.0,0.0,0.0,0.0,26132.5,15,15,1,10,22614,37.6034364473925,126.64927232154
A40473609,검단자이2단지,2826012000,인천광역시,서구,왕길동,,인천광역시 서구 왕길동 81-1 검단자이2단지,분양,개별난방,72066.91,7,413.0,GS건설(주),세계건설,0325663278,,아파트,인천광역시 서구 오동로 32,위탁관리,계단식,20101228,0325663279,413,51939.83,0.0,301.0,112.0,0.0,39322.377,15,15,2,16,22657,37.595121485834,126.641229695641
A40473610,드림파크어울림1단지,2826012000,인천광역시,서구,왕길동,,인천광역시 서구 왕길동 80 드림파크어울림1단지,분양,개별난방,96038.234,12,731.0,금호건설,꿈을짓는사람들,0325613807,dreampark1.com,아파트,인천광역시 서구 봉화로 18,위탁관리,계단식,20101203,0325613841,731,96038.234,0.0,311.0,420.0,0.0,74513.2212,15,15,2,23,22657,37.5956590596958,126.639263982794
A40473611,드림파크어울림2단지,2826012000,인천광역시,서구,왕길동,,인천광역시 서구 왕길동 473-5 드림파크어울림2단지,분양,개별난방,31954.678,4,203.0,금호건설,꿈을짖는사람들,0325643985,,아파트,인천광역시 서구 오동로 40,위탁관리,계단식,20101203,0325643986,203,23262.64,0.0,178.0,25.0,0.0,17659.4371,15,15,2,7,22657,37.5963381151621,126.641861478864
A10020223,검단호수공원역 호반써밋,2826012100,인천광역시,서구,불로동,,인천광역시 서구 불로동 0 검단호수공원역 호반써밋,분양,지역난방,95656.875,7,856.0,(주)호반건설,(주)호반건설,0327105305,,아파트,인천광역시 서구 검마루로 124,위탁관리(직영+위탁),계단식,20260213,0327105306,856,95656.836,0.0,0.0,856.0,0.0,95656.8343,29,0,2,0,,37.6073595436945,126.687842417028
A10020384,신검단중앙역 금강펜테리움 센트럴파크,2826012100,인천광역시,서구,불로동,,인천광역시 서구 불로동 971- 신검단중앙역 금강펜테리움 센트럴파크,분양,지역난방,179054.66,10,1049.0,(주)금강주택,(주)금강주택,0325641663,,아파트,인천광역시 서구 동화시로 97,위탁관리,계단식,20251031,0325641664,1049,116447.5,0.0,732.0,317.0,0.0,89490.6402,25,25,3,29,,37.611367027793,126.694378300333
A10020440,신검단중앙역우미린클래스원 아파트,2826012100,인천광역시,서구,불로동,,인천광역시 서구 불로동 1002-6 신검단중앙역우미린클래스원 아파트,분양,지역난방,152583.92,11,875.0,우미건설,검단에이비십칠블록피에프브이(주),0325614023,,아파트,인천광역시 서구 금정로 11,위탁관리,계단식,20250829,0325614024,875,98538.84,0.0,875.0,0.0,0.0,74341.7292,29,29,3,27,,37.6065985300489,126.699135982219
A10020676,신검단중앙역 풍경채 어바니티2차아파트,2826012100,인천광역시,서구,불로동,,인천광역시 서구 불로동 - 신검단중앙역 풍경채 어바니티2차아파트,분양,지역난방,313504.16,17,1734.0,제일건설(주),(주)인천검단2차피에프브이,0325698870,,아파트,인천광역시 서구 고산후로 305,위탁관리,계단식,20250328,0325698871,1734,203282.36,0.0,1197.0,537.0,0.0,155713.2658,1,29,0,0,,37.6119377136588,126.695180100233
A10020875,힐스테이트검단웰카운티,2826012100,인천광역시,서구,불로동,,인천광역시 서구 불로동 1001 힐스테이트검단웰카운티,분양,지역난방,175209.02,13,1535.0,현대건설(주),인천도시공사,0325678964,,아파트,인천광역시 서구 고산후로 249,위탁관리,계단식,20250123,0325678965,1535,173519.34,0.0,1073.0,462.0,0.0,135464.2635,25,25,3,43,,37.6076770522672,126.697952910726
A10020931,힐스테이트검단포레스트,2826012100,인천광역시,서구,불로동,,인천광역시 서구 불로동 864- 힐스테이트검단포레스트,분양,개별난방,116969.54,8,736.0,현대건설,우리자산신탁주식회사,0325650567,,아파트,인천광역시 서구 용해로 20,위탁관리,계단식,20241220,0325650568,736,81637.45,0.0,736.0,0.0,0.0,62487.66,25,25,3,21,,37.6160633457223,126.68207551925
A10021094,신검단중앙역풍경채어바니티아파트,2826012100,인천광역시,서구,불로동,,인천광역시 서구 불로동 - 신검단중앙역풍경채어바니티아파트,분양,지역난방,251581.0,15,1425.0,제일건설(주),인천검단1차피에프브이(주),0325685685,,아파트,인천광역시 서구 금정로 12,위탁관리,계단식,20241128,0325685686,1425,251581.0,0.0,1043.0,382.0,0.0,131094.2883,25,25,3,35,,37.605612464213,126.698949129407
A10022371,불로동한일타운아파트,2826012100,인천광역시,서구,불로동,,인천광역시 서구 불로동 178- 불로동한일타운아파트,분양,개별난방,13510.0,2,138.0,한일종합건설,한일종합건설,0325691501,,아파트,인천광역시 서구 검단로 841,위탁관리,계단식,20080425,0325691502,138,13509.873,67.0,71.0,0.0,0.0,9996.48,18,18,0,4,,37.6194860018069,126.690066636837
A10023913,검단 대광로제비앙센트럴포레아파트,2826012100,인천광역시,서구,불로동,,인천광역시 서구 불로동 803-1 검단 대광로제비앙센트럴포레아파트,분양,개별난방,79330.414,6,556.0,(주)대광건영,(주)대광에이엠씨,0325696811,,아파트,인천광역시 서구 검단로768번길 46,위탁관리,계단식,20220222,0325696812,556,53599.023,0.0,556.0,0.0,0.0,39516.3988,27,27,2,15,22631,37.6116335719948,126.688634914465
A40427001,불로백두,2826012100,인천광역시,서구,불로동,,인천광역시 서구 불로동 324-9 불로백두,분양,개별난방,21689.0,1,175.0,백두건설,백두건설,0325629339,,아파트,인천광역시 서구 검단로777번길 5,위탁관리,혼합식,19951222,0325639338,175,15964.55,90.0,70.0,15.0,0.0,12959.25,15,15,2,5,22620,37.614135450863,126.685517485159
A40427002,불로 삼보해피하임1단지아파트,2826012100,인천광역시,서구,불로동,,인천광역시 서구 불로동 792-1 불로 삼보해피하임1단지아파트,분양,개별난방,55224.574,6,384.0,(주)삼보건영,(주)삼보건영,0325691789,삼보해피하임1차.apti.co.kr,아파트,인천광역시 서구 검단로744번3길 7,위탁관리,계단식,20071121,0325692789,384,46854.06,0.0,310.0,74.0,0.0,34791.5438,19,19,2,11,22631,37.6111214969234,126.685898036369
A40427003,불로금호어울림,2826012100,인천광역시,서구,불로동,,인천광역시 서구 불로동 39 불로금호어울림,분양,개별난방,48423.555,6,412.0,(주)금호건설,(주)이토씨앤디,0325691221,rmagh1221.com,아파트,인천광역시 서구 검단로768번길 19,위탁관리,계단식,20070215,0325691229,412,35017.9,0.0,412.0,0.0,0.0,35017.8988,15,15,0,14,22631,37.6132957801267,126.688286050578
A40427004,불로삼보해피하임2단지아파트,2826012100,인천광역시,서구,불로동,,인천광역시 서구 불로동 51-1 불로삼보해피하임2단지아파트,분양,개별난방,67959.61,8,482.0,(주)삼보건영,삼보,0325696877,,아파트,인천광역시 서구 검단로744번3길 8,위탁관리,계단식,20071121,0325697877,482,58094.82,0.0,406.0,76.0,0.0,43178.9138,20,20,2,13,22631,37.6099919603693,126.685942879234
A40427005,불로동부아파트,2826012100,인천광역시,서구,불로동,,인천광역시 서구 불로동 179 불로동부아파트,분양,개별난방,74968.0,8,534.0,동부건설,동부건설,0325650637,,아파트,인천광역시 서구 검단로 853,위탁관리,계단식,19991125,0325650663,534,61586.773,144.0,246.0,144.0,0.0,48969.33,18,18,2,15,22621,37.619369095406,126.691905943368
A40427006,불로e편한세상,2826012100,인천광역시,서구,불로동,,인천광역시 서구 불로동 806 불로e편한세상,분양,개별난방,67053.0,8,545.0,(주)대림건설,(주)대림건설,0325692662,,아파트,인천광역시 서구 고산후로 398,위탁관리,계단식,20050613,0325692356,545,51277.59,250.0,295.0,0.0,0.0,38795.832,20,20,2,15,22622,37.617998490168,126.694042390673
A40427007,불로퀸스타운신명,2826012100,인천광역시,서구,불로동,,인천광역시 서구 불로동 312-2 불로퀸스타운신명,분양,개별난방,75028.02,7,614.0,신명종합건설(주),신명종합건설(주),0325660622,,아파트,인천광역시 서구 검단로 832,위탁관리,계단식,19981130,0325662260,614,61515.56,310.0,224.0,80.0,0.0,48367.56,20,20,0,16,22627,37.6180466977122,126.69024534476
A40427008,퀸스타운길훈아파트,2826012100,인천광역시,서구,불로동,,인천광역시 서구 불로동 372 퀸스타운길훈아파트,분양,개별난방,74628.74,7,628.0,주식회사 길훈종합건설,주식회사 길훈종합건설,0325614266,,아파트,인천광역시 서구 검단로 786,위탁관리,계단식,19990617,0325614267,628,60388.96,228.0,400.0,0.0,0.0,47612.16,20,20,1,0,22627,37.6136306479979,126.686066095515
A40427009,퀸스타운 동성아파트,2826012100,인천광역시,서구,불로동,,인천광역시 서구 불로동 316-1 퀸스타운 동성아파트,분양,개별난방,77659.81,7,635.0,(주)동성종합건설,(주)동성종합건설,0325670161,,아파트,인천광역시 서구 검단로 788,위탁관리,계단식,19990721,0322790161,635,65586.76,240.0,315.0,80.0,0.0,51962.25,20,20,1,0,22627,37.6164099634809,126.688224799661
A40477510,불로월드,2826012100,인천광역시,서구,불로동,,인천광역시 서구 불로동 308 불로월드,분양,개별난방,213134.34,23,1699.0,월드건설,월드건설,0325630438,,아파트,인천광역시 서구 검단로 836,위탁관리,계단식,19980515,0325666889,1699,169371.81,807.0,736.0,156.0,0.0,129068.49,20,20,0,44,22628,37.6184252957966,126.693074462856
A40477511,불로신명스카이뷰,2826012100,인천광역시,서구,불로동,,인천광역시 서구 불로동 185-40 불로신명스카이뷰,분양,개별난방,11424.42,2,120.0,신명건설,신명종합건설,0325622217,,아파트,,위탁관리,계단식,20070420,0325622216,120,11424.3,60.0,60.0,0.0,0.0,8674.005,15,15,0,4,,37.6195633857282,126.693269366172
A10022962,청라푸르지오라피아노2단지,2826012200,인천광역시,서구,청라동,,인천광역시 서구 청라동 105-147 청라푸르지오라피아노2단지,분양,개별난방,15300.31,15,127.0,대우건설,다홈개발(주),0325653307,,연립주택,인천광역시 서구 청라커낼로 75,위탁관리,계단식,20220728,0325653308,127,13953.041,0.0,127.0,0.0,0.0,10788.03,2,2,0,1,22765,37.5219891894394,126.630018518264
A10023584,청라푸르지오라피아노1단지,2826012200,인천광역시,서구,청라동,,인천광역시 서구 청라동 105-145 청라푸르지오라피아노1단지,분양,개별난방,26368.16,19,227.0,대우건설,하나자산신탁,0325653307,,,인천광역시 서구 청라커낼로 85,위탁관리,계단식,20220728,0325653308,227,25331.494,0.0,227.0,0.0,0.0,19285.15,2,2,0,0,22765,37.5225282628768,126.631259417456
A10023941,청라시티프라디움,2826012200,인천광역시,서구,청라동,,인천광역시 서구 청라동 84-7 청라시티프라디움,분양,지역난방,45015.33,6,270.0,(주)시티종합건설,(주)시티건설,0325625683,청라시티프라디움.apti.co.kr,아파트,인천광역시 서구 청라한내로 131,위탁관리,계단식,20210723,0325635683,270,29096.402,0.0,270.0,0.0,0.0,22948.8145,18,18,1,9,22753,37.5368395881209,126.626893989118
A10023957,청라호반써밋,2826012200,인천광역시,서구,청라동,,인천광역시 서구 청라동 84-6 청라호반써밋,분양,지역난방,39968.88,4,210.0,티에스자산개발(주),호반산업,0327101614,,아파트,인천광역시 서구 청라사파이어로 260,위탁관리,계단식,20210630,0327101615,210,23448.992,0.0,210.0,0.0,0.0,17845.3471,18,18,0,9,22753,37.5370952398727,126.625000591679
A10024874,청라호수공원 한신더휴아파트,2826012200,인천광역시,서구,청라동,,인천광역시 서구 청라동 103-15 청라호수공원 한신더휴아파트,분양,지역난방,137244.73,10,898.0,한신공영(주),드림파크개발(주),0325629655,movill.net,아파트,인천광역시 서구 청라한내로 40,위탁관리,계단식,20200601,0325629657,898,97764.98,0.0,898.0,0.0,0.0,74956.4634,30,30,2,23,22765,37.5292000666636,126.628559577326
A10025726,한양수자인레이크블루 아파트,2826012200,인천광역시,서구,청라동,,인천광역시 서구 청라동 85-1 한양수자인레이크블루 아파트,분양,지역난방,244117.94,14,1534.0,"(주)한양,보성산업(주)",코리아신탁(주),0325617233,cafe.naver.com/lakeblue06,아파트,인천광역시 서구 청라한내로 132,위탁관리,계단식,20190130,0325617236,1534,173230.86,151.0,1379.0,4.0,0.0,125995.5811,36,36,1,30,22753,37.5384422390857,126.631039405155
A10025862,센텀로제비앙아파트,2826012200,인천광역시,서구,청라동,,인천광역시 서구 청라동 83-1 센텀로제비앙아파트,분양,중앙난방,103650.98,7,674.0,대광건설,대광에이엠씨(주),0325689521,movill.net,아파트,인천광역시 서구 비즈니스로 166,위탁관리,계단식,20181218,0325689522,674,71382.12,0.0,674.0,0.0,0.0,55837.6778,25,25,1,17,22754,37.5385440081723,126.622332906939
A10025972,청라센트럴에일린의뜰,2826012200,인천광역시,서구,청라동,,인천광역시 서구 청라동 156-1 청라센트럴에일린의뜰,분양,지역난방,194799.7,6,1163.0,아이에스동서(주),아이에스동서(주),0325668155,eileenapt300.aptner.com/,아파트,인천광역시 서구 청라커낼로 300,위탁관리,계단식,20180921,0325688157,1163,140331.61,0.0,888.0,275.0,0.0,101659.3745,37,37,2,33,22762,37.5355843959693,126.645399759821
A10026408,청라제일풍경채2차에듀앤파크,2826012200,인천광역시,서구,청라동,,인천광역시 서구 청라동 149-2 청라제일풍경채2차에듀앤파크,분양,지역난방,259538.7,14,1581.0,제일건설(주),리바이브청라개발(주),0325697072,청라제일풍경채2차에듀앤파크.apti.co.kr,아파트,인천광역시 서구 청라한울로 96,위탁관리,계단식,20171221,0325697073,1581,179475.22,0.0,1412.0,169.0,0.0,134650.423,30,30,2,41,22747,37.5366883352251,126.648759221961
A10026453,청라모아미래도아파트,2826012200,인천광역시,서구,청라동,,인천광역시 서구 청라동 82-1 청라모아미래도아파트,분양,지역난방,58956.0,5,418.0,(주)모아미래도건설,(주)장영건설,0325634039,네이버카페,아파트,인천광역시 서구 비즈니스로 165,위탁관리,계단식,20180222,0325644039,418,39936.918,0.0,418.0,0.0,0.0,29809.1048,25,25,1,11,22754,37.5387364596312,126.621319719138
A10027235,청라 골드클래스 커낼웨이,2826012200,인천광역시,서구,청라동,,인천광역시 서구 청라동 165-7 청라 골드클래스 커낼웨이,분양,지역난방,41641.73,6,269.0,보광건설,골드클래스(주),0325634023,cafe.naver.com/goldclasscanalway,아파트,인천광역시 서구 청라라임로 40,위탁관리,계단식,20161128,0325637761,269,29175.014,0.0,269.0,0.0,0.0,22305.8566,15,15,1,9,22738,37.5315887288006,126.653682411955
A10027473,청라파크자이더테라스2단지,2826012200,인천광역시,서구,청라동,,인천광역시 서구 청라동 104-13 청라파크자이더테라스2단지,분양,지역난방,61559.42,18,376.0,GS건설,(주)청라주택개발전문위탁관리부동산투자회사,0325611604,0,연립주택,인천광역시 서구 보석로 32,위탁관리,계단식,20160317,0325611606,376,41528.84,0.0,376.0,0.0,0.0,31358.2872,4,4,1,50,22766,37.5222662394691,126.62504518578
A10027494,청라파크자이더테라스1단지,2826012200,인천광역시,서구,청라동,,인천광역시 서구 청라동 104-2 청라파크자이더테라스1단지,분양,지역난방,44385.44,17,270.0,GS건설,(주)청라주택개발전문위탁관리부동산투자회사,0325611603,,연립주택,인천광역시 서구 보석로 41,위탁관리,계단식,20160317,0325611605,270,30166.59,0.0,270.0,0.0,0.0,22748.5326,4,4,1,36,22766,37.5232094029123,126.623713407897
A40470301,청라자이아파트,2826012200,인천광역시,서구,청라동,,인천광역시 서구 청라동 193-1 청라자이아파트,분양,지역난방,199481.0,19,884.0,GS건설(주),GS건설(주),0325697874,cafe.naver.com/cheongnaxiapt,아파트,인천광역시 서구 청라에메랄드로 30,위탁관리,계단식,20100611,0325697876,895,132891.66,0.0,0.0,736.0,148.0,103902.107,20,20,2,35,22740,37.527674040966,126.657066945632
A40470302,청라웰카운티1차아파트,2826012200,인천광역시,서구,청라동,,인천광역시 서구 청라동 130-2 청라웰카운티1차아파트,분양,지역난방,109356.69,7,692.0,현대건설,인천도시공사,0325611012,well73932@naver.com,아파트,인천광역시 서구 청라에메랄드로 156,위탁관리,계단식,20100719,0325617275,694,78095.84,0.0,692.0,0.0,0.0,58638.5428,20,20,2,15,22734,37.5386134739163,126.657991956193
A40470303,청라중흥S클래스2단지,2826012200,인천광역시,서구,청라동,,인천광역시 서구 청라동 165-13 청라중흥S클래스2단지,분양,지역난방,45446.816,4,174.0,중흥건설(주),중흥건설산업,0325613491,,아파트,인천광역시 서구 청라에메랄드로 113,위탁관리,계단식,20100528,0325613492,174,29052.2,0.0,0.0,0.0,174.0,24545.5308,15,15,1,7,22738,37.5344041117856,126.655451251222
A40470304,청라메이루즈 커낼파크뷰,2826012200,인천광역시,서구,청라동,,인천광역시 서구 청라동 165-2 청라메이루즈 커낼파크뷰,분양,지역난방,41904.098,6,263.0,광명건설,광명건설,0325612838,,아파트,인천광역시 서구 청라라임로 86,위탁관리,계단식,20110225,0325642838,263,28927.309,0.0,263.0,0.0,0.0,21785.4429,15,15,1,8,22738,37.5343653006103,126.653672175072
A40470305,청라중흥S클래스1단지,2826012200,인천광역시,서구,청라동,,인천광역시 서구 청라동 116-4 청라중흥S클래스1단지,분양,지역난방,113984.0,6,476.0,(합)중흥주택,중흥건설(주),0325681970,http://청라중흥1단지.apti.co.kr,아파트,인천광역시 서구 청라라임로 131,위탁관리,계단식,20100930,0325681972,476,74573.27,0.0,0.0,238.0,238.0,61758.8076,25,25,1,13,22734,37.5387099306655,126.652668716622
A40470306,청라14단지호반베르디움,2826012200,인천광역시,서구,청라동,,인천광역시 서구 청라동 116-6 청라14단지호반베르디움,분양,지역난방,82950.0,10,745.0,(주)호반건설,호반하우징,0325687378,hoban14.apti.co.kr,아파트,인천광역시 서구 청라라임로 109,위탁관리,계단식,20110201,0325687379,745,82950.0,0.0,745.0,0.0,0.0,63302.9485,30,30,0,20,22735,37.5365933565675,126.650729170437
A40470307,청라서해그랑블,2826012200,인천광역시,서구,청라동,,인천광역시 서구 청라동 165-10 청라서해그랑블,분양,지역난방,58687.61,6,336.0,(주)서해종합건설,(주)부국엔지니어링,0325615731,청라서해그랑블.apti.co.kr,아파트,인천광역시 서구 청라에메랄드로 65,위탁관리,계단식,20101221,0325615732,342,29443.965,336.0,0.0,0.0,0.0,20155.2624,15,15,2,12,22738,37.5305354871476,126.656126476124
A40470308,청라호반베르디움2차아파트,2826012200,인천광역시,서구,청라동,,인천광역시 서구 청라동 130-4 청라호반베르디움2차아파트,분양,지역난방,135412.0,8,1051.0,호반건설,영무건설,0325697521,,아파트,인천광역시 서구 청라에메랄드로 134,위탁관리,계단식,20110519,0325697523,1051,84444.65,1051.0,0.0,0.0,0.0,62919.678,30,30,2,16,22735,37.5367132869845,126.657002700075
A40470309,청라힐데스하임,2826012200,인천광역시,서구,청라동,,인천광역시 서구 청라동 185-1 청라힐데스하임,분양,지역난방,162324.0,10,1284.0,원건설(주),(주)플레니엄,0325644401,hilldes4401@hanmail.net,아파트,인천광역시 서구 청라라임로 17,위탁관리,계단식,20110728,0325644403,1284,109937.37,1284.0,0.0,0.0,0.0,76937.5548,25,25,2,23,22741,37.5277004007932,126.650506930411
A40470310,청라호반베르디움20블럭,2826012200,인천광역시,서구,청라동,,인천광역시 서구 청라동 168-1 청라호반베르디움20블럭,분양,지역난방,102303.23,8,620.0,호반건설,LH,0325694687,hoban20.co.kr,아파트,인천광역시 서구 청라에메랄드로76번길 14,위탁관리,계단식,20111018,0325694688,620,70631.9,0.0,620.0,0.0,0.0,52606.6638,30,30,2,14,22739,37.530563479359,126.659131219171
A40470311,청라엑슬루타워,2826012200,인천광역시,서구,청라동,,인천광역시 서구 청라동 164-1 청라엑슬루타워,분양,지역난방,130435.44,2,616.0,주식회사풍림산업,일주건설주식회사,0325699092,,아파트,인천광역시 서구 중봉대로586번길 22,위탁관리,혼합식,20111125,0325699094,616,97046.96,0.0,0.0,520.0,96.0,71436.56,55,55,1,10,22737,37.530804303959,126.651349449913
A40470312,청라웰카운티 2차아파트,2826012200,인천광역시,서구,청라동,,인천광역시 서구 청라동 166-1 청라웰카운티 2차아파트,분양,지역난방,101843.0,6,464.0,신동아건설,인천도시공사,0325641920,www.aptworld.co.kr/청라웰카운티19,아파트,인천광역시 서구 청라에메랄드로 112,위탁관리,계단식,20120423,0325641927,464,70274.28,0.0,0.0,381.0,83.0,54342.13,30,30,2,12,22739,37.5346523359074,126.657775051817
A40470313,청라린스트라우스,2826012200,인천광역시,서구,청라동,,인천광역시 서구 청라동 160-1 청라린스트라우스,분양,지역난방,123415.695,4,590.0,(주)우미건설,(주)심우건설 외,0325688417,lynn590@hanmail.net,아파트,인천광역시 서구 청라라임로 85,위탁관리,계단식,20130827,0325688418,590,90520.56,0.0,0.0,512.0,78.0,68144.2457,41,41,0,8,22736,37.5346639378439,126.652614505895
A40471903,청라하우스토리커낼뷰,2826012200,인천광역시,서구,청라동,,인천광역시 서구 청라동 155-2 청라하우스토리커낼뷰,분양,지역난방,50840.39,5,260.0,남광토건,명관건설,0325697764,www.crhaustory.com,아파트,인천광역시 서구 청라루비로 106,위탁관리,계단식,20110531,0325697765,260,37602.4,0.0,0.0,260.0,0.0,30203.352,15,15,1,8,22761,37.5344043550594,126.642023110663
A40471904,청라26동양엔파트,2826012200,인천광역시,서구,청라동,,인천광역시 서구 청라동 155-12 청라26동양엔파트,분양,지역난방,53873.918,5,256.0,동양메이저건설,한국자산신탁(주),0325639953,청라26동양엔파트.apt.co.kr,아파트,인천광역시 서구 청라커낼로 249,위탁관리,계단식,20110819,0325639943,256,37636.77,0.0,0.0,256.0,0.0,30191.8854,15,15,0,11,22761,37.5305187968065,126.64338957328
A40471905,청라한일베라체,2826012200,인천광역시,서구,청라동,,인천광역시 서구 청라동 155-9 청라한일베라체,분양,지역난방,53629.582,4,257.0,한일건설(주),한일건설(주),0325697580,청라한일베라체.apti.co.kr,아파트,인천광역시 서구 청라루비로 68,위탁관리,계단식,20110530,0325697581,257,37344.773,0.0,0.0,191.0,66.0,29904.34,15,15,0,11,22761,37.530619343671,126.642107385191
A40471906,청라LH,2826012200,인천광역시,서구,청라동,,인천광역시 서구 청라동 184-1 청라LH,혼합,지역난방,188331.66,22,1767.0,tec건설,LH공사,0325646447,xn--lh-hz8i431e.apti.co.kr/aptHome/,아파트,인천광역시 서구 청라커낼로 232,위탁관리,혼합식,20110916,0325646449,1767,97110.88,1255.0,512.0,0.0,0.0,97110.88,20,20,2,49,22763,37.5275933295416,126.648401388602
A40471907,청라우미린,2826012200,인천광역시,서구,청라동,,인천광역시 서구 청라동 103-6 청라우미린,분양,지역난방,32278.547,3,200.0,서령개발,우미건설,0325722918,,아파트,인천광역시 서구 청라한내로 39,위탁관리,계단식,20111027,0325722919,200,22359.04,0.0,200.0,0.0,0.0,16986.9936,25,25,1,6,22765,37.5286632417792,126.626983818015
A40471908,청라한라비발디,2826012200,인천광역시,서구,청라동,,인천광역시 서구 청라동 107-1 청라한라비발디,분양,지역난방,215109.0,12,992.0,한라건설(주),한라건설(주),0325696270,,아파트,인천광역시 서구 청라한울로 17,위탁관리,계단식,20111019,0325696271,992,145108.62,0.0,0.0,992.0,0.0,113135.8546,25,25,2,24,22749,37.5395092968161,126.638735498205
A40471909,청라반도유보라,2826012200,인천광역시,서구,청라동,,인천광역시 서구 청라동 103-26 청라반도유보라,분양,지역난방,36622.406,4,174.0,(주)반도건설,(주)반도건설,0325642644,https://청라반도유보라.apti.co.kr,아파트,인천광역시 서구 솔빛로 55,위탁관리,계단식,20111021,0325642645,174,19815.055,0.0,0.0,174.0,0.0,19815.0548,15,15,1,4,22765,37.5252006991462,126.626780687566
A40471910,청라한양수자인아파트,2826012200,인천광역시,서구,청라동,,인천광역시 서구 청라동 102-2 청라한양수자인아파트,분양,지역난방,121685.97,6,566.0,(주)한양,123,0325649590,www.chsapt.com,아파트,인천광역시 서구 비즈니스로 41,위탁관리,계단식,20111228,0325649591,566,85144.945,0.0,0.0,465.0,101.0,68063.356,30,30,0,13,22766,37.5261182390017,126.620997857084
A40471911,청라SKVIEW,2826012200,인천광역시,서구,청라동,,인천광역시 서구 청라동 103-16 청라SKVIEW,분양,지역난방,194924.88,9,879.0,sk건설,KB부동산신탁,0325650760,청라sk뷰.apti.co.kr,아파트,인천광역시 서구 솔빛로 93,위탁관리,계단식,20111228,0325650790,879,127987.76,0.0,0.0,876.0,3.0,100771.172,30,30,2,20,22765,37.5261276379555,126.629899206225
A40471912,골드클래스,2826012200,인천광역시,서구,청라동,,인천광역시 서구 청라동 103-2 골드클래스,분양,지역난방,39163.0,3,192.0,보광건설,골드클래스,0325623877,https://cafe.naver.com/cheangnagoldclass35,아파트,인천광역시 서구 청라사파이어로 158,위탁관리,계단식,20120223,0325623977,192,27077.693,0.0,0.0,192.0,0.0,22407.0063,25,25,1,6,22765,37.5284282040917,126.62602540366
A40471913,청라힐스테이트커낼뷰,2826012200,인천광역시,서구,청라동,,인천광역시 서구 청라동 155-17 청라힐스테이트커낼뷰,분양,지역난방,52462.3,5,244.0,(주)현대건설,공무원연금공단,0325644120,https://cafe.naver.com/hillstatecanalview,아파트,인천광역시 서구 청라커낼로 297,위탁관리,계단식,20120316,0325644121,244,37441.71,0.0,0.0,244.0,0.0,29597.424,15,15,1,10,22761,37.5343990519933,126.643307738602
A40471914,한화꿈에그린,2826012200,인천광역시,서구,청라동,,인천광역시 서구 청라동 139-1 한화꿈에그린,분양,지역난방,237381.06,10,1172.0,한화건설,와이엠건설(주),0325613725,www.crhw.aptner.co.kr,아파트,인천광역시 서구 크리스탈로 148,위탁관리,계단식,20120326,0325653725,1172,131283.89,0.0,0.0,1056.0,116.0,131283.8898,30,30,1,28,22750,37.53673349507,126.639881239795
A40471915,청라힐스테이트,2826012200,인천광역시,서구,청라동,,인천광역시 서구 청라동 103-27 청라힐스테이트,분양,지역난방,35871.156,4,224.0,현대건설,공무원관리공단,0325653358,,아파트,인천광역시 서구 청라한내로 7,위탁관리,계단식,20120316,0325658058,224,25394.916,0.0,224.0,0.0,0.0,19035.388,15,15,1,9,22765,37.5255934751981,126.628247579851
A40471916,청라제일풍경채,2826012200,인천광역시,서구,청라동,,인천광역시 서구 청라동 115-1 청라제일풍경채,분양,지역난방,221762.0,14,1071.0,제일건설(주),한국자산신탁(주),0325689547,http://cafe.naver.com/cheongnajeil,아파트,인천광역시 서구 청라한울로 95,위탁관리,계단식,20120424,0325689549,1071,155468.77,0.0,0.0,1071.0,0.0,119419.6456,25,25,1,0,22747,37.5386443104442,126.648790554033
A40471917,청라 디 이스트,2826012200,인천광역시,서구,청라동,,인천광역시 서구 청라동 102-10 청라 디 이스트,분양,지역난방,161556.67,7,734.0,동문건설(주),동문건설(주),0325771797,,아파트,인천광역시 서구 비즈니스로28번길 13,위탁관리,계단식,20120814,0325771799,734,108369.664,0.0,0.0,734.0,0.0,87749.334,30,30,2,14,22766,37.5266383761881,126.6229092582
A40471918,청라반도유보라2,2826012200,인천광역시,서구,청라동,,인천광역시 서구 청라동 102-16 청라반도유보라2,분양,지역난방,152697.45,7,754.0,반도건설,반도건설,0325688428,,아파트,인천광역시 서구 비즈니스로 10,위탁관리,계단식,20120803,0325688430,754,108371.016,0.0,0.0,754.0,0.0,84876.103,30,30,2,14,22766,37.5245044158759,126.623942658146
A40471919,청라동양엔파트,2826012200,인천광역시,서구,청라동,,인천광역시 서구 청라동 102-3 청라동양엔파트,분양,지역난방,121213.0,6,564.0,(주)동양,(주)다솔피엠,0325693977,,아파트,인천광역시 서구 솔빛로 13,위탁관리,계단식,20120731,0325693978,564,83045.27,0.0,0.0,564.0,0.0,66944.4864,30,30,2,13,22766,37.5238522531003,126.621904252084
A40471920,청라29블럭 호반베르디움,2826012200,인천광역시,서구,청라동,,인천광역시 서구 청라동 173-1 청라29블럭 호반베르디움,분양,지역난방,368532.3,15,2134.0,호반건설(주),(주)한국토지신탁,0325687825,cr29bl.kr,아파트,인천광역시 서구 청라커낼로 163,위탁관리,계단식,20120717,0325687828,2134,239096.05,0.0,2134.0,0.0,0.0,181280.5488,30,30,2,21,22764,37.527488150253,126.637219042227
A40471921,청라롯데캐슬,2826012200,인천광역시,서구,청라동,,인천광역시 서구 청라동 159-1 청라롯데캐슬,분양,지역난방,197267.0,7,828.0,롯데건설,롯데건설,0325631404,cheongnalotte.aptstory.com,아파트,인천광역시 서구 청라커낼로 252,위탁관리,계단식,20130227,0325631405,828,133650.52,0.0,0.0,588.0,240.0,105830.0064,42,42,2,18,22762,37.5302535716189,126.647782386384
A40471923,청라더샵레이크파크,2826012200,인천광역시,서구,청라동,,인천광역시 서구 청라동 154-1 청라더샵레이크파크,분양,지역난방,154318.11,4,766.0,포스코건설,대한투자신탁,0325690958,lakepark.postown.net/,아파트,인천광역시 서구 크리스탈로74번길 26,위탁관리,기타,20130401,0325690959,766,83705.23,0.0,0.0,657.0,109.0,83644.52,57,57,1,18,22760,37.5308610752624,126.638143428837
A40471924,청라푸르지오,2826012200,인천광역시,서구,청라동,,인천광역시 서구 청라동 150-1 청라푸르지오,분양,지역난방,112101.086,4,751.0,대우건설(주),(주)흥화,0325655373,cafe.naver.com/chraprugio,아파트,인천광역시 서구 크리스탈로102번길 25,위탁관리,계단식,20130627,0325655375,751,111891.78,0.0,0.0,642.0,109.0,84299.757,57,57,1,0,22760,37.5350912839809,126.637008428208
