kaptCode,kaptName,bjdCode,as1,as2,as3,as4,kaptAddr,codeSaleNm,codeHeatNm,kaptTarea,kaptDongCnt,kaptdaCnt,kaptBcompany,kaptAcompany,kaptTel,kaptUrl,codeAptNm,doroJuso,codeMgrNm,codeHallNm,kaptUsedate,kaptFax,hoCnt,kaptMarea,kaptMparea60,kaptMparea85,kaptMparea135,kaptMparea136,privArea,kaptTopFloor,ktownFlrNo,kaptBaseFloor,kaptdEcntp,zipcode,위도,경도
A54003001,옥천현대아파트,4615010400,전라남도,순천시,옥천동,,전라남도 순천시 옥천동 231-1 옥천현대아파트,분양,개별난방,17361.67,3,168.0,현대건설,현대건설,0617524261,,아파트,전라남도 순천시 옥천1길 3,자치관리,계단식,19901116,0617524268,168,16760.412,0.0,168.0,0.0,0.0,13180,10,10,1,9,57941,34.9517595899544,127.476429493626
A10024614,신매곡서한이다음,4615010700,전라남도,순천시,매곡동,,전라남도 순천시 매곡동 572 신매곡서한이다음,분양,개별난방,139026.4,11,928.0,(주)서한건설,매곡동주공아파트제1단지재건축정비사업조합,0617512990,https://sinseohan.aptner.com/v2,아파트,전라남도 순천시 삼산초등길 20,위탁관리,계단식,20200716,0617512991,928,98817.25,80.0,842.0,6.0,0.0,75631.2397,24,24,2,28,57939,34.9651949040799,127.486211297081
A54007001,삼풍그린2차,4615010700,전라남도,순천시,매곡동,,전라남도 순천시 매곡동 179-1 삼풍그린2차,분양,개별난방,19247.0,2,182.0,삼풍건설,삼풍건설,0617519656,,아파트,전라남도 순천시 매산길 90,자치관리,계단식,19911026,0617539656,182,18939.828,0.0,169.0,13.0,0.0,15631.96,15,15,0,7,57940,34.9612778729922,127.481506243528
A54007002,순천매곡2단지,4615010700,전라남도,순천시,매곡동,,전라남도 순천시 매곡동 407 순천매곡2단지,분양,개별난방,25662.0,13,470.0,대한주택공사,대한주택공사,0617527520,,아파트,전라남도 순천시 북정3길 28,자치관리,계단식,19821226,0617517530,470,23785.95,470.0,0.0,0.0,0.0,21473.94,5,5,0,0,57940,34.966240413994,127.481482170222
A10021092,향림현대2차아파트,4615010800,전라남도,순천시,석현동,,전라남도 순천시 석현동 525- 향림현대2차아파트,분양,개별난방,14130900.0,1,137.0,현대건설주식회사,서진산업개발주식회사,0617511285,,아파트,전라남도 순천시 석현길 57,자치관리,계단식,19930924,0617511286,137,14130762.0,0.0,137.0,0.0,0.0,11377.44,15,15,0,0,,34.9735699096439,127.475386551296
A54010001,석현동중흥파크맨션,4615010800,전라남도,순천시,석현동,,전라남도 순천시 석현동 235 석현동중흥파크맨션,분양,개별난방,22530.0,1,213.0,(합)중흥주택,금호산업개발,0617538424,,아파트,전라남도 순천시 석현북길 7,자치관리,계단식,19960817,0617538424,213,20353.713,137.0,57.0,19.0,0.0,15521.36,19,19,2,6,57922,34.9734693272752,127.476579482334
A54010002,순천향림현대1차아파트,4615010800,전라남도,순천시,석현동,,전라남도 순천시 석현동 896 순천향림현대1차아파트,분양,개별난방,57113.47,8,510.0,현대건설,서진산업개발(주),0617522153,,아파트,전라남도 순천시 석현길 70,자치관리,계단식,19911214,0619022153,510,54611.555,0.0,450.0,60.0,0.0,45243.39,15,15,1,17,57922,34.9746957549347,127.475149619794
A10021376,순천가곡대주아파트,4615010900,전라남도,순천시,가곡동,,전라남도 순천시 가곡동 429- 순천가곡대주아파트,분양,개별난방,12205.0,1,144.0,대주건설,대주건설,0617510603,대주건설,아파트,전라남도 순천시 조비길 14,자치관리,계단식,19960824,0617510608,144,12204.956,106.0,38.0,0.0,0.0,9578.59,1,19,0,0,,34.971002117864,127.481482436755
A10022004,드라마시티 목련마을,4615010900,전라남도,순천시,가곡동,,전라남도 순천시 가곡동 980-1 드라마시티 목련마을,혼합,개별난방,8868.0,1,130.0,(주)시티밸리주택산업,(주)시티밸리주택산업,0617525522,,아파트,전라남도 순천시 가곡길 163,위탁관리,복도식,20030317,,130,8868.0,130.0,0.0,0.0,0.0,4577.473,1,4,2,2,,34.9786249755801,127.48118449224
A10023179,대광로제비앙 리버팰리스,4615010900,전라남도,순천시,가곡동,,전라남도 순천시 가곡동 1081 대광로제비앙 리버팰리스,임대,개별난방,109142.516,11,727.0,(주)대광건영,(주)디케이원,0617559780,,아파트,전라남도 순천시 중앙로 530,위탁관리,계단식,20230427,0617559781,727,75199.46,181.0,542.0,4.0,0.0,56521.886,18,18,1,21,57925,34.989588943705,127.492423455108
A10024166,가곡 영무예다음,4615010900,전라남도,순천시,가곡동,,전라남도 순천시 가곡동 1022 가곡 영무예다음,임대,개별난방,39320.754,4,354.0,영무토건,(주)체다카,0617543100,,아파트,전라남도 순천시 원가곡2길 17,위탁관리,계단식,20210813,0617543200,354,29044.236,354.0,0.0,0.0,0.0,21074.8168,18,18,1,11,57924,34.9865444665106,127.484513916478
A54008001,가곡시영아파트,4615010900,전라남도,순천시,가곡동,,전라남도 순천시 가곡동 972 가곡시영아파트,분양,개별난방,19559.0,2,250.0,순천시,순천시,0619014935,,아파트,전라남도 순천시 가곡길 95,자치관리,계단식,19910531,0619014935,250,19558.8,250.0,0.0,0.0,0.0,14976.3,12,12,0,12,57923,34.9801922779639,127.481255098765
A54008002,가곡신영아파트,4615010900,전라남도,순천시,가곡동,,전라남도 순천시 가곡동 646 가곡신영아파트,분양,개별난방,52006.01,3,670.0,(주)신영,(주)신영,0617513523,,아파트,전라남도 순천시 가곡길 30,자치관리,복도식,19940328,0619023523,670,48727.29,670.0,0.0,0.0,0.0,33345.9,21,21,1,8,57923,34.9820358641004,127.481254276669
A54071001,참샘마을휴먼시아,4615010900,전라남도,순천시,가곡동,,전라남도 순천시 가곡동 728 참샘마을휴먼시아,임대,개별난방,42898.0,6,571.0,남해종합개발,한국토지주택공사,0617519966,,아파트,전라남도 순천시 고지1길 57,위탁관리,복도식,20100616,0617537474,571,42551.11,571.0,0.0,0.0,0.0,23788.66,15,15,1,12,57924,34.9843567517608,127.481656547417
A54071002,양우내안애,4615010900,전라남도,순천시,가곡동,,전라남도 순천시 가곡동 812 양우내안애,분양,개별난방,96200.0,5,530.0,양우건설,한국토지신탁,0617510515,,아파트,전라남도 순천시 원가곡길 75,자치관리,계단식,20131106,0617510553,530,74481.164,0.0,342.0,152.0,36.0,54000.0062,20,20,1,15,57924,34.9851801028507,127.480965465799
A10023318,한양수자인디에스티지,4615011000,전라남도,순천시,용당동,,전라남도 순천시 용당동 175 한양수자인디에스티지,분양,개별난방,218680.84,14,1252.0,(주)한양,"우리자산신탁(주), 순천공원개발(주)",0617511481,,아파트,전라남도 순천시 삼산로 173,위탁관리,계단식,20230303,0617521481,1252,143356.58,0.0,1011.0,241.0,0.0,110231.6295,18,18,2,44,57936,34.977429900303,127.493788112576
A10024795,e편한세상순천 1.2단지,4615011000,전라남도,순천시,용당동,,전라남도 순천시 용당동 763 e편한세상순천 1.2단지,분양,개별난방,93556.12,12,605.0,대림산업,한국자산신탁(주),0617559787,,아파트,전라남도 순천시 용당삼산로 29,위탁관리,계단식,20200610,0617559788,605,70936.68,0.0,459.0,146.0,0.0,55189.9839,18,18,2,0,57936,34.9740382408581,127.489079531552
A10025704,덕진 순천의봄 아파트,4615011000,전라남도,순천시,용당동,,전라남도 순천시 용당동 756 덕진 순천의봄 아파트,임대,개별난방,90135.22,11,749.0,덕진토건(주),덕진종합건설(주),0617559088,,아파트,전라남도 순천시 용당삼산로 63,위탁관리,계단식,20190125,0617559089,749,65523.84,588.0,161.0,0.0,0.0,48795.9177,18,18,1,0,57936,34.9782760179083,127.486509269616
A54009002,삼성아파트,4615011000,전라남도,순천시,용당동,,전라남도 순천시 용당동 215 삼성아파트,분양,개별난방,79648.0,10,762.0,(주)삼성건설,(주)삼성건설,0617527364,,아파트,전라남도 순천시 삼산로 135-5,위탁관리,혼합식,19931022,0617523674,762,78440.94,276.0,414.0,72.0,0.0,60942.06,18,18,1,17,57936,34.9752137246486,127.49517378563
A54009003,삼산현대아파트,4615011000,전라남도,순천시,용당동,,전라남도 순천시 용당동 191-1 삼산현대아파트,분양,개별난방,94204.0,11,894.0,현대건설(주),현대건설(주),0617512080,,아파트,전라남도 순천시 삼산로 103-13,위탁관리,혼합식,19891223,0617512090,894,90634.7,156.0,618.0,120.0,0.0,73849.14,15,15,1,31,57936,34.9741587100896,127.493634989389
A54076901,용당피오레,4615011000,전라남도,순천시,용당동,,전라남도 순천시 용당동 431 용당피오레,분양,개별난방,194471.61,12,1055.0,대주건설,HA건설,0617553030,,아파트,전라남도 순천시 삼산로 92-50,위탁관리,계단식,20121127,0617550400,1055,131884.33,0.0,666.0,389.0,0.0,93653.1721,22,22,2,28,57935,34.9701097926146,127.494284136105
A54095801,용당동아아파트,4615011000,전라남도,순천시,용당동,,전라남도 순천시 용당동 570 용당동아아파트,분양,개별난방,66312.0,4,598.0,동아건설,신영주택,0617513237,,아파트,전라남도 순천시 삼산로 81,위탁관리,계단식,19960120,0619033237,598,64024.9,0.0,597.0,1.0,0.0,48335.789,19,19,1,18,57936,34.9735924021761,127.491962600829
A10023338,e편한세상 순천 어반타워 아파트,4615011100,전라남도,순천시,조곡동,,전라남도 순천시 조곡동 634 e편한세상 순천 어반타워 아파트,분양,개별난방,115754.016,10,632.0,DL 이앤씨,한국자산신탁 주식회사,0617559880,,아파트,전라남도 순천시 둑실1길 45,위탁관리,계단식,20230227,0617559881,632,77098.12,0.0,391.0,241.0,0.0,60355.1613,25,25,3,22,57943,34.9612003253988,127.491549106399
A54096201,조곡금호타운,4615011100,전라남도,순천시,조곡동,,전라남도 순천시 조곡동 71-87 조곡금호타운,분양,개별난방,27899.0,3,266.0,(주)광주고속,(주)광주고속,0617420132,,아파트,전라남도 순천시 자경3길 34,자치관리,계단식,19931229,0619010132,266,26966.35,0.0,266.0,0.0,0.0,21648.27,15,15,1,9,57954,34.9523879569897,127.502224283364
A54096302,정원넥스빌아파트,4615011100,전라남도,순천시,조곡동,,전라남도 순천시 조곡동 512 정원넥스빌아파트,분양,개별난방,43495.445,3,289.0,(주)정원건설,(주)정원건설,0617527334,,아파트,전라남도 순천시 봉화로 47,자치관리,계단식,20030419,0617527335,289,24479.947,0.0,289.0,0.0,0.0,24479.9473,20,20,3,8,57943,34.9567794231387,127.495476514795
A54096303,금강메트로빌,4615011100,전라남도,순천시,조곡동,,전라남도 순천시 조곡동 566 금강메트로빌,분양,개별난방,93556.39,6,717.0,금강종합건설,금강종합건설,0617510041,,아파트,전라남도 순천시 둑실5길 25,자치관리,계단식,20040607,0617510042,717,92451.7,0.0,717.0,0.0,0.0,60711.0609,20,20,2,19,57943,34.9587002898482,127.496727028623
A54013001,생목현대아파트,4615011200,전라남도,순천시,생목동,,전라남도 순천시 생목동 28-1 생목현대아파트,분양,개별난방,53058.39,6,499.0,현대산업개발(주),현대산업개발(주),0617453016,,아파트,전라남도 순천시 수박등2길 21,자치관리,계단식,19900928,0617413017,499,52287.688,0.0,499.0,0.0,0.0,41120.715,13,13,0,23,57953,34.9509354893029,127.502961616074
A54013002,벽산첼시빌아파트,4615011200,전라남도,순천시,생목동,,전라남도 순천시 생목동 59 벽산첼시빌아파트,분양,개별난방,109807.17,11,731.0,성지주택건설(주),벽산건설,0617422757,www.aptsaram.co.kr:8002/subapt/index.jsp?apt_code=H620360,아파트,전라남도 순천시 생목길 1,자치관리,계단식,20000315,0617422758,731,85028.086,0.0,491.0,210.0,30.0,70709.379,15,15,3,24,57952,34.9523116512966,127.508131155671
A10020418,순천푸르지오더퍼스트,4615011300,전라남도,순천시,덕암동,,전라남도 순천시 덕암동 450- 순천푸르지오더퍼스트,분양,개별난방,115711.68,6,560.0,대우건설,순천디앤씨,0617430560,,아파트,전라남도 순천시 충효로 25,위탁관리,계단식,20250730,0617430561,560,73248.28,0.0,210.0,350.0,0.0,57015.395,29,29,3,14,,34.9415638406951,127.511661942736
A54012001,덕암현대아파트,4615011300,전라남도,순천시,덕암동,,전라남도 순천시 덕암동 1 덕암현대아파트,분양,개별난방,33607.89,3,391.0,(주)현대산업개발,(주)현대산업개발,0617414665,cafe.daum.net/deokam94,아파트,전라남도 순천시 이수로 224-29,자치관리,계단식,19951028,0617464665,391,33607.59,280.0,111.0,0.0,0.0,26217.96,15,15,0,14,57966,34.9499302389985,127.510145581219
A10028008,순천 연향송보파인빌 아파트,4615011400,전라남도,순천시,연향동,,전라남도 순천시 연향동 1746 순천 연향송보파인빌 아파트,분양,개별난방,115908.0,10,757.0,한빛건설(주),송보건설(주),0617458500,,아파트,전라남도 순천시 구암3길 22,위탁관리,계단식,20150528,0617458502,757,86229.52,0.0,757.0,0.0,0.0,64186.375,20,20,2,0,57991,34.9456048118432,127.511191587454
A54000301,연향우미,4615011400,전라남도,순천시,연향동,,전라남도 순천시 연향동 1384-2 연향우미,분양,개별난방,21876.03,2,300.0,우미,우미산업개발,0619019325,,아파트,전라남도 순천시 연향2로 56,자치관리,복도식,19920418,0617219325,300,21035.25,300.0,0.0,0.0,0.0,14800.5,15,15,1,4,57981,34.9472512439696,127.522217154406
A54000306,대주파크빌,4615011400,전라남도,순천시,연향동,,전라남도 순천시 연향동 1514 대주파크빌,분양,개별난방,57344.69,6,443.0,대주건설(주),대주건설(주),0619011011,,아파트,전라남도 순천시 기적의도서관2길 35,자치관리,계단식,19981231,0617221011,443,46764.56,0.0,253.0,190.0,0.0,37430.81,16,16,2,0,57987,34.9451656343823,127.528449335487
A54000309,대우아파트,4615011400,전라남도,순천시,연향동,,전라남도 순천시 연향동 1345 대우아파트,분양,개별난방,66745.0,6,562.0,(주)대우,대우건설,0617211497,,아파트,전라남도 순천시 연향2로 55,자치관리,계단식,19921223,0617231497,562,66744.79,0.0,330.0,232.0,0.0,53984.496,15,15,1,19,57976,34.9483071964703,127.521086536948
A54000310,연향동성,4615011400,전라남도,순천시,연향동,,전라남도 순천시 연향동 1347 연향동성,분양,개별난방,73653.0,6,660.0,동성종합건설(주),동성종합건설(주),0617225586,cafe.daum.net//dongsungapt1347,아파트,전라남도 순천시 연향번영길 94,자치관리,계단식,19950217,0617237310,660,64859.97,0.0,660.0,0.0,0.0,53738.1,15,15,1,22,57977,34.9496505359864,127.518470820555
A54000311,연향동부아파트,4615011400,전라남도,순천시,연향동,,전라남도 순천시 연향동 1346 연향동부아파트,분양,개별난방,70834.0,6,711.0,동부건설,동부건설,0617218605,dongbu.aptsaram.co.kr,아파트,전라남도 순천시 연향중앙상가길 56,자치관리,계단식,19921127,0617213924,711,69342.695,0.0,711.0,0.0,0.0,56825.19,15,15,0,24,57977,34.9487025292896,127.518413837429
A54000312,연향금호타운,4615011400,전라남도,순천시,연향동,,전라남도 순천시 연향동 1387 연향금호타운,분양,개별난방,85920.69,8,730.0,(주)금호산업,(주)금호산업,0617222232,,아파트,전라남도 순천시 연향1로 40,자치관리,계단식,19940423,0617222282,730,77847.1,60.0,610.0,60.0,0.0,63533.1,15,15,1,25,57989,34.9447187638347,127.51958185439
A54000313,연향현대1차,4615011400,전라남도,순천시,연향동,,전라남도 순천시 연향동 1378 연향현대1차,분양,개별난방,92997.734,6,807.0,현대건설,현대건설,0617216453,,아파트,전라남도 순천시 연향중앙상가길 80,자치관리,계단식,19930922,0619044485,807,83552.875,0.0,717.0,90.0,0.0,68595.255,15,15,0,27,57980,34.9464345274792,127.519352500501
A54072715,연향2차호반리젠시빌,4615011400,전라남도,순천시,연향동,,전라남도 순천시 연향동 1628 연향2차호반리젠시빌,분양,개별난방,100147.0,9,912.0,리젠시빌(주),호반건설,0617267000,,아파트,전라남도 순천시 도장길 50,위탁관리,계단식,20021028,0617264456,912,91707.64,414.0,498.0,0.0,0.0,65924.5416,17,17,0,0,58004,34.939761236359,127.531528295316
A54075901,연향주공,4615011400,전라남도,순천시,연향동,,전라남도 순천시 연향동 1660-1 연향주공,임대,개별난방,30303.27,4,383.0,남양건설,한국토지주택공사,0617278080,,아파트,전라남도 순천시 팔마1길 26,위탁관리,복도식,20061108,0617278081,383,30152.744,383.0,0.0,0.0,0.0,17770.13,15,15,1,8,58002,34.9359755977781,127.513190384816
A54075902,율산에코지오아파트,4615011400,전라남도,순천시,연향동,,전라남도 순천시 연향동 1631 율산에코지오아파트,분양,개별난방,50530.043,6,442.0,(주)부영,(주)부영,0617239868,,아파트,전라남도 순천시 도장길 40,자치관리,계단식,20040420,0617239867,442,46972.535,0.0,442.0,0.0,0.0,37559.5246,18,18,0,14,58004,34.9389259879187,127.527440364408
A54076417,순천부영1차,4615011400,전라남도,순천시,연향동,,전라남도 순천시 연향동 1384-3 순천부영1차,임대,개별난방,98777.0,8,1245.0,부영주택,부영주택,0617220525,,아파트,전라남도 순천시 연향1로 55,위탁관리,복도식,19911207,0617272459,1245,98618.375,1245.0,0.0,0.0,0.0,74700,14,14,0,16,57981,34.9460630570682,127.521795276985
A54076808,연향현대2차,4615011400,전라남도,순천시,연향동,,전라남도 순천시 연향동 1344 연향현대2차,분양,개별난방,65256.594,5,494.0,현대건설(주),현대건설(주),0617223845,,아파트,전라남도 순천시 연향중앙상가길 41,위탁관리,계단식,19941219,0617223840,494,50053.766,0.0,344.0,0.0,150.0,50053.78,15,15,1,17,57976,34.9502474325471,127.52021972662
A54095107,연향코아루,4615011400,전라남도,순천시,연향동,,전라남도 순천시 연향동 89-28 연향코아루,분양,개별난방,58631.0,6,450.0,금강,(주)한국토지신탁,0617261399,http://cafe.daum.net/koarooapt1,아파트,전라남도 순천시 안산길 50,자치관리,계단식,20041129,0619031399,450,51858.0,0.0,450.0,0.0,0.0,38212.155,15,15,0,15,58004,34.9374462176899,127.527040124299
A54095216,순천부영2차,4615011400,전라남도,순천시,연향동,,전라남도 순천시 연향동 1386 순천부영2차,임대,개별난방,101347.79,7,1210.0,부영주택,부영주택,0617212460,,아파트,전라남도 순천시 연향1로 62,위탁관리,복도식,19921203,0617236261,1209,96568.875,1210.0,0.0,0.0,0.0,72600,15,15,1,14,57988,34.9437202526409,127.521844472953
A54097505,금당중흥s-클레스빌,4615011400,전라남도,순천시,연향동,,전라남도 순천시 연향동 1515 금당중흥s-클레스빌,분양,개별난방,46873.0,4,360.0,중흥건설,중흥건설,0617265050,,아파트,전라남도 순천시 기적의도서관2길 51,위탁관리,계단식,20011023,0619015051,360,41165.137,0.0,360.0,0.0,0.0,30575.988,18,18,1,10,57987,34.9439659807108,127.528658602242
A54097602,세영더조은,4615011400,전라남도,순천시,연향동,,전라남도 순천시 연향동 1660-2 세영더조은,분양,개별난방,45153.0,7,333.0,세영종합건설,세영종합건설,0617260338,,아파트,전라남도 순천시 팔마4길 40,자치관리,계단식,20060321,0617260339,333,38816.523,0.0,333.0,0.0,0.0,28294.1497,15,15,0,13,58002,34.9342298289506,127.513930804906
A54097603,연향3지구대주피오레,4615011400,전라남도,순천시,연향동,,전라남도 순천시 연향동 1659 연향3지구대주피오레,분양,개별난방,64886.414,8,336.0,대주건설(주),대주건설(주),0617267227,cafe.daum.net/scfiore,아파트,전라남도 순천시 팔마1길 25,위탁관리,계단식,20060725,0619057227,336,53598.37,0.0,0.0,258.0,78.0,43068.8209,15,15,0,12,58001,34.9354142928997,127.512190075028
A54097604,블루시안,4615011400,전라남도,순천시,연향동,,전라남도 순천시 연향동 1658 블루시안,분양,개별난방,48277.844,6,346.0,중도건설,중도하우징,0617260355,,아파트,전라남도 순천시 팔마1길 27,위탁관리,계단식,20060519,0617260357,346,37357.793,0.0,346.0,0.0,0.0,28546.4178,15,15,1,12,58001,34.9367123557708,127.511294901392
A54097614,연향호반리젠시빌1차,4615011400,전라남도,순천시,연향동,,전라남도 순천시 연향동 1626-1 연향호반리젠시빌1차,분양,개별난방,65213.0,8,841.0,호반건설,리젠시빌건설(주),0617260006,,아파트,전라남도 순천시 안산길 5,자치관리,계단식,20001021,0617260860,841,63209.72,841.0,0.0,0.0,0.0,43236.0331,15,15,1,24,58004,34.9396422551626,127.52857382457
A10027534,풍덕 리가안,4615011500,전라남도,순천시,풍덕동,,전라남도 순천시 풍덕동 276-3 풍덕 리가안,분양,개별난방,9645.696,1,252.0,현진토건,(주)LE,0617421483,,도시형 생활주택(주상복합),전라남도 순천시 하풍1길 17-1,자치관리(직영),기타,20160516,0617421484,252,7653.6475,252.0,0.0,0.0,0.0,4442.63,15,15,1,3,57993,34.9395390869618,127.50705746672
A54015001,풍덕주공,4615011500,전라남도,순천시,풍덕동,,전라남도 순천시 풍덕동 255-5 풍덕주공,분양,개별난방,20028.4,11,300.0,대주건설,한국주택공사,0617447196,,아파트,전라남도 순천시 풍덕주택길 99,자치관리,계단식,19890429,0617217730,300,20027.92,300.0,0.0,0.0,0.0,16391.4,5,5,0,0,57993,34.9395693749425,127.504892836562
A54015002,한신아파트,4615011500,전라남도,순천시,풍덕동,,전라남도 순천시 풍덕동 807-7 한신아파트,분양,개별난방,47621.52,7,442.0,우진건설,우진건설,0619012006,,아파트,전라남도 순천시 중앙초등길 132,자치관리,계단식,19900731,0617432006,442,46879.246,0.0,390.0,52.0,0.0,38419.68,13,13,1,17,57994,34.9392386339516,127.502180338778
A54015003,풍덕금호타운아파트,4615011500,전라남도,순천시,풍덕동,,전라남도 순천시 풍덕동 255-3 풍덕금호타운아파트,분양,개별난방,51399.0,4,486.0,광주고속,삼양물산,0619015349,http://www.k-apt.go.kr/kaptinfo/mng/mng_getKaptBasic.do,아파트,전라남도 순천시 풍덕주택길 96,자치관리,계단식,19910504,0617455349,486,51057.48,0.0,430.0,56.0,0.0,41238.74,14,14,0,18,57994,34.9387395048569,127.50366934872
A54018001,성진아파트,4615011800,전라남도,순천시,저전동,,전라남도 순천시 저전동 270-2 성진아파트,분양,개별난방,17721.0,2,205.0,합성공사,성진건설,0617450608,,아파트,전라남도 순천시 상인제길 138-15,자치관리,복도식,19911127,0617450605,205,16912.5,205.0,0.0,0.0,0.0,12300,13,13,1,2,57958,34.9459234144657,127.481461342003
A54020001,선미중앙하이츠,4615012200,전라남도,순천시,동외동,,전라남도 순천시 동외동 56-14 선미중앙하이츠,분양,개별난방,22811.0,1,178.0,중앙건설(주),선미종합건설(주),0617511694,,아파트,전라남도 순천시 성동3길 8,자치관리,계단식,19930917,0619058778,178,21731.678,0.0,132.0,46.0,0.0,17261.6,23,23,1,4,57942,34.9532370581586,127.490511100179
A10022022,순천오천해광샹그릴라,4615012600,전라남도,순천시,오천동,,전라남도 순천시 오천동 1086- 순천오천해광샹그릴라,혼합,개별난방,10184.0,3,140.0,다인산업,다인산업,0617412077,,아파트,전라남도 순천시 지현길 17,위탁관리,계단식,20150409,0617412078,140,9389.366,140.0,0.0,0.0,0.0,6999.132,9,9,0,0,,34.9360627267704,127.49023643708
A10026627,순천오천영무예다음아파트,4615012600,전라남도,순천시,오천동,,전라남도 순천시 오천동 953-2 순천오천영무예다음아파트,혼합,개별난방,28831.895,3,258.0,(주)영무건영,(주)영무건설,0617419993,오천영무예다음.aptsaram.co.kr/,아파트,전라남도 순천시 오천4길 39,위탁관리,계단식,20171207,0617419994,258,21014.848,258.0,0.0,0.0,0.0,14887.4084,17,17,1,0,57998,34.9343469188224,127.493161030854
A10026633,호반 베르디움 2차 그린파크,4615012600,전라남도,순천시,오천동,,전라남도 순천시 오천동 951 호반 베르디움 2차 그린파크,분양,개별난방,73136.0,8,642.0,호반건설,티에스자산개발,0617469887,,아파트,전라남도 순천시 오천7길 11,위탁관리,계단식,20171207,0617469888,642,53252.168,642.0,0.0,0.0,0.0,38472.1383,20,20,1,20,57998,34.9364964505246,127.491980921696
A10026692,순천오천부영,4615012600,전라남도,순천시,오천동,,전라남도 순천시 오천동 953-1 순천오천부영,혼합,개별난방,53328.953,6,349.0,(주)부영주택,(주)부영주택,0617463007,,아파트,전라남도 순천시 오천7길 12,위탁관리,계단식,20170922,0617463008,349,28320.227,0.0,349.0,0.0,0.0,28320.2262,20,20,1,12,57998,34.9347183593626,127.491786967425
A10026996,진아리채 파크원,4615012600,전라남도,순천시,오천동,,전라남도 순천시 오천동 982 진아리채 파크원,혼합,개별난방,61847.812,8,420.0,진아건설(주),진아건설(주),0617411581,,아파트,전라남도 순천시 오천1길 20,위탁관리,계단식,20170328,0617411582,420,45849.312,0.0,420.0,0.0,0.0,35474.7484,17,17,1,15,57999,34.9306273099141,127.492975033678
A10027502,순천오천골드클래스아파트,4615012600,전라남도,순천시,오천동,,전라남도 순천시 오천동 954 순천오천골드클래스아파트,임대,개별난방,97582.664,8,646.0,"세종종합건설(주), 세종건설(주), (주)누리산업개발",골드디움(주),0617425010,,아파트,전라남도 순천시 오천4길 21,위탁관리,계단식,20160426,0617425011,646,69049.336,0.0,646.0,0.0,0.0,51564.6283,29,29,1,15,57998,34.9330479589102,127.491977405778
A10027560,대광로제비앙지에이그린웰 아파트,4615012600,전라남도,순천시,오천동,,전라남도 순천시 오천동 952 대광로제비앙지에이그린웰 아파트,임대,개별난방,65983.31,8,436.0,(주)지에이건설,(주)DK개발,0617448636,,아파트,전라남도 순천시 오천7길 29,위탁관리,계단식,20160328,0617458636,436,65832.47,0.0,436.0,0.0,0.0,37022.1587,20,20,1,14,57999,34.935661334012,127.494109893163
A10028047,호반베르디움,4615012600,전라남도,순천시,오천동,,전라남도 순천시 오천동 950 호반베르디움,분양,개별난방,91091.95,11,595.0,(주)호반건설,호반베르디움(주),0617415660,,아파트,전라남도 순천시 오천8길 15,자치관리,계단식,20150602,0617417660,595,50555.87,0.0,595.0,0.0,0.0,50555.8713,20,20,1,20,57996,34.9371122459036,127.491965662651
A54026001,신보아파트,4615012700,전라남도,순천시,덕월동,,전라남도 순천시 덕월동 1369-1 신보아파트,분양,개별난방,25540.86,2,224.0,정한건설,정한건설,0617412234,,아파트,전라남도 순천시 덕월3길 35,자치관리,혼합식,19890722,0617412234,224,15950.04,25.0,199.0,0.0,0.0,15949.69,12,12,0,2,57997,34.9315630861803,127.48858859112
A54026002,우성아파트,4615012700,전라남도,순천시,덕월동,,전라남도 순천시 덕월동 653-2 우성아파트,분양,개별난방,51832.57,5,494.0,우성건설,우성건설,0617438530,,아파트,전라남도 순천시 덕월길 22,자치관리,계단식,19960118,0619018530,494,47697.46,198.0,270.0,26.0,0.0,38166.14,15,15,1,19,57997,34.9302237818532,127.488663393927
A54074401,청미래2차아파트,4615012700,전라남도,순천시,덕월동,,전라남도 순천시 덕월동 331 청미래2차아파트,분양,개별난방,14980.0,1,207.0,청미래주택(주),청미래건설(주),0617442931,,아파트,전라남도 순천시 덕월길 30,위탁관리,혼합식,20050930,0617442933,207,13547.103,207.0,0.0,0.0,0.0,9830.766,15,15,1,5,57997,34.9295156169742,127.488493709292
A54074402,청미래1차아파트,4615012700,전라남도,순천시,덕월동,,전라남도 순천시 덕월동 1-2 청미래1차아파트,분양,개별난방,17393.44,1,163.0,청미래건설(주),청미래주택(주),0617442930,,아파트,전라남도 순천시 호현1길 34,자치관리,계단식,20040108,0617410820,163,14562.055,133.0,30.0,0.0,0.0,10513.0201,15,15,0,5,58026,34.9264919210233,127.493847191459
A54074403,청미래3차아파트,4615012700,전라남도,순천시,덕월동,,전라남도 순천시 덕월동 9-1 청미래3차아파트,분양,개별난방,12981.71,2,103.0,해남군 시골 집(한옥),무한인,0617412939,,아파트,전라남도 순천시 호현1길 26,위탁관리,계단식,20071128,0617421117,103,12331.26,0.0,103.0,0.0,0.0,8745.357,14,14,1,4,58026,34.9264510628817,127.493409717993
A54070501,롯데캐슬아파트,4615013200,전라남도,순천시,왕지동,,전라남도 순천시 왕지동 843 롯데캐슬아파트,분양,개별난방,247113.0,16,1161.0,롯데건설,대한토지신탁,0617217716,,아파트,전라남도 순천시 왕지3길 60,자치관리,계단식,20090928,0617217726,1161,194444.55,0.0,205.0,442.0,514.0,159026.359,15,15,1,41,57930,34.9749777610052,127.526558235705
A54070502,순천두산위브1단지,4615013200,전라남도,순천시,왕지동,,전라남도 순천시 왕지동 891 순천두산위브1단지,분양,개별난방,143473.45,8,823.0,두산중공업,해국필디앤씨,0617266663,cafe.daum.net/dusanweve1,아파트,전라남도 순천시 왕지3길 55,위탁관리,계단식,20110127,0617266664,823,107209.78,0.0,358.0,373.0,92.0,84544.0277,25,25,3,19,57930,34.9758107461942,127.523404111099
A54070503,순천두산위브2단지,4615013200,전라남도,순천시,왕지동,,전라남도 순천시 왕지동 891 순천두산위브2단지,분양,개별난방,84383.37,5,494.0,두산중공업,해국필D&C,0617261482,dsweve2.com,아파트,전라남도 순천시 왕지3길 55,위탁관리,계단식,20110127,0617261481,494,47902.496,0.0,356.0,94.0,44.0,47903.485,25,25,3,11,57930,34.9758107461942,127.523404111099
A10020537,조례 수자인에디션,4615013300,전라남도,순천시,조례동,,전라남도 순천시 조례동 1519-1 조례 수자인에디션,분양,개별난방,76872.22,5,340.0,한양건설,코리아신탁(주),0618110811,,아파트,전라남도 순천시 봉화산길 10,관리방식미정,계단식,20250602,0618110814,340,49513.207,0.0,0.0,340.0,0.0,39978.3273,1,27,4,13,,34.9637071952991,127.512749306102
A10021251,트리마제순천1단지아파트,4615013300,전라남도,순천시,조례동,,전라남도 순천시 조례동 168- 트리마제순천1단지아파트,혼합,개별난방,260770.9,20,1314.0,두산에너빌리티(주),(주)동부도시개발,0617252520,,아파트,전라남도 순천시 왕조로 55,위탁관리,계단식,20241031,0617252521,1314,166837.06,0.0,926.0,286.0,102.0,130635.3406,29,29,4,0,,34.9685176142022,127.532901164731
A10021483,트리마제 순천 2단지,4615013300,전라남도,순천시,조례동,,전라남도 순천시 조례동 161-10 트리마제 순천 2단지,혼합,개별난방,137079.0,11,705.0,두산에너빌리티(주),(주)한국토지신탁,0617267791,,아파트,전라남도 순천시 왕조로 77,위탁관리,계단식,20241031,0617267792,705,88891.0,0.0,522.0,128.0,55.0,69047.1439,26,26,2,0,,34.9675253769014,127.536035698842
A10022508,순천 오네뜨센트럴 아파트,4615013300,전라남도,순천시,조례동,,전라남도 순천시 조례동 1276-1 순천 오네뜨센트럴 아파트,분양,개별난방,72893.0,6,404.0,"남해종합건설(주),남해종합개발(주)",남해주택건설(주),0617435433,,아파트,전라남도 순천시 충효로 131,위탁관리,계단식,20240627,0617435434,404,47468.125,0.0,349.0,52.0,3.0,36507.0558,18,18,2,14,,,
A10022819,현대아미스주식회사순천조례3차골드클래스관리사무소,4615013300,전라남도,순천시,조례동,,전라남도 순천시 조례동 1418-1 현대아미스주식회사순천조례3차골드클래스관리사무소,임대,개별난방,79269.74,8,473.0,보광종합건설(주),골드종합건설(주),0617261421,,아파트,전라남도 순천시 봉화1길 83,위탁관리,계단식,20231221,0617261422,473,79267.73,0.0,279.0,190.0,4.0,44885.0461,18,18,1,17,57944,34.9587198067679,127.514258498944
A10024206,골드클래스 시그니처,4615013300,전라남도,순천시,조례동,,전라남도 순천시 조례동 528 골드클래스 시그니처,분양,개별난방,65361.51,7,413.0,골드클래스,(주)송림,0617222258,,아파트,전라남도 순천시 태봉길 31,위탁관리,계단식,20210719,0617222259,413,46005.86,0.0,363.0,50.0,0.0,36491.6073,18,18,1,15,57947,34.9591782531756,127.524020952618
A10025538,영무예다음아파트,4615013300,전라남도,순천시,조례동,,전라남도 순천시 조례동 1884 영무예다음아파트,분양,개별난방,54971.676,6,310.0,(주)영무건설,(주)영무건설,0617223346,조례동영무예다음.aptsaram.co.kr/,아파트,전라남도 순천시 장승길 27,위탁관리,계단식,20190426,0617223347,310,34448.0,0.0,310.0,0.0,0.0,26330.588,18,18,2,1,57948,34.9575769690132,127.522700441371
A10025906,순천 조례 대광로제비앙 아파트,4615013300,전라남도,순천시,조례동,,전라남도 순천시 조례동 1882 순천 조례 대광로제비앙 아파트,분양,개별난방,59949.04,11,490.0,(주)대광건영,(주)삼덕건설,0617231482,,아파트,전라남도 순천시 봉화1길 17,위탁관리,계단식,20190228,0617231483,490,50298.65,0.0,477.0,13.0,0.0,38547.1,15,15,1,15,57951,34.9525114312442,127.51168726501
A54032001,조례시영아파트,4615013300,전라남도,순천시,조례동,,전라남도 순천시 조례동 802-6 조례시영아파트,분양,개별난방,15869.138,2,200.0,남양건설(주),순천시장,0617218114,,아파트,전라남도 순천시 비봉길 51-30,자치관리,계단식,19921020,0619058114,200,11982.624,200.0,0.0,0.0,0.0,11982.48,13,13,1,8,57934,34.9674977755464,127.520730171396
A54032002,금당대림아파트,4615013300,전라남도,순천시,조례동,,전라남도 순천시 조례동 1629 금당대림아파트,분양,개별난방,38683.816,4,280.0,대림건설,대림건설,0617222626,금당대림.aptsaram.co.kr,아파트,전라남도 순천시 장선배기길 89,자치관리,계단식,19940923,0617222627,280,35579.49,0.0,0.0,280.0,0.0,29782.172,14,14,0,10,57974,34.9523922092814,127.530113689111
A54032003,조례주공8단지아파트,4615013300,전라남도,순천시,조례동,,전라남도 순천시 조례동 1658 조례주공8단지아파트,분양,개별난방,25073.795,6,310.0,lh주택공사,lh주택공사,0617224306,,아파트,전라남도 순천시 봉화2길 116,위탁관리,계단식,19961204,0617228366,310,23274.38,310.0,0.0,0.0,0.0,18292.82,15,15,0,7,57946,34.9628604855619,127.518746067132
A54032004,조례명지장미아파트,4615013300,전라남도,순천시,조례동,,전라남도 순천시 조례동 1299-5 조례명지장미아파트,분양,개별난방,23418.195,5,322.0,명지,명지,0617441327,,아파트,전라남도 순천시 이수로 250,자치관리,계단식,19890313,0619021337,322,22822.8,322.0,0.0,0.0,0.0,15563.1,6,6,1,0,57966,34.9515585781436,127.510596315018
A54032005,금당중흥1차파크맨션,4615013300,전라남도,순천시,조례동,,전라남도 순천시 조례동 1630 금당중흥1차파크맨션,분양,개별난방,27104.77,3,350.0,중흥건설,중흥주택(합),0617215444,,아파트,전라남도 순천시 장선배기길 105,자치관리,복도식,19931018,0619039004,350,26347.105,350.0,0.0,0.0,0.0,18967.95,15,15,1,4,57974,34.9517321064196,127.531130315611
A54032007,순천동신2차아파트,4615013300,전라남도,순천시,조례동,,전라남도 순천시 조례동 1607 순천동신2차아파트,분양,개별난방,42193.766,4,359.0,(주)동신,(주)동신,0617215796,,아파트,전라남도 순천시 조례못등길 5,자치관리,계단식,19980430,0617242516,359,42193.766,0.0,0.0,359.0,0.0,34766.78,15,15,0,12,57969,34.9559612353149,127.527312664837
A54032008,조례현대1차아파트,4615013300,전라남도,순천시,조례동,,전라남도 순천시 조례동 505-3 조례현대1차아파트,분양,개별난방,35287.0,3,374.0,현대산업개발,현대산업개발,0617229422,,아파트,전라남도 순천시 장승길 40,자치관리,계단식,19951019,0617239422,374,33376.0,165.0,209.0,0.0,0.0,26833.944,15,15,0,12,57948,34.9571729612971,127.523644589784
A54032011,왕지중흥3차아파트,4615013300,전라남도,순천시,조례동,,전라남도 순천시 조례동 1804 왕지중흥3차아파트,분양,개별난방,31737.24,4,404.0,중흥주택,중흥주택,0617253969,,아파트,전라남도 순천시 왕궁길 60,자치관리,계단식,19990722,0617253968,404,31737.24,404.0,0.0,0.0,0.0,24215.76,15,15,0,16,57970,34.9557586898028,127.532623249244
A54032014,금당중흥2차아파트,4615013300,전라남도,순천시,조례동,,전라남도 순천시 조례동 1611 금당중흥2차아파트,분양,개별난방,35113.16,4,448.0,중흥건설,중흥건설(주),0617226263,,아파트,전라남도 순천시 장선배기길 63,위탁관리,계단식,19950223,0619026263,448,34307.297,448.0,0.0,0.0,0.0,26866.56,15,15,1,16,57969,34.9539376173259,127.530238264784
A54032015,조례주공4차아파트,4615013300,전라남도,순천시,조례동,,전라남도 순천시 조례동 1668 조례주공4차아파트,분양,개별난방,25752.23,5,465.0,대한주택공사,대한주택공사,0617212059,,아파트,전라남도 순천시 신월큰길 51,자치관리,복도식,19930728,0617220319,465,24823.133,465.0,0.0,0.0,0.0,18159.39,15,15,0,5,57945,34.960685942208,127.515479434825
A54032016,조례동아아파트,4615013300,전라남도,순천시,조례동,,전라남도 순천시 조례동 807 조례동아아파트,분양,개별난방,49578.0,4,474.0,동아건설(주),동아건설(주),0617214120,,아파트,전라남도 순천시 비봉길 70,자치관리,계단식,19930831,0617214120,474,49229.06,0.0,474.0,0.0,0.0,39037.92,19,19,0,15,57934,34.9669957346631,127.519503576785
A54032017,대림2차,4615013300,전라남도,순천시,조례동,,전라남도 순천시 조례동 840 대림2차,분양,개별난방,44976.0,5,476.0,삼호건설,대림산업,0617221316,cafe.daum.net/jolyedaelim,아파트,전라남도 순천시 봉화2길 128,자치관리,계단식,19940503,0619012326,476,44105.79,210.0,266.0,0.0,0.0,35144.2,19,19,1,14,57934,34.9639167275281,127.51931333156
A54032018,조례대림1차아파트,4615013300,전라남도,순천시,조례동,,전라남도 순천시 조례동 851 조례대림1차아파트,분양,개별난방,52161.0,5,479.0,(주)삼호,대림건설(주),0617217868,,아파트,전라남도 순천시 봉화2길 119,자치관리,계단식,19920528,0619017868,479,51383.562,0.0,419.0,60.0,0.0,42251.845,15,15,0,16,57934,34.9634029367405,127.517731420599
A54032020,조례주공7차아파트,4615013300,전라남도,순천시,조례동,,전라남도 순천시 조례동 1658 조례주공7차아파트,분양,개별난방,35356.254,5,490.0,남양건설,LH주공,0617229881,,아파트,전라남도 순천시 봉화2길 116,위탁관리,복도식,19961204,0617228706,490,35354.49,490.0,0.0,0.0,0.0,22989.88,15,15,0,6,57946,34.9628604855619,127.518746067132
A54032021,조례주공6단지,4615013300,전라남도,순천시,조례동,,전라남도 순천시 조례동 1659 조례주공6단지,분양,개별난방,40852.09,6,535.0,롯데기공,주택공사,0617228644,,아파트,전라남도 순천시 봉화2길 105,위탁관리,복도식,19950504,0617228642,535,39987.7,535.0,0.0,0.0,0.0,29283.07,15,15,1,7,57945,34.9628933773084,127.517607226424
A54032022,순천부영8차,4615013300,전라남도,순천시,조례동,,전라남도 순천시 조례동 1609 순천부영8차,임대,개별난방,43195.85,4,547.0,부영,부영,0617237866,booyoung.co.kr,아파트,전라남도 순천시 조례못등길 13,위탁관리,복도식,19971230,0619017866,547,37899.934,547.0,0.0,0.0,0.0,27306.24,15,15,0,8,57969,34.9547491240831,127.527007988128
A54032023,조례대주아파트,4615013300,전라남도,순천시,조례동,,전라남도 순천시 조례동 1608 조례대주아파트,분양,개별난방,46950.0,6,559.0,대주건설,대주건설,0617227362,,아파트,전라남도 순천시 지봉로 485,자치관리,계단식,19950318,0617227380,559,36179.06,447.0,112.0,0.0,0.0,36179.06,15,15,1,21,57969,34.9562171271887,127.528931700924
A54032024,동신1차아파트,4615013300,전라남도,순천시,조례동,,전라남도 순천시 조례동 1610 동신1차아파트,분양,개별난방,55603.387,5,576.0,(주)동신,(주)동신,0617215795,leeng6000@hanmil.net,아파트,전라남도 순천시 장선배기길 55,자치관리,혼합식,19941029,0617225796,576,51897.11,288.0,288.0,0.0,0.0,41120.64,15,15,1,10,57969,34.9547293419869,127.529628735353
A54032026,조례주공1아파트,4615013300,전라남도,순천시,조례동,,전라남도 순천시 조례동 1348 조례주공1아파트,분양,개별난방,36930.0,19,650.0,한국토지주택공사,한국토지주택공사,0617218469,www.aptsaram.co.kr/HU001054/aptsaram/main,아파트,전라남도 순천시 유동길 1,자치관리,계단식,19851113,0619038469,650,36841.66,499.0,151.0,0.0,0.0,33438.89,5,5,0,0,57951,34.9529757268823,127.514270791719
A54032027,조례5차현대아파트,4615013300,전라남도,순천시,조례동,,전라남도 순천시 조례동 1362 조례5차현대아파트,분양,개별난방,86655.0,8,706.0,대양토건주식회사,현대산업개발주식회사,0617242686,,아파트,전라남도 순천시 봉화1길 33,자치관리,계단식,20000616,0617242687,706,86654.68,0.0,358.0,328.0,20.0,70367.64,20,20,1,0,57951,34.9549532789113,127.512282474549
A54032028,조례금호타운,4615013300,전라남도,순천시,조례동,,전라남도 순천시 조례동 560 조례금호타운,분양,개별난방,65400.414,11,716.0,금호산업,금호산업,0617239110,cafe.daum.net/jrkumho,아파트,전라남도 순천시 조례1길 9,위탁관리,계단식,19970327,0617216022,716,64673.4,300.0,416.0,0.0,0.0,50334.69,15,15,1,24,57947,34.9609803959041,127.522006646775
A54074601,왕지아파트,4615013300,전라남도,순천시,조례동,,전라남도 순천시 조례동 1803 왕지아파트,분양,개별난방,26647.0,2,322.0,(주)부영,(주)부영,0617211152,booyoung.co.kr,아파트,전라남도 순천시 왕궁길 55,자치관리,복도식,19990630,0617251150,322,26076.268,322.0,0.0,0.0,0.0,19242.72,15,15,1,4,57970,34.9559386071376,127.531120008278
A54074602,순천5차부영아파트,4615013300,전라남도,순천시,조례동,,전라남도 순천시 조례동 1612 순천5차부영아파트,임대,개별난방,50860.68,4,690.0,(주)부영주택,(주)부영주택,0617214292,booyoung.co.kr/,아파트,전라남도 순천시 장선배기길 77,위탁관리,복도식,19950215,0617214293,690,45620.04,690.0,0.0,0.0,0.0,34306.8,15,15,0,10,57969,34.9534714188988,127.530363572681
A54074603,연동2차대주파크빌,4615013300,전라남도,순천시,조례동,,전라남도 순천시 조례동 68-19 연동2차대주파크빌,분양,개별난방,59851.68,8,517.0,대한건설,대주건설,0617263993,,아파트,전라남도 순천시 백연길 105,자치관리,계단식,20050217,0617263985,517,54351.08,91.0,426.0,0.0,0.0,41643.5848,15,15,1,19,57971,34.953793087499,127.534729520317
A54074604,연동1차대주파크빌,4615013300,전라남도,순천시,조례동,,전라남도 순천시 조례동 1820 연동1차대주파크빌,분양,개별난방,66824.0,11,581.0,대한건설,대주건설,0617267500,,아파트,전라남도 순천시 연동남길 24,위탁관리,계단식,20030321,0619047500,581,57722.95,150.0,431.0,0.0,0.0,45611.76,15,15,1,23,57971,34.9559560429827,127.535851645054
A54074605,서해골드빌,4615013300,전라남도,순천시,조례동,,전라남도 순천시 조례동 1730-1 서해골드빌,분양,개별난방,32550.336,4,240.0,서해산업개발(주),서해산업개발(주),0617254006,,아파트,전라남도 순천시 비봉길 6,위탁관리,계단식,20040920,0617254008,240,27768.6,0.0,240.0,0.0,0.0,20363.088,15,15,1,8,57933,34.9713219814188,127.520091766507
A54074606,시대아파트,4615013300,전라남도,순천시,조례동,,전라남도 순천시 조례동 766 시대아파트,혼합,개별난방,147299.36,9,2794.0,시대종합건설,시대종합건설,0617210592,,아파트,전라남도 순천시 비봉2길 22,위탁관리,복도식,19921125,0617218505,2794,130338.67,2794.0,0.0,0.0,0.0,101232.292,19,19,2,30,57929,34.9725132822044,127.51913357163
A54074607,조례주공3차,4615013300,전라남도,순천시,조례동,,전라남도 순천시 조례동 1489 조례주공3차,분양,개별난방,9845.48,6,240.0,lh,lh,0617218892,,아파트,전라남도 순천시 유동길 105,자치관리,계단식,19881103,0617248895,240,3287.82,240.0,0.0,0.0,0.0,9452.97,5,5,0,0,57945,34.959635476212,127.516116536315
A54078109,왕지현대2차아파트,4615013300,전라남도,순천시,조례동,,전라남도 순천시 조례동 1801 왕지현대2차아파트,분양,개별난방,49903.0,5,390.0,현대건설(주),현대건설(주),0617265100,,아파트,전라남도 순천시 왕궁길 79,자치관리,계단식,19990209,0617226960,390,44805.93,0.0,300.0,90.0,0.0,37132.2,15,15,1,0,57970,34.957538659733,127.532186423723
A54078110,왕지현대1차아파트,4615013300,전라남도,순천시,조례동,,전라남도 순천시 조례동 1802 왕지현대1차아파트,분양,개별난방,51675.5,4,397.0,현대산업개발(주),현대산업개발(주),0617250056,,아파트,전라남도 순천시 왕궁길 65,위탁관리,계단식,19981216,0619010056,397,44137.754,0.0,291.0,106.0,0.0,36361.91,15,15,2,14,57970,34.9572886946448,127.530272876031
A54078433,조례주공5차,4615013300,전라남도,순천시,조례동,,전라남도 순천시 조례동 1666 조례주공5차,임대,개별난방,40388.0,4,921.0,남양건설,한국토지주택공사,0617211643,www.kohom.or.kr,아파트,전라남도 순천시 신월큰길 54,위탁관리,복도식,19921219,0617223981,942,37391.79,921.0,0.0,0.0,0.0,25469.82,15,15,1,10,57945,34.9612960096368,127.5160912541
A54079325,남양휴튼,4615013300,전라남도,순천시,조례동,,전라남도 순천시 조례동 550 남양휴튼,분양,개별난방,114847.99,8,591.0,(주)원당필하우징,남양건설,0617215228,순천남양.aptsaram.co.kr,아파트,전라남도 순천시 조례1길 60,위탁관리,계단식,20060831,0617215229,591,78261.98,0.0,0.0,384.0,207.0,78270.8712,15,15,2,20,57947,34.9620541825473,127.527706118092
A54096430,조례3차대주파크빌,4615013300,전라남도,순천시,조례동,,전라남도 순천시 조례동 372-1 조례3차대주파크빌,분양,개별난방,142002.58,16,1097.0,대주건설,대한건설,0617271166,cafe.daum.net/jr3dj,아파트,전라남도 순천시 조례연동길 5,자치관리,계단식,20051201,0617271188,1097,119601.52,176.0,921.0,0.0,0.0,87254.652,15,15,2,38,57948,34.9599549200596,127.527571894543
A54096706,석호가람휘,4615013300,전라남도,순천시,조례동,,전라남도 순천시 조례동 1450 석호가람휘,분양,개별난방,42816.0,3,355.0,(주)석호,(주)석호,0617258666,,아파트,전라남도 순천시 송정길 43,자치관리,계단식,20030527,0617258667,355,32328.27,180.0,175.0,0.0,0.0,25318.071,20,20,0,12,57944,34.9591587524959,127.512387584491
A54096919,왕지송촌프라임아파트,4615013300,전라남도,순천시,조례동,,전라남도 순천시 조례동 1800 왕지송촌프라임아파트,분양,개별난방,65815.02,6,484.0,송촌건설(주),송촌건설(주),0617262771,,아파트,전라남도 순천시 왕궁길 95,자치관리,계단식,20010331,0619042771,484,57736.65,0.0,286.0,198.0,0.0,44893.9961,16,16,1,16,57970,34.9591344172335,127.533387084425
A54097813,봉화그린빌,4615013300,전라남도,순천시,조례동,,전라남도 순천시 조례동 1661 봉화그린빌,분양,개별난방,52277.68,6,408.0,삼협개발,대한토지주택공사,0617243811,,아파트,전라남도 순천시 봉화1길 146,자치관리,계단식,19990409,0617243812,408,43579.38,0.0,408.0,0.0,0.0,34615.47,15,15,1,14,57945,34.9628758798377,127.514959265294
A10020482,순천 더포레스트 마루힐 테라스하우스,4615031021,전라남도,순천시,해룡면,복성리,전라남도 순천시 해룡면 복성리 710- 순천 더포레스트 마루힐 테라스하우스,분양,개별난방,17293.885,8,112.0,중우건설주식회사,지대앤산업개발주식회사,0610000000,,연립주택,전라남도 순천시 복성길 28,위탁관리,계단식,20240627,,112,14171.358,0.0,90.0,0.0,22.0,11540.2002,4,4,1,0,,34.9470880585954,127.547527599159
A10023894,순천한신더휴,4615031021,전라남도,순천시,해룡면,복성리,전라남도 순천시 해룡면 복성리 694 순천한신더휴,분양,개별난방,144444.08,14,975.0,한신공영(주),(주)모던21,0617276882,,아파트,전라남도 순천시 순광로 234-8,위탁관리,계단식,20220222,0617276883,975,104685.99,0.0,855.0,120.0,0.0,82042.7415,18,18,3,37,57972,34.9630730458965,127.544563310482
A10024502,중흥S클래스에듀하이10단지아파트,4615031022,전라남도,순천시,해룡면,신대리,전라남도 순천시 해룡면 신대리 1964 중흥S클래스에듀하이10단지아파트,분양,개별난방,85461.98,5,493.0,중흥토건,중흥S클래스,0617221480,cafe.naver.com/sindae10th,아파트,전라남도 순천시 좌야로 179,위탁관리,계단식,20201026,0617221481,493,59678.27,0.0,260.0,233.0,0.0,46671.8234,29,29,2,12,58006,34.9398244692592,127.547291591332
A10025278,중흥S-클래스에듀힐스 9차,4615031022,전라남도,순천시,해룡면,신대리,전라남도 순천시 해룡면 신대리 1965 중흥S-클래스에듀힐스 9차,분양,개별난방,198560.67,12,1464.0,중흥건설(주),(주)중흥개발,0617276327,eduhills9.com,아파트,전라남도 순천시 좌야로 159-14,위탁관리,계단식,20190717,0617276329,1464,134777.73,910.0,554.0,0.0,0.0,98748.4386,29,29,2,32,58006,34.9380827530137,127.544258073606
A10026135,중흥s-클래스에코시티 7차,4615031022,전라남도,순천시,해룡면,신대리,전라남도 순천시 해룡면 신대리 1970 중흥s-클래스에코시티 7차,분양,개별난방,62212.47,5,436.0,(주)중흥건설,세흥산업개발,0617255413,,아파트,전라남도 순천시 좌야로 150,위탁관리,계단식,20180718,0617255414,436,39619.434,245.0,191.0,0.0,0.0,28459.5182,29,29,2,1,58007,34.9379719428639,127.547094517768
A10026148,중흥S-클래스8차아파트,4615031022,전라남도,순천시,해룡면,신대리,전라남도 순천시 해룡면 신대리 1969 중흥S-클래스8차아파트,분양,개별난방,158843.84,9,931.0,중흥건설 주식회사,중흥산업개발 주식회사,0617255418,www.ecocity8.com,아파트,전라남도 순천시 신대로 147,위탁관리,계단식,20180713,0617255419,931,110189.21,0.0,637.0,294.0,0.0,85366.4452,29,29,2,20,58007,34.9367219715919,127.549457937669
A10027940,신대 중흥S-클래스 6단지 메가타운,4615031022,전라남도,순천시,해룡면,신대리,전라남도 순천시 해룡면 신대리 1968 신대 중흥S-클래스 6단지 메가타운,분양,개별난방,275086.0,17,1842.0,"중흥건설(주), 중흥토건(주)","합)중흥주택, 중흥건설산업(주)",0617241352,www.megatown1842.com,아파트,전라남도 순천시 좌야로 135,위탁관리,계단식,20150626,0617241353,1842,192743.25,491.0,1137.0,214.0,0.0,145440.6832,29,29,2,37,58006,34.9350254788985,127.545037227997
A54079510,중흥S클래스1단지,4615031022,전라남도,순천시,해룡면,신대리,전라남도 순천시 해룡면 신대리 2103 중흥S클래스1단지,분양,개별난방,206022.0,13,1466.0,중흥건설산업(주),중흥건설산업(주),0617245200,,아파트,전라남도 순천시 좌야로 101,위탁관리,계단식,20121022,0617246446,1466,139515.7,561.0,905.0,0.0,0.0,105419.7378,30,30,2,28,58013,34.9315515981712,127.544245251363
A54079511,중흥S클래스2단지,4615031022,전라남도,순천시,해룡면,신대리,전라남도 순천시 해룡면 신대리 2039 중흥S클래스2단지,분양,개별난방,189352.5,18,1166.0,중흥건설외1,"세흥건설(주),중흥산업개발(주),중봉건설(주)",0617210027,jhs2.kr,아파트,전라남도 순천시 신대로 66,위탁관리,계단식,20130617,0617212027,1166,128276.02,0.0,1015.0,151.0,0.0,99826.3306,20,20,2,0,58017,34.9299570094534,127.550836532162
A54079512,중흥S클래스3단지,4615031022,전라남도,순천시,해룡면,신대리,전라남도 순천시 해룡면 신대리 2004 중흥S클래스3단지,분양,개별난방,203611.97,20,1296.0,(주)에코벨리,(주)중흥건설,0617273307,,아파트,전라남도 순천시 신대로 96,위탁관리,계단식,20140128,0617273309,1296,140576.03,0.0,1296.0,0.0,0.0,108458.9533,20,20,2,37,58015,34.930625995325,127.551059136034
A54079513,신대 중흥S-클래스 5단지,4615031022,전라남도,순천시,해룡면,신대리,전라남도 순천시 해룡면 신대리 2003 신대 중흥S-클래스 5단지,혼합,개별난방,223526.0,14,1606.0,(합)중흥주택,(자)중흥주택,0617227322,,아파트,전라남도 순천시 신대로 97,위탁관리,계단식,20140520,0617220995,1606,157249.39,579.0,1027.0,0.0,0.0,118700.656,30,30,2,31,58014,34.9315356302534,127.547538399179
A10027186,대광로제비앙센트럴,4615031023,전라남도,순천시,해룡면,상삼리,전라남도 순천시 해룡면 상삼리 35-31 대광로제비앙센트럴,혼합,개별난방,67014.0,6,550.0,대광건영,삼덕건설,0617276002,,아파트,,위탁관리,계단식,20161207,0617276003,550,66519.53,272.0,278.0,0.0,0.0,37165.9915,27,27,1,13,58005,,
A10028170,대광로제비앙아파트,4615031023,전라남도,순천시,해룡면,상삼리,전라남도 순천시 해룡면 상삼리 927 대광로제비앙아파트,분양,개별난방,59428.0,9,364.0,(주)대광건영,(주)세일산업개발,0617218636,,아파트,전라남도 순천시 백연길 105,위탁관리,계단식,20150130,0617218635,364,43896.492,0.0,254.0,110.0,0.0,33837.9,18,18,2,15,57971,34.953793087499,127.534729520317
A54079501,순천 정원에코힐,4615031023,전라남도,순천시,해룡면,상삼리,전라남도 순천시 해룡면 상삼리 660 순천 정원에코힐,분양,개별난방,35208.43,4,300.0,(주)부영,(주)부영,0617212468,,아파트,전라남도 순천시 기적의도서관길 70,위탁관리(직영+위탁),계단식,19961130,0617212468,300,31468.5,0.0,300.0,0.0,0.0,25497,14,14,0,12,57984,34.9470621116514,127.530171443325
A54079502,금당송촌파인힐아파트,4615031023,전라남도,순천시,해룡면,상삼리,전라남도 순천시 해룡면 상삼리 696 금당송촌파인힐아파트,분양,개별난방,39836.16,4,352.0,송촌건설(주),송촌건설(주),0617252228,,아파트,전라남도 순천시 장선배기길 298,자치관리,계단식,19990109,0617252227,352,36409.92,0.0,352.0,0.0,0.0,27688.96,16,16,0,11,57985,34.9443003542538,127.529557177523
A54079503,금당우미1차아파트,4615031023,전라남도,순천시,해룡면,상삼리,전라남도 순천시 해룡면 상삼리 654 금당우미1차아파트,분양,개별난방,30857.91,3,398.0,우미주택(주),우미건설,0619013581,,아파트,전라남도 순천시 기적의도서관길 95,자치관리,복도식,19930925,0619013581,398,29190.082,398.0,0.0,0.0,0.0,20990.82,15,15,1,6,57983,34.9486262485644,127.532135281205
A54079505,순천금당우미2차아파트,4615031023,전라남도,순천시,해룡면,상삼리,전라남도 순천시 해룡면 상삼리 653 순천금당우미2차아파트,분양,개별난방,30743.0,3,416.0,우미건설,우미건설,0617224279,,아파트,전라남도 순천시 장선배기길 141,자치관리,계단식,19941226,0617254279,416,30082.28,416.0,0.0,0.0,0.0,23404.28,15,15,1,14,57983,34.9484620333408,127.530648124258
A54079506,순천부영3차 아파트,4615031023,전라남도,순천시,해룡면,상삼리,전라남도 순천시 해룡면 상삼리 657 순천부영3차 아파트,임대,개별난방,109403.88,8,1242.0,(주)동광주택산업,(주)동광주택산업,0617213471,,아파트,전라남도 순천시 기적의도서관길 90,위탁관리,복도식,19941005,0617218023,1242,93463.26,1242.0,0.0,0.0,0.0,68331.44,14,14,0,22,57984,34.9471316642226,127.531437487903
A54079507,부영9차아파트,4615031023,전라남도,순천시,해룡면,상삼리,전라남도 순천시 해룡면 상삼리 652 부영9차아파트,혼합,개별난방,30357.965,2,270.0,(주)부영,(주)부영,0617229095,,아파트,전라남도 순천시 상대석길 13,자치관리,혼합식,19971230,0617229093,270,26281.2,60.0,210.0,0.0,0.0,21433.5,15,15,0,8,57983,34.9496952237887,127.531015804348
A54079508,순천부영6차,4615031023,전라남도,순천시,해룡면,상삼리,전라남도 순천시 해룡면 상삼리 661 순천부영6차,임대,개별난방,40225.355,4,414.0,부영주택,부영주택,0617219377,,아파트,전라남도 순천시 장선배기길 272,위탁관리,복도식,19950417,0617219376,414,37897.56,414.0,0.0,0.0,0.0,24840,15,15,0,8,57984,34.9462061311856,127.530054821027
A54079509,금당그리안아파트,4615031023,전라남도,순천시,해룡면,상삼리,전라남도 순천시 해룡면 상삼리 693 금당그리안아파트,분양,개별난방,30383.0,2,329.0,부영주택,부영주택,0617246429,,아파트,전라남도 순천시 장선배기길 181,위탁관리,복도식,19990630,0617246425,329,26419.357,329.0,0.0,0.0,0.0,19661.04,15,15,0,4,57985,34.9458092881611,127.531573564208
A54085405,신원아르시스,4615031023,전라남도,순천시,해룡면,상삼리,전라남도 순천시 해룡면 상삼리 428 신원아르시스,분양,개별난방,73259.0,8,484.0,(주)신한주택개발,(주)신원종합건설,0617270008,,아파트,전라남도 순천시 지봉로 372-5,위탁관리,계단식,20070828,0617270034,484,59136.09,0.0,484.0,0.0,0.0,41125.0928,20,20,2,13,57973,34.9473319940632,127.534734419438
A54085506,순천청솔1차아파트,4615031023,전라남도,순천시,해룡면,상삼리,전라남도 순천시 해룡면 상삼리 691 순천청솔1차아파트,분양,개별난방,46647.0,4,558.0,광토건설(주),한국토지신탁,0617262777,,아파트,전라남도 순천시 장선배기길 284,위탁관리,복도식,20010713,0617263229,558,40405.895,558.0,0.0,0.0,0.0,31471.2,15,15,1,8,57985,34.9450955631547,127.530318717815
A54085507,순천청솔2차아파트,4615031023,전라남도,순천시,해룡면,상삼리,전라남도 순천시 해룡면 상삼리 694 순천청솔2차아파트,분양,개별난방,51795.0,6,705.0,(주)광토건설,(주)한국토지신탁,0617262778,,아파트,전라남도 순천시 대석길 98,위탁관리,복도식,20010814,0617262774,705,51272.746,705.0,0.0,0.0,0.0,39762,15,15,0,10,57985,34.9447299677207,127.532543162477
A10023320,포레나순천,4615032028,전라남도,순천시,서면,선평리,전라남도 순천시 서면 선평리 1100 포레나순천,분양,개별난방,96356.82,9,613.0,(주)한화건설,코리아신탁(주) 리더스 유니온(유),0617522005,,아파트,전라남도 순천시 선평동선길 12,위탁관리,계단식,20230112,0617522006,613,54431.07,0.0,511.0,102.0,0.0,54431.0696,18,18,2,24,57925,34.9900095531333,127.499302172715
A10023857,순천금호어울림더파크2차아파트,4615032028,전라남도,순천시,서면,선평리,전라남도 순천시 서면 선평리 1096 순천금호어울림더파크2차아파트,분양,개별난방,51158.89,6,349.0,금호건설(주),(주)케이씨엠 글로벌,0617551480,,아파트,전라남도 순천시 선평강청큰길 81,위탁관리,계단식,20220413,0617521480,349,39081.79,0.0,295.0,54.0,0.0,30439.2351,18,18,1,0,57926,34.9848721553152,127.49823172978
A10023924,모아엘가리버파크,4615032028,전라남도,순천시,서면,선평리,전라남도 순천시 서면 선평리 1096 모아엘가리버파크,분양,개별난방,46908.227,5,322.0,주)혜림건설,주)모건주택,0617533370,,아파트,전라남도 순천시 선평윗길 23,위탁관리,계단식,20220317,0617533771,322,34430.89,0.0,322.0,0.0,0.0,27273.394,18,18,2,11,57925,34.9889102022797,127.496233012334
A10024273,금호어울림더파크1차,4615032028,전라남도,순천시,서면,선평리,전라남도 순천시 서면 선평리 85 금호어울림더파크1차,분양,개별난방,57004.0,6,459.0,금호건설,주식회사 코람코자산신탁,0617517300,,아파트,전라남도 순천시 강청새길 5,위탁관리,계단식,20210527,0617517301,459,44427.344,186.0,273.0,0.0,0.0,33693.6156,16,16,1,15,57926,34.9838490645567,127.500409256464
A10026727,LH선평3빛찬들아파트,4615032028,전라남도,순천시,서면,선평리,전라남도 순천시 서면 선평리 1092 LH선평3빛찬들아파트,임대,개별난방,47663.05,5,820.0,(주)한양,한국토지주택공사,0617559158,sunpyung3@naver.com,아파트,전라남도 순천시 선평동선길 36,위탁관리,복도식,20171101,0617559159,820,47420.656,820.0,0.0,0.0,0.0,25122.32,18,18,0,12,57925,34.9872598723853,127.497511722428
A54072001,라송센트럴카운티,4615032028,전라남도,순천시,서면,선평리,전라남도 순천시 서면 선평리 1089 라송센트럴카운티,분양,개별난방,98661.79,8,664.0,한토건설,라송산업(주),0617518715,,아파트,전라남도 순천시 강청길 82,위탁관리,계단식,20120224,0617518716,664,55828.492,0.0,634.0,30.0,0.0,55828.4934,15,15,1,0,57926,34.9854753335166,127.498324754306
A54081301,선평주공2단지,4615032028,전라남도,순천시,서면,선평리,전라남도 순천시 서면 선평리 201-1 선평주공2단지,임대,개별난방,34991.168,5,550.0,진흥건설(주),한국토지주택공사,0617557070,,아파트,전라남도 순천시 강청길 80,위탁관리,복도식,20041104,0617517010,550,34808.4,550.0,0.0,0.0,0.0,23339.97,15,15,1,5,57926,34.9866038295773,127.502551220973
A54081302,선평배들마을아파트(주공1차),4615032028,전라남도,순천시,서면,선평리,전라남도 순천시 서면 선평리 1087 선평배들마을아파트(주공1차),분양,개별난방,69131.15,9,900.0,주공,충일건설,0617523574,,아파트,전라남도 순천시 배들이길 17,위탁관리,계단식,20011220,0617523575,900,69131.15,900.0,0.0,0.0,0.0,49992.84,15,15,1,26,57925,34.98937255442,127.497919023277
