kaptCode,kaptName,bjdCode,as1,as2,as3,as4,kaptAddr,codeSaleNm,codeHeatNm,kaptTarea,kaptDongCnt,kaptdaCnt,kaptBcompany,kaptAcompany,kaptTel,kaptUrl,codeAptNm,doroJuso,codeMgrNm,codeHallNm,kaptUsedate,kaptFax,hoCnt,kaptMarea,kaptMparea60,kaptMparea85,kaptMparea135,kaptMparea136,privArea,kaptTopFloor,ktownFlrNo,kaptBaseFloor,kaptdEcntp,zipcode,위도,경도
A10022661,익산역 유블레스퍼스트,5214010100,전북특별자치도,익산시,창인동1가,,전북특별자치도 익산시 창인동1가 290 익산역 유블레스퍼스트,분양,개별난방,40088.176,1,202.0,(주) 유탑건설,한국투자부동산신탁주식회사,0638417778,,주상복합,전북특별자치도 익산시 중앙로5길 16,위탁관리,복도식,20230830,0638417779,202,35074.516,0.0,196.0,4.0,2.0,15622.114,27,27,2,0,54594,35.940495728856,126.951650632265
A10026433,익산역 시그니처-S,5214010100,전북특별자치도,익산시,창인동1가,,전북특별자치도 익산시 창인동1가 151 익산역 시그니처-S,분양,개별난방,23195.0,1,299.0,성지건설,한국자산신탁(주),0638430960,signatures.apti.co.kr,주상복합,전북특별자치도 익산시 중앙로5길 17,위탁관리,기타,20180202,0638430961,299,12095.59,299.0,0.0,0.0,0.0,8412.5847,20,20,1,2,54593,35.9409544558389,126.950750328215
A10020726,익산역하늘채더퍼스트,5214010600,전북특별자치도,익산시,평화동,,전북특별자치도 익산시 평화동 395- 익산역하늘채더퍼스트,혼합,개별난방,208399.73,11,1382.0,코오롱,한국토지주택공사,0638419020,,아파트,전북특별자치도 익산시 익산대로8길 9,위탁관리,혼합식,20250319,0638429021,1382,147166.03,288.0,1094.0,0.0,0.0,109593.43,29,29,2,0,,35.9347059680492,126.946763201182
A10026052,평화제일 오투그란데 에버아파트,5214010600,전북특별자치도,익산시,평화동,,전북특별자치도 익산시 평화동 393 평화제일 오투그란데 에버아파트,분양,개별난방,19139.941,3,171.0,(주)제일건설,(주)에버종합건설,0638423999,,아파트,전북특별자치도 익산시 번영로10길 31,위탁관리,계단식,20180914,0638424999,171,18065.826,0.0,171.0,0.0,0.0,14100.1704,15,15,0,0,54672,35.9329268704767,126.93873635674
A57001001,평화동제일아파트,5214010600,전북특별자치도,익산시,평화동,,전북특별자치도 익산시 평화동 370 평화동제일아파트,분양,개별난방,50027.477,4,458.0,(주)제일건설,(주)제일건설,0638526590,pj65900.apti.co.kr,아파트,전북특별자치도 익산시 번영로8길 223,위탁관리,계단식,20020125,0638526591,458,48786.16,0.0,458.0,0.0,0.0,38848.0638,15,15,0,17,54672,35.9323730578861,126.941080407091
A57071001,클래시움,5214010600,전북특별자치도,익산시,평화동,,전북특별자치도 익산시 평화동 382 클래시움,분양,개별난방,17572.957,3,172.0,정인종합건설(주),신라건설(주),0638527499,,아파트,전북특별자치도 익산시 평동로 530-7,위탁관리,계단식,20061019,0638585700,172,17011.64,60.0,112.0,0.0,0.0,13100.472,15,15,0,6,54672,35.9340379627719,126.93828491688
A57004001,주현동 쌍방울한양,5214010800,전북특별자치도,익산시,주현동,,전북특별자치도 익산시 주현동 202 주현동 쌍방울한양,분양,개별난방,34765.0,4,304.0,(주)한양,(주)쌍방울 개발,0638570837,주현동쌍방울한양.ma-um.co.kr,아파트,전북특별자치도 익산시 주현로 40,자치관리,계단식,19901027,0638410463,304,33551.35,0.0,232.0,72.0,0.0,27152.16,12,12,1,13,54599,35.9336719756478,126.956879571661
A10026507,익산인화 행복주택,5214011000,전북특별자치도,익산시,인화동2가,,전북특별자치도 익산시 인화동2가 174 익산인화 행복주택,임대,개별난방,32741.98,4,612.0,LH,동림건설,0638526481,익산인화 행복주택,아파트,전북특별자치도 익산시 목천로 320,위탁관리,복도식,20171031,0638546689,616,32538.316,612.0,0.0,0.0,0.0,16039.44,20,20,1,8,54677,35.927113153662,126.9546311919
A57098501,인화동 제이파크,5214011000,전북특별자치도,익산시,인화동2가,,전북특별자치도 익산시 인화동2가 54 인화동 제이파크,분양,개별난방,22978.35,3,138.0,(주)제일건설,(주)제일건설,0638411590,인화동제이파크.ma-um.co.kr,주상복합,전북특별자치도 익산시 서동로 31,위탁관리,계단식,20060609,0638411590,150,16406.28,0.0,108.0,30.0,0.0,12601.854,15,15,0,5,54605,35.9309879598619,126.956321867171
A10020266,동산한성아파트,5214011100,전북특별자치도,익산시,동산동,,전북특별자치도 익산시 동산동 1061 동산한성아파트,분양,개별난방,11267.12,5,190.0,(주)한성,(주)한성,0638514379,,아파트,전북특별자치도 익산시 동천로7길 45,자치관리,계단식,19880816,0638514379,190,3323.1,190.0,0.0,0.0,0.0,3323.1,5,0,0,0,,35.9326653552061,126.968394267127
A10021835,OCI사원아파트,5214011100,전북특별자치도,익산시,동산동,,전북특별자치도 익산시 동산동 1053- OCI사원아파트,분양,개별난방,10292.0,3,150.0,동양회학,동양회학,0638580487,,주상복합,전북특별자치도 익산시 서동로18길 50,위탁관리,계단식,19890826,07076270487,153,10291.5,150.0,0.0,0.0,0.0,7946.1,5,5,1,0,,35.9341360420189,126.964042772331
A10023256,수도산 광신프로그레스,5214011100,전북특별자치도,익산시,동산동,,전북특별자치도 익산시 동산동 1148 수도산 광신프로그레스,분양,개별난방,54191.0,5,345.0,(주)광신건설,(주)아람주택,0638370527,,아파트,전북특별자치도 익산시 동천로1길 20,위탁관리,계단식,20221201,0638420527,345,38355.707,0.0,345.0,0.0,0.0,29287.0449,28,28,1,11,54610,35.9313498651938,126.968606998427
A10024772,동산오투그란데,5214011100,전북특별자치도,익산시,동산동,,전북특별자치도 익산시 동산동 356 동산오투그란데,분양,개별난방,47016.0,3,301.0,(주)제일건설,(주)제일건설,0638556481,동산오투그란데.apti.co.kr,아파트,전북특별자치도 익산시 평동로23길 16,위탁관리,계단식,20200709,0638556482,301,32379.684,0.0,301.0,0.0,0.0,25582.2609,27,27,2,6,54608,35.9287143723384,126.963262910417
A10025019,세경4차아파트,5214011100,전북특별자치도,익산시,동산동,,전북특별자치도 익산시 동산동 1142 세경4차아파트,임대,,14087.193,1,120.0,세경건설,세경산업,0638378008,,아파트,전북특별자치도 익산시 목천로 358,자치관리(직영),복도식,20100818,0638412294,120,7192.8,120.0,0.0,0.0,0.0,7192.8,8,8,0,2,54676,35.9262567924148,126.96022717843
A10025079,수도산코아루이지움아파트,5214011100,전북특별자치도,익산시,동산동,,전북특별자치도 익산시 동산동 1144 수도산코아루이지움아파트,분양,개별난방,45649.453,5,338.0,(주)계성건설,(주)한국토지신탁,0638553046,,아파트,전북특별자치도 익산시 서동로30길 40,위탁관리,계단식,20191002,0638523046,338,34863.23,0.0,338.0,0.0,0.0,26600.4339,19,19,1,0,54613,35.9340959233252,126.969532455854
A57072513,익산동산,5214011100,전북특별자치도,익산시,동산동,,전북특별자치도 익산시 동산동 145 익산동산,임대,중앙난방,28318.77,4,686.0,주택관리공단,주택관리공단,0638559638,nh701ds.kohom.co.kr,아파트,전북특별자치도 익산시 동천로7길 26-5,위탁관리,복도식,19920410,0638420514,699,28318.77,686.0,0.0,0.0,0.0,19272.87,15,15,0,8,54612,35.9324193484926,126.971024889609
A57072602,동산여울휴먼시아3단지,5214011100,전북특별자치도,익산시,동산동,,전북특별자치도 익산시 동산동 1140 동산여울휴먼시아3단지,임대,개별난방,28464.18,3,320.0,한국토지주택공사,신일건업,0638513636,동산여울휴먼시아3단지.apti.co.kr/aptHome/,아파트,전북특별자치도 익산시 동천로1길 7,위탁관리,복도식,20090828,0638513646,320,28464.18,320.0,0.0,0.0,0.0,15517.44,15,15,2,6,54608,35.9302572713654,126.966872226779
A57072603,그린팰리스아파트,5214011100,전북특별자치도,익산시,동산동,,전북특별자치도 익산시 동산동 1139 그린팰리스아파트,분양,개별난방,62607.0,10,481.0,신일건업,한국주택공사,0638377979,동산여울휴먼시아2단지.apti.co.kr,아파트,전북특별자치도 익산시 동천로 25,위탁관리,계단식,20090828,0638377989,481,39949.86,0.0,481.0,0.0,0.0,39949.86,15,15,2,16,54608,35.9295436043462,126.964450530529
A57072604,세경2차,5214011100,전북특별자치도,익산시,동산동,,전북특별자치도 익산시 동산동 1060 세경2차,임대,개별난방,42125.91,3,613.0,세경건설(주),세경건설(주),0638532924,,아파트,전북특별자치도 익산시 동천로1길 29,자치관리,복도식,19920829,0638578285,612,30404.16,613.0,0.0,0.0,0.0,30453.84,13,13,1,5,54610,35.9311629375703,126.966568553328
A57072605,동산동세경3차,5214011100,전북특별자치도,익산시,동산동,,전북특별자치도 익산시 동산동 588-35 동산동세경3차,임대,개별난방,20871.98,1,299.0,세경건설(주),세경건설(주),0638378008,,아파트,전북특별자치도 익산시 목천로 362,자치관리(직영),복도식,20050527,0638412294,299,16156.26,299.0,0.0,0.0,0.0,16156.26,15,15,1,2,54676,35.9259728467239,126.960337683317
A57095805,동산동 라인,5214011100,전북특별자치도,익산시,동산동,,전북특별자치도 익산시 동산동 138 동산동 라인,분양,개별난방,36630.0,3,418.0,라인주택,라인주택,0638416100,,아파트,전북특별자치도 익산시 동천로 81-14,자치관리,혼합식,19970731,0638560078,418,30247.926,418.0,0.0,0.0,0.0,23066.26,18,18,1,13,54612,35.9303121857788,126.97117470058
A57095806,동산동삼호(2),5214011100,전북특별자치도,익산시,동산동,,전북특별자치도 익산시 동산동 158-15 동산동삼호(2),분양,개별난방,45925.33,6,464.0,(주)삼호,(주)삼호,0638425557,dh102ks@hanmail.net,아파트,전북특별자치도 익산시 동천로1길 14-24,위탁관리,계단식,19911130,0638425557,464,45032.895,0.0,464.0,0.0,0.0,37008.48,14,14,0,18,54610,35.9295506430814,126.969745072931
A57095901,동산동 우남남부,5214011100,전북특별자치도,익산시,동산동,,전북특별자치도 익산시 동산동 609-42 동산동 우남남부,분양,개별난방,20251.0,1,210.0,우남종합건설(주),우남종합건설(주),0638528657,우남남부8657.apti.co.kr,아파트,전북특별자치도 익산시 목천로 346,위탁관리,계단식,19941112,0638528657,210,17149.355,176.0,34.0,0.0,0.0,13429.9,19,19,0,1,54676,35.926759753412,126.958820231459
A57095902,동산동 삼성,5214011100,전북특별자치도,익산시,동산동,,전북특별자치도 익산시 동산동 610-1 동산동 삼성,분양,개별난방,27845.0,2,270.0,삼성종합건설(주),삼성종합건설(주),0638422020,동산동삼성.ma-um.co.kr,아파트,전북특별자치도 익산시 평동로12길 11,위탁관리,계단식,19911129,0638410617,270,27341.22,0.0,270.0,0.0,0.0,21759.6,15,15,1,9,54676,35.9272551944484,126.959696020329
A57095904,동산동 우성,5214011100,전북특별자치도,익산시,동산동,,전북특별자치도 익산시 동산동 617-5 동산동 우성,분양,개별난방,36896.86,4,358.0,우성건설(주),우성건설(주),0638575554,,아파트,전북특별자치도 익산시 서동로2길 48,자치관리,계단식,19900516,0638370265,358,36432.86,0.0,328.0,30.0,0.0,29472.34,15,15,0,13,54676,35.9275445192917,126.961139592422
A57095908,동산동 제일2차,5214011100,전북특별자치도,익산시,동산동,,전북특별자치도 익산시 동산동 667-1 동산동 제일2차,분양,개별난방,55192.953,4,484.0,제일건설,제일건설,0638583959,동산동제일2차.ma-um.co.kr,아파트,전북특별자치도 익산시 평동로17길 5,자치관리,계단식,20011030,0638583958,484,54491.02,0.0,484.0,0.0,0.0,41015.2984,19,19,1,14,54606,35.9295458899316,126.95838219181
A57095909,동산동 동신,5214011100,전북특별자치도,익산시,동산동,,전북특별자치도 익산시 동산동 597-6 동산동 동신,분양,개별난방,36308.16,14,510.0,동신건설,(주)동신주택,0638552484,동산동동신.ma-um.co.kr,아파트,전북특별자치도 익산시 목천로 336,자치관리,계단식,19881230,0638512486,510,35508.0,170.0,340.0,0.0,0.0,29556.7,5,5,0,0,54676,35.9266139629523,126.958127986069
A57095911,동산우남아파트,5214011100,전북특별자치도,익산시,동산동,,전북특별자치도 익산시 동산동 995-5 동산우남아파트,분양,개별난방,46061.85,8,630.0,우남건설,우남건설,0638560294,,아파트,전북특별자치도 익산시 평동로 799,위탁관리,혼합식,19970827,0638560295,630,46061.85,630.0,0.0,0.0,0.0,34699.05,15,15,1,15,,35.9270208071017,126.96620673795
A57096003,동산동 제일,5214011100,전북특별자치도,익산시,동산동,,전북특별자치도 익산시 동산동 1053-1 동산동 제일,분양,개별난방,35341.5,1,297.0,제일건설(주),제일건설,0638576374,,아파트,전북특별자치도 익산시 서동로18길 46-1,자치관리,계단식,19921009,0638370217,297,34155.0,0.0,297.0,0.0,0.0,25171.01,15,15,0,11,54609,35.9330224244185,126.963608103138
A57096007,동산동 비사벌,5214011100,전북특별자치도,익산시,동산동,,전북특별자치도 익산시 동산동 1058 동산동 비사벌,분양,개별난방,33673.54,10,470.0,(주)비사벌 건설,(주)비사벌 건설,0638543175,동산동비사벌.ma-um.co.kr,아파트,전북특별자치도 익산시 동천로7길 53-1,위탁관리,계단식,19890114,0638420250,470,30360.2,470.0,0.0,0.0,0.0,26881.4,5,5,0,0,54610,35.932363945462,126.966604949032
A10020755,익산자이그랜드파크아파트,5214011200,전북특별자치도,익산시,마동,,전북특별자치도 익산시 마동 434- 익산자이그랜드파크아파트,분양,개별난방,252718.0,9,1431.0,GS건설,(주)마동공원개발,0637220013,,아파트,전북특별자치도 익산시 선화1로 76,위탁관리,계단식,20250226,0637220014,1431,171963.39,0.0,1009.0,420.0,2.0,131110.0111,38,38,3,0,,35.9412863679947,126.965106135581
A10022320,전원맨션관리사무소,5214011200,전북특별자치도,익산시,마동,,전북특별자치도 익산시 마동 153-1 전원맨션관리사무소,분양,개별난방,14585.0,1,122.0,조선공사,-,0638584295,,아파트,전북특별자치도 익산시 선화로 316-4,위탁관리,복도식,19850515,,122,14584.19,0.0,115.0,7.0,0.0,10553.94,14,14,2,0,,35.9452498987609,126.964347737399
A10022397,익산풍경채어바니티,5214011200,전북특별자치도,익산시,마동,,전북특별자치도 익산시 마동 433- 익산풍경채어바니티,분양,개별난방,261692.0,12,1566.0,제일건설(주),수도산공원개발,0638370030,,아파트,전북특별자치도 익산시 서동로 194-12,위탁관리,계단식,20240827,0638370031,1566,175873.64,159.0,1146.0,261.0,0.0,133311.8186,27,27,2,38,,35.9373767730429,126.971587274418
A10022683,힐스테이트 익산더퍼스트,5214011200,전북특별자치도,익산시,마동,,전북특별자치도 익산시 마동 389 힐스테이트 익산더퍼스트,분양,개별난방,75419.0,6,454.0,현대건설,트리플건설,0638548883,,아파트,전북특별자치도 익산시 선화로22길 15,위탁관리,계단식,20240125,0638548884,454,50142.523,22.0,369.0,63.0,0.0,39036.4651,29,29,2,10,54627,35.9457945171336,126.968876153263
A10023841,오투그란데글로벌카운티,5214011200,전북특별자치도,익산시,마동,,전북특별자치도 익산시 마동 385 오투그란데글로벌카운티,분양,개별난방,30845.219,3,197.0,주)제일건설,(주)제일건설,0638576481,,아파트,전북특별자치도 익산시 선화로53길 10,위탁관리,계단식,20220128,0638536481,197,22877.52,0.0,197.0,0.0,0.0,16697.8159,20,20,1,8,54625,35.9452996427138,126.962556655418
A10024605,익산마동코아루디펠리체아파트,5214011200,전북특별자치도,익산시,마동,,전북특별자치도 익산시 마동 170-1 익산마동코아루디펠리체아파트,분양,개별난방,30641.824,3,223.0,(주)대창건설,(주)한국토지신탁,0638589905,없음,아파트,전북특별자치도 익산시 선화로55길 6,위탁관리,계단식,20200911,0638589906,223,22486.02,0.0,223.0,0.0,0.0,16854.8174,20,20,2,7,54625,35.9458352385459,126.963690230938
A57011003,이지스위트밸리,5214011200,전북특별자치도,익산시,마동,,전북특별자치도 익산시 마동 153 이지스위트밸리,분양,개별난방,58769.0,5,456.0,(주)EG건설,(주)EG건설,0638370622,스위트밸리.ma-um.co.kr,아파트,전북특별자치도 익산시 선화1로 31-46,위탁관리,계단식,20041026,0638370623,456,54888.45,0.0,456.0,0.0,0.0,38504.184,16,16,0,15,54626,35.9434889711005,126.964379006723
A57096201,마동 우림그린맨션,5214011200,전북특별자치도,익산시,마동,,전북특별자치도 익산시 마동 70-1 마동 우림그린맨션,분양,개별난방,22961.0,1,200.0,우림건설(주),우림건설(주),0638554363,마동우림그린맨션.ma-um.co.kr,아파트,전북특별자치도 익산시 서동로 164,위탁관리,혼합식,19940624,0638410621,200,15012.8,120.0,40.0,40.0,0.0,15012.8,20,20,1,4,54613,35.936309395829,126.96925145262
A57096202,마동주공2단지,5214011200,전북특별자치도,익산시,마동,,전북특별자치도 익산시 마동 137-1 마동주공2단지,분양,개별난방,16815.3,10,330.0,주택공사,주택공사,0638554874,마동주공2단지.ma-um.co.kr,아파트,전북특별자치도 익산시 고봉로 116,위탁관리,계단식,19851025,0638554874,330,15345.0,330.0,0.0,0.0,0.0,16321.5,5,5,0,0,54627,35.9422788742899,126.96625488188
A57096204,그린공원,5214011200,전북특별자치도,익산시,마동,,전북특별자치도 익산시 마동 132 그린공원,분양,개별난방,31376.88,12,470.0,성원건설(주),익산시청,0638426672,,아파트,전북특별자치도 익산시 서동로21길 13,위탁관리,계단식,19910112,0638430820,470,28475.1,470.0,0.0,0.0,0.0,23474.1,5,5,0,0,54597,35.937479753856,126.967552984931
A57096205,마동 주공1단지,5214011200,전북특별자치도,익산시,마동,,전북특별자치도 익산시 마동 165 마동 주공1단지,분양,개별난방,26431.79,15,610.0,주택공사,대한주택공사,0638528119,,아파트,전북특별자치도 익산시 고봉로 144,자치관리,계단식,19800915,0638411520,618,26214.75,610.0,0.0,0.0,0.0,22341.9,5,5,0,0,54627,35.9433537992735,126.966624597701
A10020201,남중동오투그란데뉴퍼스트,5214011300,전북특별자치도,익산시,남중동,,전북특별자치도 익산시 남중동 458-61 남중동오투그란데뉴퍼스트,분양,개별난방,45806.543,3,298.0,제일,제일,0638510500,,아파트,전북특별자치도 익산시 익산대로5길 11,위탁관리,계단식,20260313,0638510501,298,33173.555,0.0,0.0,298.0,0.0,33173.5562,26,0,1,0,,35.947978220726,126.949724166852
A10021689,광신프로그레스더센트로아파트,5214011300,전북특별자치도,익산시,남중동,,전북특별자치도 익산시 남중동 564- 광신프로그레스더센트로아파트,분양,개별난방,81936.0,8,541.0,광신종합건설,(주)아람주택,0638372100,https://익산광신프로그레스더센트로.apti.co.kr,아파트,전북특별자치도 익산시 선화로14길 11,위탁관리,계단식,20240927,0638372101,541,59418.004,0.0,541.0,0.0,0.0,45907.5205,28,28,1,11,,35.9443343479494,126.957747021573
A10021836,남중비사벌아파트,5214011300,전북특별자치도,익산시,남중동,,전북특별자치도 익산시 남중동 352-6 남중비사벌아파트,분양,개별난방,11142.0,1,102.0,비사벌건설,비사벌건설,0638550990,,아파트,전북특별자치도 익산시 선화로29길 59,자치관리,복도식,19901228,,102,8610.84,0.0,102.0,0.0,0.0,8610.84,12,12,0,2,,35.9511101916827,126.95323506663
A57010002,남중동 남성,5214011300,전북특별자치도,익산시,남중동,,전북특별자치도 익산시 남중동 222 남중동 남성,분양,개별난방,41187.0,14,400.0,동국산업(주),동국산업(주),0638522731,남중동남성.ma-um.co.kr,아파트,전북특별자치도 익산시 선화로33길 10,자치관리,계단식,19860821,0638420620,400,38478.0,0.0,320.0,80.0,0.0,33883.39,5,5,0,0,54620,35.9473672486498,126.955614810645
A57095701,남중동이화,5214011300,전북특별자치도,익산시,남중동,,전북특별자치도 익산시 남중동 455-5 남중동이화,분양,개별난방,15903.75,1,170.0,(유)이화건설,(유)이화건설,0638420214,,아파트,전북특별자치도 익산시 익산대로 255,위탁관리,복도식,19930224,0638531253,170,14049.582,170.0,0.0,0.0,0.0,9914.4,17,17,1,0,54617,35.9487372286086,126.949682011031
A10021003,유블레스 랜드마크47,5214011400,전북특별자치도,익산시,모현동1가,,전북특별자치도 익산시 모현동1가 962- 유블레스 랜드마크47,분양,개별난방,48108.758,2,343.0,(주)유탑건설,(주)랜드마크,0638375656,,주상복합,전북특별자치도 익산시 고현로4길 8,위탁관리,계단식,20240927,0638375657,343,40189.38,0.0,343.0,0.0,0.0,28962.4398,47,47,4,8,,35.9416096023931,126.942326237878
A10021878,배산신일해피트리,5214011400,전북특별자치도,익산시,모현동1가,,전북특별자치도 익산시 모현동1가 959- 배산신일해피트리,분양,개별난방,19350.969,1,123.0,주)티앤씨,주시회사호,0638411002,,아파트,전북특별자치도 익산시 선화로13길 77,위탁관리(직영+위탁),계단식,20210916,0638411006,123,11304.516,0.0,86.0,37.0,0.0,11304.5155,1,20,0,4,,35.9548376069211,126.942772534258
A10023439,모현이지움골든뷰아파트,5214011400,전북특별자치도,익산시,모현동1가,,전북특별자치도 익산시 모현동1가 960 모현이지움골든뷰아파트,분양,개별난방,28237.037,3,207.0,계성건설,금동산업개발,0638516481,,아파트,전북특별자치도 익산시 선화로6길 59,위탁관리,계단식,20221216,0638516482,207,23242.613,0.0,207.0,0.0,0.0,17570.4408,28,28,1,7,54658,35.9450970789116,126.933497882032
A10024276,모현오투그란데프리미어,5214011400,전북특별자치도,익산시,모현동1가,,전북특별자치도 익산시 모현동1가 957 모현오투그란데프리미어,분양,개별난방,59105.188,5,338.0,(주)제일건설,(주)제일건설,0638524022,Copyright 모현오투그란데프리미어관리사무소,아파트,전북특별자치도 익산시 군익로13길 26,위탁관리,계단식,20210531,0638524023,338,41588.86,0.0,253.0,85.0,0.0,31615.6612,22,22,2,12,54658,35.9463646228772,126.933892166138
A57075709,배산제일1차,5214011400,전북특별자치도,익산시,모현동1가,,전북특별자치도 익산시 모현동1가 514-1 배산제일1차,분양,개별난방,22273.0,2,229.0,(주)제일건설,(wn)제일건설,0638569640,배산제일.apti.co.kr,아파트,전북특별자치도 익산시 선화로13길 62,위탁관리,계단식,19940624,0638410967,229,20853.76,114.0,115.0,0.0,0.0,16601.81,15,15,0,8,54655,35.9532485354854,126.943716851909
A57075710,모현주공2단지아파트,5214011400,전북특별자치도,익산시,모현동1가,,전북특별자치도 익산시 모현동1가 250-1 모현주공2단지아파트,분양,개별난방,46778.1,18,890.0,한국토지주택공사,한국토지주택공사,0638571917,,아파트,전북특별자치도 익산시 고현로 69,자치관리,계단식,19910321,0638571952,890,45663.0,890.0,0.0,0.0,0.0,36468.3,5,5,0,0,54660,35.9429065188921,126.941639925648
A57075711,모현현대2차,5214011400,전북특별자치도,익산시,모현동1가,,전북특별자치도 익산시 모현동1가 303-1 모현현대2차,분양,개별난방,118974.28,9,1114.0,현대건설,현대산업개발,0638576678,모현현대2차.ma-um.co.kr,아파트,전북특별자치도 익산시 배산로14길 9,위탁관리,혼합식,19930707,0638586678,1114,110152.27,400.0,654.0,60.0,0.0,87254.175,15,15,0,30,54659,35.9455670512705,126.941405219539
A57075712,명일아파트,5214011400,전북특별자치도,익산시,모현동1가,,전북특별자치도 익산시 모현동1가 111-1 명일아파트,분양,개별난방,14538.916,1,182.0,(주)명일건설,(주)명일건설,0638587049,명일아파트.apti.co.kr,아파트,전북특별자치도 익산시 배산로24길 64,위탁관리,복도식,19940806,0638587049,182,14538.916,182.0,0.0,0.0,0.0,10455.87,18,18,0,2,54656,35.9496626238971,126.948409879426
A57075713,배산제일풍경채에듀파크아파트,5214011400,전북특별자치도,익산시,모현동1가,,전북특별자치도 익산시 모현동1가 883 배산제일풍경채에듀파크아파트,혼합,지역난방,98142.0,12,676.0,제일건설(주),전북개발공사,0638589655,,아파트,전북특별자치도 익산시 배산로 93,위탁관리,계단식,20120604,0638589666,676,77256.22,0.0,474.0,202.0,0.0,60662.55,23,23,1,18,54658,35.9480486897031,126.937435986733
A57075714,익산배산1차부영,5214011400,전북특별자치도,익산시,모현동1가,,전북특별자치도 익산시 모현동1가 812 익산배산1차부영,분양,지역난방,143878.81,12,1044.0,(주)부영주택,(주)부영주택,0638572180,,아파트,전북특별자치도 익산시 선화로 41,위탁관리,계단식,20121123,0638572181,1044,142232.69,0.0,1044.0,0.0,0.0,81902.5508,23,23,1,24,54653,35.9523354393043,126.936399996206
A57075717,익산e편한세상,5214011400,전북특별자치도,익산시,모현동1가,,전북특별자치도 익산시 모현동1가 954 익산e편한세상,분양,개별난방,209648.89,15,1581.0,(주)삼호,모현아파트주택재건축조합,0638520088,익산e편한세상.한국/,아파트,전북특별자치도 익산시 선화로10길 17,위탁관리,계단식,20121207,0638510060,1581,164787.95,383.0,1042.0,130.0,26.0,129741.806,28,28,1,32,54661,35.9474611010205,126.946420365149
A57075718,"모현4,5,6차 현대아파트",5214011400,전북특별자치도,익산시,모현동1가,,"전북특별자치도 익산시 모현동1가 296-2 모현4,5,6차 현대아파트",분양,개별난방,81306.07,6,741.0,현대산업개발,현대산업개발,0638526679,,아파트,전북특별자치도 익산시 배산로16길 33,위탁관리,계단식,19970924,0638370260,741,78002.46,127.0,570.0,44.0,0.0,60812.982,20,20,0,25,54659,35.9469461483073,126.943126801835
A57096502,배산제일2차,5214011400,전북특별자치도,익산시,모현동1가,,전북특별자치도 익산시 모현동1가 48-4 배산제일2차,분양,개별난방,24546.664,2,279.0,제일건설,제일건설,0638433864,모현동배산제일2차.ma-um.co.kr,아파트,전북특별자치도 익산시 선화로19길 28,위탁관리,복도식,19961228,0638570271,279,23059.35,279.0,0.0,0.0,0.0,16731.63,12,12,0,4,54655,35.9539936944165,126.946302781316
A57096505,모현동 현대1차,5214011400,전북특별자치도,익산시,모현동1가,,전북특별자치도 익산시 모현동1가 2-1 모현동 현대1차,분양,개별난방,53881.37,5,488.0,현대건설,흥주주택,0638421372,,아파트,전북특별자치도 익산시 익산대로17길 16,자치관리,계단식,19910821,0638411372,488,52680.52,0.0,428.0,60.0,0.0,42828.12,15,15,0,17,54616,35.952576227368,126.950944850121
A57096601,모현제일고층아파트,5214011400,전북특별자치도,익산시,모현동1가,,전북특별자치도 익산시 모현동1가 227-3 모현제일고층아파트,분양,개별난방,16390.45,1,157.0,제일건설,제일건설,0638416201,모현동제일고층.ma-um.co.kr,아파트,,위탁관리,복도식,19911102,0638410783,157,15719.116,0.0,157.0,0.0,0.0,11513.09,15,15,1,3,54661,35.944246075602,126.944577746572
A57096606,우림모현한솔아파트,5214011400,전북특별자치도,익산시,모현동1가,,전북특별자치도 익산시 모현동1가 19 우림모현한솔아파트,분양,개별난방,53223.0,7,524.0,우림건설,우림건설,0638523466,,아파트,전북특별자치도 익산시 동서로 146-8,위탁관리,계단식,19950330,0638410629,524,47841.3,377.0,107.0,0.0,40.0,37197.55,20,20,1,15,54616,35.9539083638101,126.949669088293
A57096804,모현동 중앙하이츠,5214011400,전북특별자치도,익산시,모현동1가,,전북특별자치도 익산시 모현동1가 525-2 모현동 중앙하이츠,분양,개별난방,50539.11,5,466.0,중앙건설,중앙건설,0638589474,,아파트,전북특별자치도 익산시 선화로5길 45,위탁관리,계단식,19930927,0638420237,466,44744.88,176.0,200.0,90.0,0.0,36339.64,15,15,1,16,54655,35.9522428083069,126.942884694111
A57096903,모현동 현대3차,5214011400,전북특별자치도,익산시,모현동1가,,전북특별자치도 익산시 모현동1가 677-2 모현동 현대3차,분양,개별난방,35140.0,4,340.0,현대산업개발(주),현대산업개발(주),0638431896,모현동현대3차.ma-um.co.kr,아파트,전북특별자치도 익산시 배산로 91-9,위탁관리,계단식,19960426,0638370254,340,31399.5,146.0,194.0,0.0,0.0,24622.64,15,15,1,12,54658,35.9450582110194,126.938523948919
A10027897,익산배산2차부영아파트,5214011500,전북특별자치도,익산시,모현동2가,,전북특별자치도 익산시 모현동2가 673 익산배산2차부영아파트,임대,지역난방,125436.34,10,824.0,동광주택,동광주택,0638588664,,아파트,전북특별자치도 익산시 선화로1길 57-33,위탁관리,계단식,20150827,0638588665,824,94438.39,0.0,824.0,0.0,0.0,70034.4792,23,23,1,20,54653,35.9552428843496,126.936311094293
A57009201,모현동신,5214011500,전북특별자치도,익산시,모현동2가,,전북특별자치도 익산시 모현동2가 198-2 모현동신,분양,개별난방,23100.77,2,299.0,(주)동신,(주)동신,0638585740,모현동신.ma-um.co.kr,아파트,전북특별자치도 익산시 동서로 48,자치관리,복도식,19940830,0638410564,299,22480.25,195.0,104.0,0.0,0.0,16638.83,13,13,1,4,54654,35.9571755696824,126.94065960869
A57070101,배산휴먼시아5단지,5214011500,전북특별자치도,익산시,모현동2가,,전북특별자치도 익산시 모현동2가 577 배산휴먼시아5단지,임대,지역난방,45654.3,8,648.0,TEC건설,한국토지주택공사,0638533990,,아파트,전북특별자치도 익산시 선화로1길 57-32,위탁관리,복도식,20100825,0638533992,648,45424.17,648.0,0.0,0.0,0.0,26289.12,12,12,1,17,54653,35.9567293585144,126.935744793564
A57070102,배산휴먼시아4단지,5214011500,전북특별자치도,익산시,모현동2가,,전북특별자치도 익산시 모현동2가 674 배산휴먼시아4단지,임대,지역난방,105610.72,12,1414.0,남양건설,남양건설,0638543566,배산4단지.apti.co.kr,아파트,전북특별자치도 익산시 선화로1길 25-14,위탁관리,혼합식,20110215,0638543559,1414,104843.92,1414.0,0.0,0.0,0.0,59234.4,19,19,0,27,54653,35.9526617310352,126.937683852759
A57070103,배산제일오투그란데,5214011500,전북특별자치도,익산시,모현동2가,,전북특별자치도 익산시 모현동2가 675 배산제일오투그란데,분양,지역난방,111944.17,11,739.0,주식회사제일건설,주식회사제일건설,0638583311,배산제일오투그란데.com,아파트,전북특별자치도 익산시 선화로 17,위탁관리,계단식,20141028,0638573311,739,84085.25,0.0,661.0,78.0,0.0,64436.4997,23,23,1,18,54653,35.9521107314255,126.932872284549
A10021075,익산예다음아르띠에,5214011600,전북특별자치도,익산시,송학동,,전북특별자치도 익산시 송학동 912- 익산예다음아르띠에,분양,개별난방,123054.96,11,816.0,(주)영무건설,(주)더와이,0638523838,홈닷ERP,아파트,전북특별자치도 익산시 학곤로1길 14,위탁관리,계단식,20241008,0638523839,816,89151.03,0.0,816.0,0.0,0.0,69347.9609,28,28,1,19,,35.9399573094429,126.926418559644
A10022334,익산라송센트럴카운티,5214011600,전북특별자치도,익산시,송학동,,전북특별자치도 익산시 송학동 908- 익산라송센트럴카운티,임대,개별난방,137637.0,10,866.0,주)한토건설,라송산업(주),0638421700,,아파트,전북특별자치도 익산시 학곤로 154-26,위탁관리(직영+위탁),계단식,20240912,0638421701,866,89805.37,221.0,645.0,0.0,0.0,68060.9702,0,28,2,21,,35.9417825879137,126.928796565809
A10022432,송학영무예다음2차아파트,5214011600,전북특별자치도,익산시,송학동,,전북특별자치도 익산시 송학동 901- 송학영무예다음2차아파트,임대,개별난방+기타,12937.0,1,117.0,영무건설주식회사,영무건설주식회사,0638589730,송학영무예다음2차.apti.co.kr,아파트,전북특별자치도 익산시 학곤로1길 13,위탁관리,혼합식,20210913,,117,9767.8955,117.0,0.0,0.0,0.0,6995.9735,1,14,0,0,,35.9388598315911,126.928599815187
A10023486,송학크레지움캐슬아파트,5214011600,전북특별자치도,익산시,송학동,,전북특별자치도 익산시 송학동 902 송학크레지움캐슬아파트,임대,개별난방,50542.863,4,294.0,호림건설(주),호림주택(주),0638420709,,아파트,,위탁관리,계단식,20220929,0638430709,294,34092.85,0.0,294.0,0.0,0.0,24975.352,27,27,2,8,54665,35.942185087895,126.931912148901
A57008001,송학동 리젠시빌아파트,5214011600,전북특별자치도,익산시,송학동,,전북특별자치도 익산시 송학동 245-2 송학동 리젠시빌아파트,분양,개별난방,41347.04,4,346.0,리젠시빌산업(주),(주)진아건설,0638422459,www.apartz.com/homepage/5700801/index.html,아파트,전북특별자치도 익산시 배산로 39-6,위탁관리,계단식,20021129,0638411328,346,37086.355,0.0,346.0,0.0,0.0,29239.076,15,15,1,14,54665,35.9420859440702,126.935825252079
A57008002,송학동 현대,5214011600,전북특별자치도,익산시,송학동,,전북특별자치도 익산시 송학동 215 송학동 현대,분양,개별난방,46827.13,6,451.0,현대건설(주),한신주택,0638563559,송학동현대.ma-um.co.kr,아파트,전북특별자치도 익산시 배산로 34-1,자치관리,계단식,19911014,0638410742,451,45358.42,0.0,451.0,0.0,0.0,36122.67,15,15,0,16,54664,35.9402085425171,126.93801025927
A57008003,송학동 영무예다음,5214011600,전북특별자치도,익산시,송학동,,전북특별자치도 익산시 송학동 138-24 송학동 영무예다음,분양,개별난방,21566.283,1,170.0,영무건설,영무건설,0638548079,송학영무예다음.apti.co.kr/,아파트,전북특별자치도 익산시 배산로2길 28,위탁관리(직영+위탁),계단식,20060824,0638370237,170,21215.15,0.0,170.0,0.0,0.0,14440.905,15,15,1,0,54664,35.9380023340432,126.939489691829
A57008004,지안리즈,5214011600,전북특별자치도,익산시,송학동,,전북특별자치도 익산시 송학동 890 지안리즈,임대,개별난방,69530.805,7,700.0,전북개발공사,전북개발공사,0638546611,,아파트,전북특별자치도 익산시 학곤로 154-7,위탁관리,혼합식,20090413,0638546688,700,36195.0,700.0,0.0,0.0,0.0,36195,15,15,2,13,54666,35.9411896633703,126.928801309091
A57008005,익산더샵아파트,5214011600,전북특별자치도,익산시,송학동,,전북특별자치도 익산시 송학동 898 익산더샵아파트,분양,개별난방,95523.08,8,648.0,포스코건설(주),익산송학지역주택조합,0638379977,http://iksanthesharp.postown.net,아파트,전북특별자치도 익산시 학곤로20길 77,위탁관리,계단식,20140430,0638586301,648,73983.08,0.0,574.0,74.0,0.0,57125,24,24,0,19,54666,35.9448569428298,126.929778774175
A57013001,목천원주아파트,5214011700,전북특별자치도,익산시,목천동,,전북특별자치도 익산시 목천동 396-1 목천원주아파트,분양,개별난방,17610.42,1,222.0,원주건설,원주건설,0638373790,목천원주아파트.apti.co.kr,아파트,전북특별자치도 익산시 목천로 48,위탁관리,복도식,19950224,0638589273,222,15592.41,222.0,0.0,0.0,0.0,11928.78,15,15,1,3,54672,35.9182024074344,126.934276356454
A57072902,목천동 한스빌,5214011700,전북특별자치도,익산시,목천동,,전북특별자치도 익산시 목천동 1376-1 목천동 한스빌,임대,,38067.793,2,746.0,(주)남해종합건설,한강건설,0638430039,kohom.co.kr,아파트,전북특별자치도 익산시 목천로 30-14,위탁관리,복도식,20010605,0638430211,746,19780.623,746.0,0.0,0.0,0.0,19780.5716,15,15,0,8,54672,35.9155885954121,126.934078983255
A10020450,중흥S클래스퍼스트파크아파트,5214012100,전북특별자치도,익산시,신동,,전북특별자치도 익산시 신동 863- 중흥S클래스퍼스트파크아파트,혼합,개별난방,146575.69,8,834.0,중흥토건,모인파크(주),028370151,,아파트,전북특별자치도 익산시 익산대로 399,위탁관리,계단식,20250826,0638370152,834,94984.07,39.0,523.0,272.0,0.0,73305.8257,0,29,0,0,,35.9612616674167,126.95074515018
A10020996,에스타큐브(주상복합),5214012100,전북특별자치도,익산시,신동,,전북특별자치도 익산시 신동 789-7 에스타큐브(주상복합),임대,중앙난방,3562.736,1,147.0,이에스개발,에이팩스톤,0638432400,,도시형 생활주택(주상복합),전북특별자치도 익산시 익산대로54길 90,위탁관리,혼합식,20210524,0638432401,147,3562.736,147.0,0.0,0.0,0.0,2160.0628,1,7,2,3,,35.962457380929,126.957956090121
A10021227,신동 동북아파트,5214012100,전북특별자치도,익산시,신동,,전북특별자치도 익산시 신동 620-3 신동 동북아파트,분양,개별난방,12958.8,1,115.0,동북건설,동북건설,0638582230,,아파트,전북특별자치도 익산시 동서로 179-14,자치관리,계단식,19891129,0000000000,115,12958.8,0.0,115.0,0.0,0.0,9339.3,1,5,0,0,,35.9561059983258,126.954062927714
A10021656,위너스파크,5214012100,전북특별자치도,익산시,신동,,전북특별자치도 익산시 신동 765-35 위너스파크,분양,개별난방,0.0,1,120.0,(유)미래시아건설,(유)미래시아건설,0638570303,,다세대,전북특별자치도 익산시 무왕로 930,위탁관리,복도식,20190219,0638570303,120,3459.6,120.0,0.0,0.0,0.0,2155.86,1,13,0,0,,35.9624594929931,126.961567362385
A57072801,씨즈퍼스트,5214012100,전북특별자치도,익산시,신동,,전북특별자치도 익산시 신동 764-4 씨즈퍼스트,분양,개별난방,16039.64,4,290.0,신성건설,글로벌공영,0638439977,,도시형 생활주택(주상복합),전북특별자치도 익산시 익산대로68길 51,위탁관리,복도식,20130828,0638370607,318,8183.16,290.0,0.0,0.0,0.0,5050.1,9,9,2,4,54646,35.961803565076,126.959360981597
A57072802,익산금호어울림,5214012100,전북특별자치도,익산시,신동,,전북특별자치도 익산시 신동 861 익산금호어울림,분양,개별난방,112073.0,11,732.0,금호산업(주),신동아파트재건축정비사업조합,0638410766,익산금호어울림.apti.co.kr,아파트,전북특별자치도 익산시 인북로 334,위탁관리,계단식,20140822,0638410768,732,80538.02,167.0,482.0,83.0,0.0,61273.2704,23,23,2,22,54632,35.9582405051493,126.962088521541
A57097601,신동제일,5214012100,전북특별자치도,익산시,신동,,전북특별자치도 익산시 신동 765-23 신동제일,분양,개별난방,19463.64,1,177.0,(주)제일건설,(주)제일,0638531352,신동제일.ma-um.co.kr,아파트,전북특별자치도 익산시 동서로21길 94-19,위탁관리,혼합식,19961219,0638410253,177,19009.38,89.0,44.0,44.0,0.0,14964.97,12,12,0,4,54646,35.9620258523768,126.96084168568
A10021145,영등주공2차아파트,5214012200,전북특별자치도,익산시,영등동,,전북특별자치도 익산시 영등동 255-6 영등주공2차아파트,분양,개별난방,14307.0,8,290.0,대한주택공사,대한주택공사,0638511286,,아파트,전북특별자치도 익산시 동서로 326-9,자치관리,계단식,19880722,0638524428,290,13570.6,290.0,0.0,0.0,0.0,11039.28,1,5,0,0,,35.9500084454957,126.969551951476
A10021226,영등라인2차아파트,5214012200,전북특별자치도,익산시,영등동,,전북특별자치도 익산시 영등동 254-50 영등라인2차아파트,분양,개별난방,14538.0,1,146.0,(주)라인개발,(주)라인개발,0638553595,,아파트,전북특별자치도 익산시 고봉로16길 12,자치관리,계단식,19950520,0630000000,146,13640.58,114.0,0.0,32.0,0.0,10545.16,1,16,1,0,,35.9474951590963,126.968525688017
A10023916,해오름시티,5214012200,전북특별자치도,익산시,영등동,,전북특별자치도 익산시 영등동 879 해오름시티,임대,개별난방,10477.14,1,186.0,(유)해오름주택건설,(주)해오름종합건설,07087440879,,도시형 생활주택(아파트),,자치관리,복도식,20210303,07087440879,186,8472.84,186.0,0.0,0.0,0.0,3364.08,13,13,2,2,54634,35.9551015977763,126.969432610469
A57016005,영등우남아파트,5214012200,전북특별자치도,익산시,영등동,,전북특별자치도 익산시 영등동 772 영등우남아파트,분양,개별난방,23059.0,2,276.0,우남건설,우남건설,0638340071,,아파트,전북특별자치도 익산시 무왕로16길 29,자치관리,계단식,19960828,0638340071,276,21588.72,276.0,0.0,0.0,0.0,16548.96,13,13,0,12,54638,35.9556696048491,126.977845597405
A57016012,영등동 신일,5214012200,전북특별자치도,익산시,영등동,,전북특별자치도 익산시 영등동 714-1 영등동 신일,분양,개별난방,91862.47,6,720.0,신일건설,신일건설,0638350148,,아파트,전북특별자치도 익산시 약촌로 202,위탁관리,계단식,19920808,0638312665,720,88444.65,0.0,540.0,150.0,30.0,68417.1,15,15,1,24,54642,35.9516022698478,126.975794942252
A57016014,우남샘물타운,5214012200,전북특별자치도,익산시,영등동,,전북특별자치도 익산시 영등동 800 우남샘물타운,분양,개별난방,65082.18,5,890.0,(주)우남종합건설,(주)우남종합건설,0638312413,영등동우남샘물타운.ma-um.co.kr,아파트,전북특별자치도 익산시 고봉로34길 5-2,위탁관리,혼합식,19970826,0638312414,894,61049.56,890.0,0.0,0.0,0.0,46411.74,15,15,1,0,54544,35.9603270118773,126.972512556949
A57016017,영등3차제일,5214012200,전북특별자치도,익산시,영등동,,전북특별자치도 익산시 영등동 821 영등3차제일,분양,개별난방,125600.0,10,1177.0,제일건설,제일건설,0638332061,영등제일3차.ma-um.co.kr,아파트,전북특별자치도 익산시 고봉로34길 35,위탁관리,계단식,19981219,0638332062,1177,120661.15,227.0,950.0,0.0,0.0,94237.29,15,15,0,41,54544,35.9603413606616,126.973806771425
A57076218,영등동 우미,5214012200,전북특별자치도,익산시,영등동,,전북특별자치도 익산시 영등동 771-3 영등동 우미,분양,개별난방,36659.89,4,434.0,우미산업개발(주),우미산업개발(주),0638330461,영등동우미.ma-um.co.kr,아파트,전북특별자치도 익산시 무왕로16길 26,위탁관리,혼합식,19941217,0638330461,434,35846.74,338.0,96.0,0.0,0.0,27390.96,15,15,0,14,54637,35.956119843822,126.976782328354
A57076219,영등우남그랜드타운,5214012200,전북특별자치도,익산시,영등동,,전북특별자치도 익산시 영등동 822 영등우남그랜드타운,분양,개별난방,94756.31,6,1110.0,(주)우남건설,(주)우남건설,0638348985,우남그랜드타운.apti.co.kr,아파트,전북특별자치도 익산시 하나로13길 26,위탁관리,계단식,19990105,0638348986,1110,94756.31,870.0,240.0,0.0,0.0,72367.2,15,15,0,37,54546,35.9615205909514,126.979630955023
A57076220,영등동신,5214012200,전북특별자치도,익산시,영등동,,전북특별자치도 익산시 영등동 682 영등동신,분양,개별난방,115655.0,14,1260.0,동신건설,동신건설,0638334771,영등동신.ma-um.co.kr,아파트,전북특별자치도 익산시 약촌로 228,위탁관리,혼합식,19920330,0638337929,1260,110876.03,480.0,780.0,0.0,0.0,89890.2,15,15,1,29,54642,35.9541113752261,126.973887750061
A57076221,한라아파트,5214012200,전북특별자치도,익산시,영등동,,전북특별자치도 익산시 영등동 774 한라아파트,사택 및 관사 등,개별난방,15147.0,3,210.0,한라건설,한라건설,0638353157,8353157@hanmail.net,아파트,전북특별자치도 익산시 동서로43길 46,위탁관리,혼합식,19951007,0638383027,210,15147.0,210.0,0.0,0.0,0.0,11066.4,15,15,0,4,54641,35.9549365351975,126.976886426831
A57076416,영등동 부영3차아파트,5214012200,전북특별자치도,익산시,영등동,,전북특별자치도 익산시 영등동 815 영등동 부영3차아파트,분양,개별난방,95502.695,8,1110.0,부영주택,부영주택,0638340345,영등동부영3차.ma-um.co.kr,아파트,전북특별자치도 익산시 하나로 483-60,위탁관리,복도식,19980812,0638340346,1110,77017.92,1110.0,0.0,0.0,0.0,57369.6,15,15,0,16,54541,35.9635347747424,126.978616859613
A57097901,영등동 골든캐슬,5214012200,전북특별자치도,익산시,영등동,,전북특별자치도 익산시 영등동 147 영등동 골든캐슬,분양,개별난방,41483.773,3,155.0,(주)미래종합건설,(주)캐슬,0638385577,gdcastle.co.kr,아파트,전북특별자치도 익산시 약촌로 268,위탁관리,계단식,20050325,0638385588,155,28633.4,0.0,0.0,0.0,155.0,23801.9005,15,15,2,6,54637,35.9568369162276,126.973931968555
A57097902,영등동 유원소라,5214012200,전북특별자치도,익산시,영등동,,전북특별자치도 익산시 영등동 266-3 영등동 유원소라,분양,개별난방,14290.59,1,165.0,(주)유원건설,(주)영풍공영,0638560115,영등동유원소라.ma-um.co.kr,아파트,전북특별자치도 익산시 고봉로 204,자치관리,혼합식,19930226,0638575361,165,14028.54,135.0,30.0,0.0,0.0,10566.9,15,15,1,3,54628,35.9503538078171,126.968875251851
A57097909,영등동 라인1차,5214012200,전북특별자치도,익산시,영등동,,전북특별자치도 익산시 영등동 255 영등동 라인1차,분양,개별난방,35809.87,3,342.0,(주)라인개발,(주)라인개발,0638553538,영등동라인1차.apti.co.kr,아파트,전북특별자치도 익산시 고봉로16길 11,자치관리,혼합식,19941130,0638370683,342,33442.62,174.0,132.0,36.0,0.0,25232.94,20,20,1,8,54628,35.9479060502384,126.968929524248
A57098003,영등현대아파트,5214012200,전북특별자치도,익산시,영등동,,전북특별자치도 익산시 영등동 529-2 영등현대아파트,분양,개별난방,20926.0,2,204.0,현대산업개발,현대산업개발,0638579236,영등현대.ma-um.co.kr,아파트,전북특별자치도 익산시 선화로47길 82,자치관리,계단식,19891019,0638579246,204,20503.56,0.0,204.0,0.0,0.0,16420.56,11,11,0,10,54624,35.9507926807739,126.96363431583
A57098204,영등동 제일2차2지구,5214012200,전북특별자치도,익산시,영등동,,전북특별자치도 익산시 영등동 763 영등동 제일2차2지구,분양,개별난방,38703.043,2,248.0,(주)제일건설,(주)제일건설,0638340436,http//영등동제일2차2지구apti.co.kr,아파트,전북특별자치도 익산시 고봉로24길 18,위탁관리,계단식,19970326,0638340438,248,28517.473,0.0,49.0,199.0,0.0,28517.473,15,15,0,9,54643,35.9546479183396,126.972040768959
A57098207,영등동 제일2차1지구,5214012200,전북특별자치도,익산시,영등동,,전북특별자치도 익산시 영등동 767-8 영등동 제일2차1지구,분양,개별난방,27265.105,3,297.0,(주)제일건설,(주)제일건설,0638319635,xn--21-qo2ij2wdjvj6a35etrbdyh7vhe2u12a.apti.co.kr/apthome/default.asp,아파트,전북특별자치도 익산시 고봉로24길 30,위탁관리,계단식,19970326,0638310694,297,26036.82,173.0,124.0,0.0,0.0,20898.231,15,15,0,11,54643,35.9553799667622,126.971915475591
A57098211,영등동 제일4차,5214012200,전북특별자치도,익산시,영등동,,전북특별자치도 익산시 영등동 810 영등동 제일4차,분양,개별난방,60944.0,5,708.0,제일건설(주),제일건설(주),0638312063,영등제일4차.apti.co.kr,아파트,전북특별자치도 익산시 무왕로9길 60,위탁관리,계단식,19991125,0638352064,708,54638.13,708.0,0.0,0.0,0.0,42317.16,15,15,1,24,54542,35.9633676733413,126.973580730019
A57098213,비사벌아파트,5214012200,전북특별자치도,익산시,영등동,,전북특별자치도 익산시 영등동 771-2 비사벌아파트,분양,개별난방,69879.56,7,810.0,비사벌(주),비사벌(주),0638343120,https://영등비사벌.apti.co.kr/,아파트,전북특별자치도 익산시 고봉로30길 51,위탁관리,계단식,19950729,0638343121,810,66441.0,630.0,180.0,0.0,0.0,53044.2,15,15,0,27,54637,35.9566286128363,126.975078767076
A57098215,영등제일맨션,5214012200,전북특별자치도,익산시,영등동,,전북특별자치도 익산시 영등동 768-1 영등제일맨션,분양,개별난방,93825.8,7,900.0,제일건설,제일건설,0638322155,영등제일맨션아파트.apti.co.kr,아파트,전북특별자치도 익산시 고봉로30길 13,위탁관리,계단식,19950404,0638329205,900,90439.02,390.0,330.0,180.0,0.0,73779.3,15,15,0,30,54636,35.9566077063957,126.97260828873
A10020828,어양이지움더플러스,5214012300,전북특별자치도,익산시,어양동,,전북특별자치도 익산시 어양동 749- 어양이지움더플러스,분양,개별난방,30247.805,4,284.0,계성건설(주),(유)세진종합개발컨소시엄,0637232217,,아파트,전북특별자치도 익산시 동서로 422,위탁관리,계단식,20240913,0637232219,284,30247.762,284.0,0.0,0.0,0.0,14126.8984,20,20,1,0,,35.9510105473902,126.979874842975
A10021944,동남로얄아파트,5214012300,전북특별자치도,익산시,어양동,,전북특별자치도 익산시 어양동 511-16 동남로얄아파트,분양,개별난방,11640.0,3,165.0,(주) 길림주택건설,(주)길림주택건설,0638334115,,아파트,전북특별자치도 익산시 동서로 465,자치관리,계단식,19860521,0638334115,165,12688.9,165.0,0.0,0.0,0.0,8458.2,5,5,0,0,,35.9521972110168,126.984766466549
A10024850,익산 어양3차 오투그란데,5214012300,전북특별자치도,익산시,어양동,,전북특별자치도 익산시 어양동 744 익산 어양3차 오투그란데,분양,개별난방,21761.777,3,155.0,제일건설,(주)에버종합건설,0638326481,,아파트,전북특별자치도 익산시 무왕로21길 31,위탁관리,계단식,20200525,0638326482,155,16733.18,0.0,155.0,0.0,0.0,13173.5895,23,23,1,4,54553,35.9623391009288,126.985944477797
A10024854,어양센트럴파크아파트,5214012300,전북특별자치도,익산시,어양동,,전북특별자치도 익산시 어양동 748 어양센트럴파크아파트,분양,개별난방,16222.795,1,200.0,남화토건,주식회사 동서,0638317365,,아파트,전북특별자치도 익산시 하나로 337,위탁관리,계단식,20200604,0638314345,200,11879.98,200.0,0.0,0.0,0.0,7476.98,28,28,1,0,54630,35.9511835314376,126.983671994235
A10028009,e 편한세상 어양 아파트,5214012300,전북특별자치도,익산시,어양동,,전북특별자치도 익산시 어양동 736 e 편한세상 어양 아파트,분양,개별난방,190724.2,10,1200.0,(주)삼호건설,재건축조합,0638322809,,아파트,전북특별자치도 익산시 동서로63길 25,위탁관리,계단식,20150724,0638322810,1200,134366.44,200.0,825.0,150.0,25.0,102948.92,28,28,2,0,54565,35.95325000125,126.984459337366
A57021001,"동도미소드림(414,418번지)",5214012300,전북특별자치도,익산시,어양동,,"전북특별자치도 익산시 어양동 414 동도미소드림(414,418번지)",분양,개별난방,59849.12,5,344.0,동도건설,동도건설,0638311437,어양동도미소드림.ma-um.co.kr,아파트,전북특별자치도 익산시 하나로 498-21,위탁관리,계단식,20050720,0638310181,344,51570.254,0.0,144.0,0.0,200.0,42217.5644,15,15,1,13,54552,35.9654870818708,126.982809654658
A57021002,어양현대,5214012300,전북특별자치도,익산시,어양동,,전북특별자치도 익산시 어양동 493-7 어양현대,분양,개별난방,38781.0,3,350.0,현대산업개발,현대산업개발,0638317986,,아파트,전북특별자치도 익산시 무왕로20길 33,자치관리,계단식,19901114,0638341168,350,38504.27,0.0,294.0,56.0,0.0,31104.01,14,14,0,13,54639,35.9558750711543,126.980895513805
A57021003,어양주공5단지,5214012300,전북특별자치도,익산시,어양동,,전북특별자치도 익산시 어양동 621 어양주공5단지,분양,개별난방,43196.543,5,468.0,GS건설,대한주택공사,0638328373,어양주공5차.ma-um.co.kr,아파트,전북특별자치도 익산시 부송1로 17,자치관리,계단식,19980824,0638328454,468,43196.543,468.0,0.0,0.0,0.0,28075.32,18,18,2,0,54563,35.9574124382687,126.984211548614
A57021004,어양우미,5214012300,전북특별자치도,익산시,어양동,,전북특별자치도 익산시 어양동 84 어양우미,분양,개별난방,42089.46,3,497.0,주)우미산업개발,주)우미산업개발,0638333411,어양우미.ma-um.co.kr,아파트,전북특별자치도 익산시 무왕로22길 43,위탁관리,복도식,19961115,0638383026,497,41074.566,497.0,0.0,0.0,0.0,29813.4,15,15,0,6,54566,35.9549084337769,126.988138888847
A57021005,어양주공8단지,5214012300,전북특별자치도,익산시,어양동,,전북특별자치도 익산시 어양동 689 어양주공8단지,분양,개별난방,42403.57,6,550.0,화성건설,한국토지주택공사,0638323427,어양주공8단지.apti.co.krr,아파트,전북특별자치도 익산시 궁동로 109,위탁관리,계단식,20030205,0638323426,550,42191.67,550.0,0.0,0.0,0.0,31058.24,15,15,1,0,54552,35.9626956170078,126.984371905139
A57021006,어양GS자이,5214012300,전북특별자치도,익산시,어양동,,전북특별자치도 익산시 어양동 709 어양GS자이,분양,개별난방,150176.39,10,749.0,GS건설,(유)삼신종합건설,0638380709,GS자이아파트.apti.co.kr,아파트,전북특별자치도 익산시 동서로 509,위탁관리,계단식,20060623,0638380749,749,97244.516,0.0,150.0,373.0,226.0,97244.5141,15,15,1,26,54566,35.9542978213025,126.988849942993
A57021007,어양쌍용,5214012300,전북특별자치도,익산시,어양동,,전북특별자치도 익산시 어양동 606-1 어양쌍용,분양,개별난방,51074.0,16,810.0,하봉주택건설,하봉주택건설,0638314788,어양쌍용.ma-um.co.kr,아파트,전북특별자치도 익산시 하나로 357,자치관리,혼합식,19881111,0638319088,810,37646.3,810.0,0.0,0.0,0.0,37644.7,5,5,0,0,54640,35.9519197925294,126.982040024601
A57021008,어양주공6단지,5214012300,전북특별자치도,익산시,어양동,,전북특별자치도 익산시 어양동 695 어양주공6단지,분양,개별난방,70143.0,9,870.0,(주)삼호건설,대한주택공사,0638328302,,아파트,전북특별자치도 익산시 무왕로19길 11,위탁관리,복도식,20000327,0638315774,870,69745.15,870.0,0.0,0.0,0.0,42142.64,18,18,1,14,54553,35.9593051348782,126.984229795136
A57021010,익산2차부영,5214012300,전북특별자치도,익산시,어양동,,전북특별자치도 익산시 어양동 653-1 익산2차부영,분양,개별난방,81943.96,7,1035.0,부영주택,부영주택,0638340344,http://cafe.naver.com/ikby2,아파트,전북특별자치도 익산시 동서로61길 34,위탁관리,복도식,19980502,0638340343,1035,64138.2,1035.0,0.0,0.0,0.0,47850,15,15,2,14,54640,35.955337694656,126.98168653601
A57021015,어양주공4단지,5214012300,전북특별자치도,익산시,어양동,,전북특별자치도 익산시 어양동 621 어양주공4단지,임대,개별난방,32349.066,5,427.0,비사벌,비사벌,0638328372,www.kohom.co.kr,아파트,전북특별자치도 익산시 부송1로 17,위탁관리,복도식,19980824,0638358372,427,31945.145,427.0,0.0,0.0,0.0,19429.1,15,18,0,5,54563,35.9574124382687,126.984211548614
A57073112,어양엘드수목토,5214012300,전북특별자치도,익산시,어양동,,전북특별자치도 익산시 어양동 728 어양엘드수목토,분양,개별난방,46109.176,6,304.0,22시,(주)엘드건설,0638310632,어양엘드수목토.ma-um.co.kr,아파트,전북특별자치도 익산시 무왕로19길 18,위탁관리,계단식,20080904,0639158928,304,25830.484,0.0,304.0,0.0,0.0,25830.4848,15,15,1,12,54553,35.9600226767014,126.985456357002
A57073113,어양주공7단지,5214012300,전북특별자치도,익산시,어양동,,전북특별자치도 익산시 어양동 691 어양주공7단지,분양,개별난방,25839.0,5,343.0,(주)삼호,대한주택공사,0638328301,어양주공7단지.ma-um.co.kr,아파트,전북특별자치도 익산시 하나로10길 25,위탁관리,복도식,19991110,0638348301,343,21353.77,343.0,0.0,0.0,0.0,14297.11,12,12,1,9,54553,35.9621169247971,126.983647683453
A57073114,익산1차부영아파트,5214012300,전북특별자치도,익산시,어양동,,전북특별자치도 익산시 어양동 652-1 익산1차부영아파트,분양,개별난방,93101.1,8,1185.0,(주)부영주택,(주)부영주택,0638321035,,아파트,전북특별자치도 익산시 무왕로20길 17,자치관리,복도식,19980502,0638321034,1185,73121.56,1185.0,0.0,0.0,0.0,54433.68,15,15,0,16,54639,35.9563290980582,126.980782782591
A57015001,금강동 대신쉐르빌,5214012500,전북특별자치도,익산시,금강동,,전북특별자치도 익산시 금강동 31 금강동 대신쉐르빌,분양,개별난방,26566.0,2,418.0,대신종합건설,동산산업,0638516360,금강동대신쉐르빌.ma-um.co.kr,아파트,전북특별자치도 익산시 약촌로 31,자치관리,복도식,20010809,0638526368,418,19311.6,418.0,0.0,0.0,0.0,13935.8274,15,15,2,3,54614,35.9368253537881,126.977819051381
A57015002,골드리버파크,5214012500,전북특별자치도,익산시,금강동,,전북특별자치도 익산시 금강동 428 골드리버파크,분양,개별난방,33502.27,2,277.0,가산종합건설,금강주택건설,0638437789,,아파트,전북특별자치도 익산시 약촌로 25,자치관리,복도식,20110727,0638437787,277,26368.08,124.0,69.0,84.0,0.0,19397.718,15,15,1,6,54614,35.9358715455592,126.978690471829
A10023649,이지움더테라스아트리체,5214012700,전북특별자치도,익산시,팔봉동,,전북특별자치도 익산시 팔봉동 903 이지움더테라스아트리체,분양,개별난방,31533.074,20,192.0,주)계성건설,주)경현,0638368828,,연립주택,전북특별자치도 익산시 무왕로36길 13,위탁관리,계단식,20220908,0638368829,192,21527.629,0.0,192.0,0.0,0.0,16241.2188,4,4,1,45,54582,35.9661348088093,127.018363073257
A57074302,기안파인골드빌아파트,5214012700,전북특별자치도,익산시,팔봉동,,전북특별자치도 익산시 팔봉동 304 기안파인골드빌아파트,분양,개별난방,59075.0,8,576.0,기안건업(주),기안건업(주),0638310751,,아파트,전북특별자치도 익산시 무왕로32길 85,위탁관리,계단식,20020919,0638310251,576,59074.8,0.0,576.0,0.0,0.0,46123.92,12,12,1,24,54582,35.9637541377802,127.01551090408
A57099701,기안파인골드빌2차,5214012700,전북특별자치도,익산시,팔봉동,,전북특별자치도 익산시 팔봉동 313 기안파인골드빌2차,분양,개별난방,59527.0,5,496.0,기안건업,기안건업,0638337095,cafe.daum.net/8337095,아파트,전북특별자치도 익산시 무왕로32길 80,위탁관리,계단식,20050720,0638337096,496,58319.926,0.0,496.0,0.0,0.0,42122.35,12,12,0,21,54582,35.9654745032585,127.015586847797
A10020322,부송 데시앙아파트,5214013400,전북특별자치도,익산시,부송동,,전북특별자치도 익산시 부송동 1419- 부송 데시앙아파트,분양,개별난방,120956.66,8,745.0,태영건설,전북개발공사,0638330075,,아파트,전북특별자치도 익산시 부송로 146-13,위탁관리,계단식,20251127,0638330076,745,81829.16,0.0,745.0,0.0,0.0,63005.686,20,20,2,22,,35.9652502779946,126.991682337491
A10021786,익산부송라온프라이빗,5214013400,전북특별자치도,익산시,부송동,,전북특별자치도 익산시 부송동 1217- 익산부송라온프라이빗,분양,,21723.0,4,256.0,금동산업개발 외,금동산업개발 외,0638369994,,아파트,전북특별자치도 익산시 무왕로19길 72-7,자치관리,계단식,20190104,0638369995,256,21504.0,0.0,256.0,0.0,0.0,21723.4432,15,15,0,9,,35.9656737695034,126.984430961722
A10023817,정하에코하임,5214013400,전북특별자치도,익산시,부송동,,전북특별자치도 익산시 부송동 240-20 정하에코하임,임대,개별난방,42622.207,5,271.0,정하건설(주),정하건설(주),0638362223,,아파트,전북특별자치도 익산시 선화로73길 9,위탁관리,계단식,20220405,0638362224,271,29712.47,0.0,271.0,0.0,0.0,23029.3894,21,21,1,8,54559,35.9564983310711,126.997485844084
A10024288,포레나 익산부송아파트,5214013400,전북특별자치도,익산시,부송동,,전북특별자치도 익산시 부송동 1102 포레나 익산부송아파트,분양,개별난방,99867.0,4,626.0,주) 한화건설,유) 청담산업개발,0638332244,,주상복합,전북특별자치도 익산시 무왕로 1195,위탁관리,계단식,20210527,0638332245,626,62884.266,206.0,416.0,0.0,4.0,46852.324,38,38,3,14,54554,35.9599097693551,126.989015101641
A10025796,부송코아루디펠리체,5214013400,전북특별자치도,익산시,부송동,,전북특별자치도 익산시 부송동 1215 부송코아루디펠리체,분양,개별난방,19576.129,2,169.0,(주)대창건설,한국토지신탁,0638369250,,아파트,전북특별자치도 익산시 부송1로 120-11,위탁관리,계단식,20190111,0638369251,169,14345.866,169.0,0.0,0.0,0.0,10081.8317,15,15,1,0,54559,35.9572476691725,126.995914970728
A57036003,부송동제일아파트,5214013400,전북특별자치도,익산시,부송동,,전북특별자치도 익산시 부송동 1120 부송동제일아파트,분양,개별난방,46568.7,3,390.0,(주)제일건설,(주)제일건설,0638351837,cafe.daum.net/BSJEIL,아파트,전북특별자치도 익산시 무왕로25길 12,위탁관리,계단식,20010906,0638320343,390,44229.9,0.0,390.0,0.0,0.0,33080.229,15,15,1,13,54550,35.9610745292855,126.99411016605
A57036004,부송주공9단지,5214013400,전북특별자치도,익산시,부송동,,전북특별자치도 익산시 부송동 1198 부송주공9단지,분양,개별난방,30708.143,5,400.0,대한주택공사,화성산업,0638314163,부송주공9단지.ma-um.co.kr,아파트,전북특별자치도 익산시 궁동로 129,위탁관리,계단식,20030205,0638314162,400,28707.447,400.0,0.0,0.0,0.0,22561.04,15,15,0,14,54552,35.9628359546692,126.985198652
A57036012,익산5차부영아파트,5214013400,전북특별자치도,익산시,부송동,,전북특별자치도 익산시 부송동 1108 익산5차부영아파트,분양,개별난방,64740.0,6,727.0,(주)부영,(주)부영,0638365053,부송부영5차.ma-um.co.kr,아파트,전북특별자치도 익산시 하나로10길 97,위탁관리,혼합식,20010628,0638365054,727,40228.676,727.0,0.0,0.0,0.0,40228.676,15,15,1,2,54555,35.9625055149214,126.992455409073
A57077115,부송오투그란데,5214013400,전북특별자치도,익산시,부송동,,전북특별자치도 익산시 부송동 216-6 부송오투그란데,분양,개별난방,39797.688,4,214.0,제일건설,제일건설,0638380815,오투그란데의 행복나눔[부송동],아파트,전북특별자치도 익산시 선화로73길 38,자치관리,계단식,20070627,0638380816,214,24236.42,0.0,0.0,214.0,0.0,24237.4496,15,15,2,9,54557,35.9588442603802,126.997543080131
A57077116,부송우남콤비타운,5214013400,전북특별자치도,익산시,부송동,,전북특별자치도 익산시 부송동 216-2 부송우남콤비타운,분양,개별난방,99147.12,6,1075.0,(주)우남건설,(주)우남건설,0638336711,www.apartz.com/homepage/5709721,아파트,전북특별자치도 익산시 무왕로26길 11-5,위탁관리,혼합식,19951116,0638336712,1075,95212.6,865.0,120.0,90.0,0.0,67773.8,20,20,1,19,54558,35.9593663737705,126.999884713342
A57077117,송백마을 아파트,5214013400,전북특별자치도,익산시,부송동,,전북특별자치도 익산시 부송동 1205 송백마을 아파트,임대,개별난방,32190.422,7,514.0,제일건설,LH,0638389942,송백마을주공아파트.apti.co.kr,아파트,전북특별자치도 익산시 부송1로 123,위탁관리,혼합식,20051111,0638389943,514,31982.387,514.0,0.0,0.0,0.0,22144.5,15,15,0,14,54557,35.9594933924598,126.994073812898
A57077118,부송주공1차,5214013400,전북특별자치도,익산시,부송동,,전북특별자치도 익산시 부송동 1069 부송주공1차,임대,지역난방,77118.77,8,1724.0,한국토지주택공사,한국토지주택공사,0638310875,www.kohom.or.kr,아파트,전북특별자치도 익산시 무왕로22길 12,위탁관리,복도식,19930330,0638321555,1744,75394.414,1724.0,0.0,0.0,0.0,46856.64,15,15,0,16,54563,35.9574129555597,126.985452179749
A57077119,부송주공3단지,5214013400,전북특별자치도,익산시,부송동,,전북특별자치도 익산시 부송동 1071 부송주공3단지,임대,지역난방,31878.0,3,540.0,한국토지주택공사,한국토지주택공사,0638310143,www.kohom.or.kr,아파트,전북특별자치도 익산시 무왕로22길 28,위탁관리,복도식,19940908,0638351559,540,30623.4,540.0,0.0,0.0,0.0,21529.8,15,15,0,6,54564,35.9561096195053,126.986547486172
A57077120,부송하나리움,5214013400,전북특별자치도,익산시,부송동,,전북특별자치도 익산시 부송동 1210 부송하나리움,분양,개별난방,59653.836,4,396.0,문장건설,하나건설(주),0638310550,,아파트,전북특별자치도 익산시 궁동로 151-9,위탁관리,계단식,20121009,0638310440,404,44927.633,0.0,396.0,0.0,0.0,33523.7736,18,18,0,12,54551,35.9639000209275,126.986498495639
A57077121,부송동영무예다음,5214013400,전북특별자치도,익산시,부송동,,전북특별자치도 익산시 부송동 1207 부송동영무예다음,분양,개별난방,20936.729,2,180.0,영무건설,영무건설,0638311198,,아파트,전북특별자치도 익산시 선화로69길 30,위탁관리,계단식,20121019,0638310098,180,20936.729,0.0,180.0,0.0,0.0,15291.987,15,15,1,0,54559,35.9565963631145,126.99421624817
A57097201,오페라하우스,5214013400,전북특별자치도,익산시,부송동,,전북특별자치도 익산시 부송동 242-12 오페라하우스,분양,개별난방,41573.0,2,179.0,(유)한길종합개발,(유)KC,0638312008,부송오페라하우스.apti.co.kr,아파트,전북특별자치도 익산시 선화로69길 42,자치관리,계단식,20040326,0638330640,179,28200.621,0.0,0.0,0.0,179.0,28200.6215,15,15,1,0,54559,35.9571443452229,126.994830314176
A57097205,부송동아2차,5214013400,전북특별자치도,익산시,부송동,,전북특별자치도 익산시 부송동 231-26 부송동아2차,분양,개별난방,39217.957,5,416.0,(주)동아건설산업,(주)동아건설산업,0638332048,부송동아2차.ma-um.co.kr,아파트,전북특별자치도 익산시 무왕로26길 33,위탁관리,혼합식,19971025,0638340810,416,35244.56,284.0,132.0,0.0,0.0,26343.46,24,24,1,0,54558,35.9584723357073,126.998608151
A57097213,부송동아1차,5214013400,전북특별자치도,익산시,부송동,,전북특별자치도 익산시 부송동 231-4 부송동아1차,분양,개별난방,80604.41,9,834.0,동아건설산업(주),동아건설산업(주),0638332047,부송동아1차.ma-um.co.kr,아파트,전북특별자치도 익산시 무왕로26길 32,위탁관리,혼합식,19971025,0638332067,834,71760.95,498.0,292.0,44.0,0.0,54337.774,24,24,4,18,54559,35.9583159562191,126.997680662693
A57097302,부송제일까치샘,5214013400,전북특별자치도,익산시,부송동,,전북특별자치도 익산시 부송동 1084-1 부송제일까치샘,분양,개별난방,28193.64,2,179.0,제일건설(주),제일건설(주),0638362859,부송제일까치샘아파트.apti.co.kr,아파트,전북특별자치도 익산시 무왕로21길 18,위탁관리,계단식,20030915,0638360162,179,23358.61,0.0,0.0,179.0,0.0,19325.4108,15,15,0,6,54554,35.9607564112114,126.986530513405
A57097306,부송동리젠시빌,5214013400,전북특별자치도,익산시,부송동,,전북특별자치도 익산시 부송동 669 부송동리젠시빌,분양,개별난방,59911.0,5,440.0,리젠시빌산업(주),리젠시빌산업(주),0638388272,www.apartz.com/homepage/5709733/index.html,아파트,전북특별자치도 익산시 무왕로21길 64,위탁관리,계단식,20041029,0638388273,440,54140.527,0.0,320.0,90.0,30.0,43138.58,15,15,0,15,54551,35.9645365148404,126.986848039034
A57097307,부송푸른솔,5214013400,전북특별자치도,익산시,부송동,,전북특별자치도 익산시 부송동 1040 부송푸른솔,분양,개별난방,37969.0,5,496.0,익산시청,성원건설,0638311825,부송푸른솔.apti.co.kr/,아파트,전북특별자치도 익산시 부송로 52,자치관리,복도식,19930410,0638311826,496,36779.246,496.0,0.0,0.0,0.0,25765.2,12,12,1,10,54560,35.9562212045694,126.991630853025
A57097309,부송동신,5214013400,전북특별자치도,익산시,부송동,,전북특별자치도 익산시 부송동 1038 부송동신,분양,개별난방,56096.0,5,552.0,(주)동신,(주)동신,0638315124,,아파트,전북특별자치도 익산시 부송1로 83,자치관리,복도식,19931029,0638332655,552,40959.84,156.0,396.0,0.0,0.0,40959.94,15,15,1,10,54556,35.9581793386567,126.99176754731
A57097310,부송동삼성,5214013400,전북특별자치도,익산시,부송동,,전북특별자치도 익산시 부송동 1038-1 부송동삼성,분양,개별난방,57895.445,4,555.0,삼성건설(주),삼성건설(주),0638331609,,아파트,전북특별자치도 익산시 선화로69길 59,위탁관리,혼합식,19941215,0638320820,555,51255.406,315.0,240.0,0.0,0.0,39207.6,15,15,0,12,54556,35.9586835584793,126.992796086991
A57097311,부송우미아파트,5214013400,전북특별자치도,익산시,부송동,,전북특별자치도 익산시 부송동 1040-1 부송우미아파트,분양,개별난방,46695.0,4,648.0,(주)우미산업개발,(주)우미산업개발,0638318220,부송우미.ma-um.co.kr,아파트,전북특별자치도 익산시 선화로69길 45,위탁관리,복도식,19921222,0638330485,648,44848.08,648.0,0.0,0.0,0.0,32250.96,12,12,1,8,54560,35.956173162742,126.992944407999
A57097314,아름드리아파트,5214013400,전북특별자치도,익산시,부송동,,전북특별자치도 익산시 부송동 1075 아름드리아파트,분양,개별난방,66912.56,6,840.0,(주)한양,대한주택공사,0638311759,,아파트,전북특별자치도 익산시 무왕로22길 27,위탁관리,복도식,19940913,0638310332,840,66891.3,840.0,0.0,0.0,0.0,49341.6,15,15,1,11,54561,35.956297696233,126.988141784902
A10020251,북익산 오투그란데더원,5214025021,전북특별자치도,익산시,함열읍,와리,전북특별자치도 익산시 함열읍 와리 1559 북익산 오투그란데더원,분양,개별난방,45573.97,4,263.0,제일건설,(주)에버종합건설,0638627700,,아파트,전북특별자치도 익산시 함낭로 487-33,위탁관리,계단식,20260129,0638627701,263,28874.113,1.0,0.0,261.0,1.0,29312.3265,25,0,2,6,,36.0768367756717,126.960775963521
A57080101,함열휴먼시아1단지,5214025021,전북특별자치도,익산시,함열읍,와리,전북특별자치도 익산시 함열읍 와리 1539 함열휴먼시아1단지,임대,개별난방,33828.49,5,540.0,한부종합건설(주),한국토지주택공사,0638621941,,아파트,전북특별자치도 익산시 함열5길 28,위탁관리,혼합식,20101221,0638621942,540,33598.43,540.0,0.0,0.0,0.0,22734,15,15,1,12,54511,36.0759796155681,126.9633131042
A57080301,함열 제일,5214025021,전북특별자치도,익산시,함열읍,와리,전북특별자치도 익산시 함열읍 와리 163 함열 제일,분양,개별난방,31871.873,3,284.0,(주)제일건설,(주)제일건설,0638625850,함열제일.ma-um.co.kr,아파트,전북특별자치도 익산시 함열5길 19-21,위탁관리,계단식,20030404,0638620820,284,31427.44,0.0,284.0,0.0,0.0,24133.8372,15,15,0,11,54511,36.07465252696,126.962317035887
A57092101,장신휴먼시아2단지,5214031022,전북특별자치도,익산시,오산면,장신리,전북특별자치도 익산시 오산면 장신리 1127 장신휴먼시아2단지,임대,지역난방,40341.51,6,566.0,(벽산),한국토지주택공사,0638555356,,아파트,전북특별자치도 익산시 선화로4길 24-9,위탁관리,복도식,20101006,0638555357,566,39647.36,566.0,0.0,0.0,0.0,24174.04,15,15,0,12,54657,35.948976334046,126.932602052804
A57092102,장신휴먼시아3단지,5214031022,전북특별자치도,익산시,오산면,장신리,전북특별자치도 익산시 오산면 장신리 1126 장신휴먼시아3단지,임대,지역난방,44725.18,7,593.0,한국토지주택공사,한국토지주택공사,0638530226,장신휴먼시아3단지.apti.co.kr,아파트,전북특별자치도 익산시 선화로4길 14,위탁관리,복도식,20101014,0638531226,593,44421.625,593.0,0.0,0.0,0.0,25778.67,15,15,1,14,54657,35.9511314156818,126.932984508248
A57092103,장신휴먼시아1단지,5214031022,전북특별자치도,익산시,오산면,장신리,전북특별자치도 익산시 오산면 장신리 1130 장신휴먼시아1단지,임대,지역난방,54493.11,8,696.0,(주)삼환까뮤,한국토지주택공사,0638571130,,아파트,전북특별자치도 익산시 선화로4길 66,위탁관리,복도식,20101228,0638581130,696,53667.93,696.0,0.0,0.0,0.0,31250.88,15,15,0,16,54657,35.9455329145206,126.931249597745
A10021651,전북 익산시 황등면 대영아파트,5214032021,전북특별자치도,익산시,황등면,황등리,전북특별자치도 익산시 황등면 황등리 1038- 전북 익산시 황등면 대영아파트,분양,개별난방,7346560.0,1,111.0,(주)대영건설,(주)대영건설,0638586951,,아파트,전북특별자치도 익산시 황등3길 6,자치관리,복도식,19960215,,111,7293.5,111.0,0.0,0.0,0.0,4919.64,1,12,0,1,,35.9989758878959,126.944526502747
A10021743,황등오투,5214032021,전북특별자치도,익산시,황등면,황등리,전북특별자치도 익산시 황등면 황등리 1814- 황등오투,분양,개별난방,15674.0,1,120.0,(주)에버종합건설,(주)제일건설,0638576482,,주상복합,전북특별자치도 익산시 황등로 115-7,위탁관리,계단식,20240228,0638576483,120,13754.892,0.0,120.0,0.0,0.0,10182.924,22,22,2,3,,36.0018338595198,126.944288147756
A57081401,해담아파트,5214032021,전북특별자치도,익산시,황등면,황등리,전북특별자치도 익산시 황등면 황등리 1043-2 해담아파트,분양,개별난방,25504.0,2,424.0,영창건설,영창건설,0638560408,황등영창.ma-um.co.kr,아파트,전북특별자치도 익산시 황등3길 15,자치관리,복도식,19991223,0638560490,424,25428.57,424.0,0.0,0.0,0.0,19144.377,17,17,0,5,54533,35.9977569424852,126.94505626822
A10020630,익산제3일반산단행복주택,5214037027,전북특별자치도,익산시,낭산면,용기리,전북특별자치도 익산시 낭산면 용기리 1953-1 익산제3일반산단행복주택,임대,개별난방,11467.59,3,200.0,한림건설(주),한국토지주택공사,0638570991,,아파트,전북특별자치도 익산시 삼기북길 178,위탁관리,복도식,20250418,0638570992,200,10520.06,200.0,0.0,0.0,0.0,6820.3,10,10,0,4,,36.0377059668637,126.982044756185
A10025414,미륵산 더 테라스 오투그란데,5214040021,전북특별자치도,익산시,금마면,동고도리,전북특별자치도 익산시 금마면 동고도리 1180 미륵산 더 테라스 오투그란데,분양,개별난방,22642.379,12,134.0,(주)제일건설,(주)제일건설,0638346700,,연립주택,전북특별자치도 익산시 고도9길 42,위탁관리,계단식,20190618,0638348811,134,14320.627,0.0,134.0,0.0,0.0,11234.4632,4,4,2,0,54572,35.9998374204419,127.062358564176
A10023000,익산푸르지오 더 퍼스트아파트,5214041022,전북특별자치도,익산시,왕궁면,흥암리,전북특별자치도 익산시 왕궁면 흥암리 1437 익산푸르지오 더 퍼스트아파트,분양,개별난방,97657.0,11,674.0,(주)대우건설,(주)사성도시개발,0638330320,,아파트,전북특별자치도 익산시 왕궁면 국가식품로13길 40,위탁관리,계단식,20230919,0638330321,674,68487.54,199.0,475.0,0.0,0.0,51942.9228,22,22,2,21,54576,35.9698385077169,127.090533362027
A57095301,익산 더반포레아파트,5214042029,전북특별자치도,익산시,춘포면,쌍정리,전북특별자치도 익산시 춘포면 쌍정리 160-1 익산 더반포레아파트,분양,개별난방,49722.0,5,780.0,(유)고려건설,(유)제일종헙건설,0632914074,,아파트,전북특별자치도 익산시 궁성로 124,위탁관리,복도식,20030226,0632916033,780,46168.35,780.0,0.0,0.0,0.0,32175.9,15,15,0,11,54578,35.9251058968758,127.053681671122
