kaptCode,kaptName,bjdCode,as1,as2,as3,as4,kaptAddr,codeSaleNm,codeHeatNm,kaptTarea,kaptDongCnt,kaptdaCnt,kaptBcompany,kaptAcompany,kaptTel,kaptUrl,codeAptNm,doroJuso,codeMgrNm,codeHallNm,kaptUsedate,kaptFax,hoCnt,kaptMarea,kaptMparea60,kaptMparea85,kaptMparea135,kaptMparea136,privArea,kaptTopFloor,ktownFlrNo,kaptBaseFloor,kaptdEcntp,zipcode,위도,경도
A10022777,여수블루써밋,4613010200,전라남도,여수시,수정동,,전라남도 여수시 수정동 230 여수블루써밋,분양,개별난방,18536.63,1,272.0,샘코건설주식회사,(주)골든써밋,0618059205,,주상복합,전라남도 여수시 오동도로 80,위탁관리,복도식,20230825,0618059206,272,9392.53,272.0,0.0,0.0,0.0,5436.58,25,25,1,3,59745,34.7428280883568,127.750394419344
A10025802,여수수정 행복주택,4613010200,전라남도,여수시,수정동,,전라남도 여수시 수정동 167-1 여수수정 행복주택,임대,개별난방,9713.57,1,200.0,한솔공영,LH공사,0616611201,,아파트,전라남도 여수시 이순신광장로 260,위탁관리,복도식,20181205,0616611202,203,9591.126,200.0,0.0,0.0,0.0,5200.57,9,9,0,3,59745,34.7429202426092,127.749217973137
A10020410,더로제아델리움해양공원,4613010400,전라남도,여수시,관문동,,전라남도 여수시 관문동 232- 더로제아델리움해양공원,분양,개별난방,28085.436,2,184.0,(주)대유산업,(주)대유산업,0616667775,,주상복합,전라남도 여수시 하멜로 15,위탁관리,혼합식,20250917,,184,18781.633,0.0,184.0,0.0,0.0,13576.9482,29,29,3,4,,34.7411737289133,127.742013425553
A10024364,여수관문행복주택,4613010400,전라남도,여수시,관문동,,전라남도 여수시 관문동 251-2 여수관문행복주택,임대,개별난방,14115.42,1,200.0,(주)트래콘건설,한국토지주택공사,0616611256,,주상복합,전라남도 여수시 관문1길 14,위탁관리,복도식,20201218,0616621256,216,13310.224,200.0,0.0,0.0,0.0,6245.56,15,15,0,3,59741,34.741536419538,127.741826118375
A10025320,여수엑스포 골드클래스아파트,4613010400,전라남도,여수시,관문동,,전라남도 여수시 관문동 8-7 여수엑스포 골드클래스아파트,분양,개별난방,31864.693,5,286.0,보광종합건설(주),골드종합건설(주),0616644429,cafe.daum.net/goldclass-yeosu,아파트,전라남도 여수시 관문6길 10,위탁관리,계단식,20190830,0616644430,286,30770.914,0.0,286.0,0.0,0.0,23550.3367,18,18,1,14,59742,34.7434305693465,127.7423507225
A55005001,한신아파트,4613010500,전라남도,여수시,고소동,,전라남도 여수시 고소동 42 한신아파트,분양,개별난방,42713.57,5,433.0,한신공영,한국토지신탁,0616643344,,아파트,전라남도 여수시 고소5길 74,자치관리,계단식,19990205,0616661299,433,40489.58,239.0,194.0,0.0,0.0,30802.08,20,20,1,17,59739,34.738331272779,127.74171677628
A55005002,여수고소시영,4613010500,전라남도,여수시,고소동,,전라남도 여수시 고소동 51 여수고소시영,분양,개별난방,12211.51,3,130.0,엘씨안전연구소(주),엘씨안전연구소(주),0616644471,,아파트,,자치관리,계단식,19920229,0616644473,130,7546.1,130.0,0.0,0.0,0.0,6045.9,5,5,0,0,,34.7386390402421,127.742614043135
A10023351,메트하임,4613011100,전라남도,여수시,연등동,,전라남도 여수시 연등동 845 메트하임,분양,개별난방,18615.48,1,269.0,(주)대한종건,(주)에이치케이건설자산관리,0616425535,,주상복합,전라남도 여수시 좌수영로 101,관리방식미정,복도식,20221219,0616435535,275,10826.106,269.0,0.0,0.0,0.0,6899.96,20,20,2,1,59718,34.7491555451332,127.727602975597
A10020854,브리온 오션프랑 테라스,4613011200,전라남도,여수시,광무동,,전라남도 여수시 광무동 504- 브리온 오션프랑 테라스,분양,개별난방,31344.096,18,274.0,브리온건설(주),주식회사 해덕,0616412220,,다세대,전라남도 여수시 광무남2길 2-8,위탁관리,계단식,20250210,0616412221,274,29500.203,0.0,238.0,36.0,0.0,24156.5622,0,5,0,0,,34.743787326675,127.724768988697
A55015001,럭키광무아파트,4613011200,전라남도,여수시,광무동,,전라남도 여수시 광무동 928-14 럭키광무아파트,분양,개별난방,42867.0,5,400.0,럭키개발(주),럭키개발(주),0616429495,www.여수럭키광무apti.co.kr,아파트,전라남도 여수시 좌수영로 205,자치관리,계단식,19910226,0616420066,400,40392.0,0.0,400.0,0.0,0.0,33480.8,14,14,1,16,59717,34.754420022811,127.723371315425
A10023097,중해마루힐아너스,4613011300,전라남도,여수시,서교동,,전라남도 여수시 서교동 30 중해마루힐아너스,임대,개별난방,40383.9,3,230.0,(주)중해건설,(주)에스케이마루힐,0618102727,,주상복합,전라남도 여수시 좌수영로 54,자치관리(직영),계단식,20230714,0618102728,248,25789.852,0.0,230.0,0.0,0.0,19548.5964,31,31,3,0,59752,34.7452869888397,127.72889062377
A10023194,여수서교LH1단지행복주택,4613011300,전라남도,여수시,서교동,,전라남도 여수시 서교동 153-4 여수서교LH1단지행복주택,임대,개별난방,16646.0,1,200.0,"(유)신호건설산업(60%),(주)유탑엔지니어링(40%)",한국토지주택공사,0616430677,,주상복합,,위탁관리,복도식,20230504,0616440677,200,15651.72,200.0,0.0,0.0,0.0,5395.8,23,23,1,2,59752,34.7438803276745,127.728911246475
A55016001,해태동백,4613011400,전라남도,여수시,봉강동,,전라남도 여수시 봉강동 471 해태동백,분양,개별난방,49022.848,4,408.0,해태제과(주),해태제과(주),0616426955,,아파트,전라남도 여수시 봉강서1길 38,자치관리,계단식,20000421,0616426956,408,41318.75,178.0,162.0,68.0,0.0,32360.41,19,19,3,12,59749,34.7413692487694,127.720651101515
A55018001,국동대주아파트,4613011700,전라남도,여수시,국동,,전라남도 여수시 국동 543 국동대주아파트,분양,개별난방,25289.0,2,252.0,대주건설,대주건설,0616429834,,아파트,전라남도 여수시 신월로 686,자치관리,계단식,19940408,0616429835,252,24026.94,90.0,162.0,0.0,0.0,19127.52,18,18,1,0,59761,34.7316759087961,127.718817587259
A55018002,국동경남아파트,4613011700,전라남도,여수시,국동,,전라남도 여수시 국동 1104 국동경남아파트,분양,개별난방,25426.0,12,357.0,경남기업,경남기업,0616424930,,아파트,전라남도 여수시 구봉길 29,자치관리,계단식,19960217,0616434931,357,24237.807,357.0,0.0,0.0,0.0,19991.322,6,6,0,0,59759,34.7299293718289,127.711615406672
A55018003,구봉아파트,4613011700,전라남도,여수시,국동,,전라남도 여수시 국동 1103 구봉아파트,분양,개별난방,20298.14,6,370.0,경남기업,여수시,0616431074,,아파트,전라남도 여수시 구봉길 41,자치관리,계단식,19910911,0616431073,370,19468.3,370.0,0.0,0.0,0.0,15777.9,5,5,0,0,59759,34.7292258749791,127.710851218725
A55018004,중앙,4613011700,전라남도,여수시,국동,,전라남도 여수시 국동 800 중앙,분양,개별난방,38150.0,7,400.0,중앙공영(주),중앙공영(주),0616411441,,아파트,전라남도 여수시 구봉산길 52,자치관리,계단식,19890504,0616421441,400,25938.0,360.0,40.0,0.0,0.0,20468.8,5,5,1,0,59756,34.737593354154,127.716041065865
A55018005,국동주공,4613011700,전라남도,여수시,국동,,전라남도 여수시 국동 1010 국동주공,분양,개별난방,28887.0,13,580.0,대한주택공사,대한주택공사,0616428656,,아파트,전라남도 여수시 신월로 641,자치관리,계단식,19810811,0616428655,587,28886.9,580.0,0.0,0.0,0.0,28886.9,5,5,0,0,59758,34.7301423459248,127.713007240663
A55075201,국동서희스타힐스,4613011700,전라남도,여수시,국동,,전라남도 여수시 국동 438 국동서희스타힐스,분양,개별난방,141236.1,13,1008.0,서희건설,재건축조합,0616411168,,아파트,전라남도 여수시 신월로 655,자치관리,계단식,20130128,0616411167,1008,104885.94,359.0,496.0,153.0,0.0,82636.022,23,23,2,27,59758,34.7303579130105,127.71483015943
A55075606,국동라인아파트,4613011700,전라남도,여수시,국동,,전라남도 여수시 국동 857 국동라인아파트,분양,개별난방,60141.42,4,715.0,1차(주)라인주택,2차(주)라인건설,0616432323,,아파트,전라남도 여수시 구봉길 79,자치관리,복도식,19960624,0616432123,715,58537.05,715.0,0.0,0.0,0.0,42864.25,15,15,1,8,59748,34.7346242262632,127.713031758711
A10022298,금성휴먼터치빌,4613011800,전라남도,여수시,신월동,,전라남도 여수시 신월동 114-7 금성휴먼터치빌,분양,개별난방,15788.0,2,106.0,금성건설(주),금성건설(주),0616426462,,아파트,전라남도 여수시 신월5길 22,자치관리,계단식,20030324,0616436463,106,11731.825,0.0,106.0,0.0,0.0,9004.0852,11,11,1,0,,34.7223797206487,127.706128096947
A10023553,경도비전 지에이그린웰,4613011800,전라남도,여수시,신월동,,전라남도 여수시 신월동 1806 경도비전 지에이그린웰,분양,개별난방,57704.79,4,391.0,(주)지에이건설,(주)세일산업외,0616411480,,아파트,전라남도 여수시 신월3길 18-5,위탁관리,계단식,20220923,0616421480,391,42847.895,0.0,391.0,0.0,0.0,33227.1564,24,24,3,14,59760,34.7267513821052,127.709594024035
A55019001,신월대주아파트,4613011800,전라남도,여수시,신월동,,전라남도 여수시 신월동 1-4 신월대주아파트,분양,개별난방,31833.0,4,292.0,대주건설(주),대주건설(주),0616437780,,아파트,전라남도 여수시 신월2길 35,자치관리,계단식,19850621,0616417781,292,25363.2,0.0,240.0,52.0,0.0,25363.2,15,15,0,11,59760,34.728275714803,127.71280942538
A55019002,신월코아루,4613011800,전라남도,여수시,신월동,,전라남도 여수시 신월동 51 신월코아루,분양,개별난방,59993.0,6,420.0,새롬성원,한국토지신탁,0616417076,cafe.daum.net/zdkfn,아파트,전라남도 여수시 신월2길 11,위탁관리,계단식,20060420,0616417077,420,50776.62,0.0,330.0,90.0,0.0,39117.576,15,15,1,16,59760,34.727266460168,127.711043958643
A55019003,신월금호타운,4613011800,전라남도,여수시,신월동,,전라남도 여수시 신월동 60 신월금호타운,분양,개별난방,127900.0,16,1188.0,금호건설(주),금호건설(주),0616436934,,아파트,전라남도 여수시 신월로 561-8,자치관리,계단식,19920720,0616436933,1188,125392.32,48.0,1020.0,120.0,0.0,102212.64,15,15,1,40,59760,34.7264553281637,127.707957752014
A55026001,여서현대산업3차아파트,4613011900,전라남도,여수시,여서동,,전라남도 여수시 여서동 484 여서현대산업3차아파트,분양,개별난방,22537.46,1,241.0,(주) 오현건축,(주)오현건축,0616526446,,아파트,전라남도 여수시 여문2로 197,자치관리,혼합식,19940520,0616517099,241,22537.32,121.0,120.0,0.0,0.0,17430.475,15,15,1,5,59710,34.7493742272411,127.704904865025
A55026003,현대산업1.2차아파트,4613011900,전라남도,여수시,여서동,,전라남도 여수시 여서동 480-4 현대산업1.2차아파트,분양,개별난방,37973.0,3,382.0,현대산업개발(주),현대산업개발(주),0616530829,,아파트,전라남도 여수시 여문2로 191,자치관리,계단식,19910603,0616530724,382,36476.48,0.0,382.0,0.0,0.0,29798.66,15,15,1,14,59710,34.7504590573003,127.703455258102
A55026004,경남2단지아파트,4613011900,전라남도,여수시,여서동,,전라남도 여수시 여서동 43-3 경남2단지아파트,분양,개별난방,63541.0,6,660.0,경남기업(주),경남,0616524766,,아파트,전라남도 여수시 장군산길 10,자치관리,혼합식,19920222,0619204766,660,61587.055,120.0,510.0,0.0,30.0,49741.8,15,15,0,18,59720,34.7538866278264,127.710332168294
A55026005,여서경남아파트1단지,4613011900,전라남도,여수시,여서동,,전라남도 여수시 여서동 43-12 여서경남아파트1단지,분양,개별난방,66639.0,6,570.0,경남건설,경남건설,0616514353,,아파트,전라남도 여수시 여서로 302,자치관리,계단식,19891211,0616514413,570,60158.4,30.0,450.0,90.0,0.0,49409.4,15,15,1,18,59720,34.7530382057874,127.710630590725
A55026006,여서금호아파트,4613011900,전라남도,여수시,여서동,,전라남도 여수시 여서동 238 여서금호아파트,분양,개별난방,82513.29,9,750.0,금호건설,금호건설,0616515077,,아파트,전라남도 여수시 여서2로 19,자치관리,계단식,19891226,0616533140,750,80835.0,0.0,570.0,180.0,0.0,67023.3,15,15,1,25,59709,34.7515970022201,127.704277985363
A55026007,여서주공아파트,4613011900,전라남도,여수시,여서동,,전라남도 여수시 여서동 241 여서주공아파트,분양,개별난방,45322.0,23,810.0,대한주택공사,대한주택공사,0616512005,,아파트,전라남도 여수시 여서2로 39,자치관리,계단식,19890427,0616511139,810,44918.99,810.0,0.0,0.0,0.0,36245.4,5,5,1,0,59712,34.7518992706015,127.706202786186
A55077501,현대건설아파트,4613011900,전라남도,여수시,여서동,,전라남도 여수시 여서동 489-1 현대건설아파트,분양,개별난방,122105.41,13,1102.0,성화양행(주),성화양행(주),0616521216,,아파트,전라남도 여수시 여서로 134,자치관리,계단식,19910429,0616531216,1102,113544.4,90.0,922.0,45.0,45.0,90963.62,15,15,1,37,59705,34.7480301166149,127.697065842711
A55077502,여서부영5단지임대,4613011900,전라남도,여수시,여서동,,전라남도 여수시 여서동 243 여서부영5단지임대,임대,개별난방,30883.33,7,370.0,동광주택,동광주택,0616512446,,아파트,전라남도 여수시 여서2로 55,위탁관리,복도식,19890309,0616532447,370,29355.355,370.0,0.0,0.0,0.0,22200,5,5,0,0,59712,34.7532587758737,127.70795358403
A55077503,여수부영6차,4613011900,전라남도,여수시,여서동,,전라남도 여수시 여서동 479 여수부영6차,임대,개별난방,127513.0,9,1530.0,부영주택(주),부영주택(주),0616516067,,아파트,전라남도 여수시 여서1로 8,위탁관리,복도식,19900723,0616512444,1530,121826.25,1530.0,0.0,0.0,0.0,91800,15,15,1,17,59707,34.7490531202355,127.700818087205
A55077602,여수여서부영5단지아파트,4613011900,전라남도,여수시,여서동,,전라남도 여수시 여서동 242 여수여서부영5단지아파트,분양,개별난방,19734.7,1,166.0,부영건설,부영건설,0619214789,,아파트,전라남도 여수시 여서동1길 27,위탁관리,복도식,19890909,0616550618,166,18419.918,0.0,166.0,0.0,0.0,13915.04,12,12,1,2,59712,34.7536034897967,127.707050269043
A55077808,여수부영7차아파트,4613011900,전라남도,여수시,여서동,,전라남도 여수시 여서동 496-1 여수부영7차아파트,임대,개별난방,102477.06,8,1280.0,(주)부영주택,(주)부영주택,0616512459,,아파트,전라남도 여수시 여서로 188,위탁관리,복도식,19920814,0616540909,1280,96892.37,1280.0,0.0,0.0,0.0,70450,15,15,0,17,59721,34.7485691658123,127.703989638736
A10024539,문수대성베르힐아파트,4613012000,전라남도,여수시,문수동,,전라남도 여수시 문수동 929 문수대성베르힐아파트,분양,개별난방,1082713860.0,10,722.0,디에스종합건설(주),디에스종합간설(주),0616550878,,아파트,전라남도 여수시 여문2로 128-38,위탁관리,계단식,20201028,0616550879,722,81440.93,0.0,722.0,0.0,0.0,60799.6542,15,15,15,26,59703,34.7521025328844,127.697129766198
A55020001,세종캐슬하임,4613012000,전라남도,여수시,문수동,,전라남도 여수시 문수동 640-1 세종캐슬하임,분양,개별난방,39832.0,4,180.0,세종건설,지디비개발,0616550655,,아파트,전라남도 여수시 여문2로 110,자치관리,계단식,20060503,0616550656,180,31206.6,0.0,0.0,0.0,180.0,26744.75,10,10,2,0,59703,34.7542565637489,127.697938693324
A55020003,문수그린(구.부영2차),4613012000,전라남도,여수시,문수동,,전라남도 여수시 문수동 8-8 문수그린(구.부영2차),분양,개별난방,53678.574,4,483.0,(주)부영주택,(주)부영주택,0616532550,문수그린아파트.apti.co.kr/aptHome/intro.asp,아파트,전라남도 여수시 문수북5길 16,자치관리,혼합식,20020325,0616534171,483,43160.72,240.0,243.0,0.0,0.0,32594.8776,15,15,0,13,59714,34.7567475615175,127.711120648998
A55020004,문수흥화,4613012000,전라남도,여수시,문수동,,전라남도 여수시 문수동 675-1 문수흥화,분양,개별난방,76221.0,6,700.0,흥화공업(주),흥화공업(주),0616533824,문수흥화.ma-um.co.kr,아파트,전라남도 여수시 허문정1길 16-1,위탁관리,계단식,19911026,0616543824,700,73699.15,0.0,646.0,0.0,54.0,61194.6,15,15,1,25,59704,34.751164053078,127.698048642415
A55020005,문수원앙,4613012000,전라남도,여수시,문수동,,전라남도 여수시 문수동 310-1 문수원앙,분양,개별난방,80302.39,7,780.0,주식회사 부영,주식회사 부영,0616512456,문수원앙.ma-um.co.kr,아파트,전라남도 여수시 여문1로 90,자치관리,계단식,19940430,0616541789,780,76562.7,0.0,780.0,0.0,0.0,61661.7,15,15,0,26,59701,34.7570242374781,127.703354315896
A55076301,피오레,4613012000,전라남도,여수시,문수동,,전라남도 여수시 문수동 928 피오레,분양,개별난방,57215.0,9,299.0,(주)해광건설,미래알주식회사,0616548787,,아파트,전라남도 여수시 문수1길 26,위탁관리,계단식,20090831,0616548786,299,43996.7,0.0,82.0,197.0,20.0,33982.5712,11,11,2,10,59700,34.7574604455178,127.703896355548
A55076302,여수부영10차,4613012000,전라남도,여수시,문수동,,전라남도 여수시 문수동 480 여수부영10차,임대,개별난방,32133.244,2,396.0,동광주택,동광주택,0616533390,,아파트,전라남도 여수시 여문2로 62,위탁관리,복도식,19990227,0616533490,396,30286.57,396.0,0.0,0.0,0.0,22328.31,15,15,1,4,59703,34.7534467979679,127.693480872082
A55076303,여수부영9차,4613012000,전라남도,여수시,문수동,,전라남도 여수시 문수동 450-1 여수부영9차,임대,개별난방,127785.68,10,1910.0,부영주택,부영주택,0616510193,,아파트,전라남도 여수시 여문2로 61,위탁관리,복도식,19951201,0616528888,1910,127785.68,1910.0,0.0,0.0,0.0,92524.84,15,15,1,31,59703,34.7549334158715,127.692048812823
A55076606,여수문수1,4613012000,전라남도,여수시,문수동,,전라남도 여수시 문수동 797 여수문수1,임대,개별난방,57509.25,7,1403.0,미도파,대한주택공사,0616531954,www.kohom.co.kr,아파트,전라남도 여수시 여문2로 11,위탁관리,복도식,19930610,0616525651,1403,38180.16,1403.0,0.0,0.0,0.0,38180.16,15,15,0,14,59704,34.7489466384194,127.692740829928
A55081702,문수코아루,4613012000,전라남도,여수시,문수동,,전라남도 여수시 문수동 787 문수코아루,분양,개별난방,54920.0,6,277.0,41780117260 문수코아루수아파트입주자대표회의,(주)토지신탁,0616513644,문수코아루.ma-um.co.kr,아파트,전라남도 여수시 여문2로 54-26,위탁관리,계단식,20080326,0616513645,277,49186.63,0.0,0.0,118.0,159.0,40190.3458,15,15,1,10,59703,34.7519851779528,127.694162039654
A55021001,여수부영3차,4613012100,전라남도,여수시,오림동,,전라남도 여수시 오림동 409-2 여수부영3차,분양,개별난방,38286.62,13,570.0,부영주택 흥산(주),부영주택 흥산(주),0616523445,,아파트,전라남도 여수시 장군산길 42,자치관리,계단식,19870114,0616553445,570,36099.164,570.0,0.0,0.0,0.0,32934.6,5,5,0,0,59716,34.7560315161223,127.715210695397
A10023101,미평 해광샹그릴라 힐즈파크,4613012200,전라남도,여수시,미평동,,전라남도 여수시 미평동 937 미평 해광샹그릴라 힐즈파크,분양,개별난방,43686.91,6,282.0,(주)해광건설,(주)해광건설,0616550019,,아파트,전라남도 여수시 미평로 70-3,위탁관리,계단식,20230630,0616550018,282,30832.287,0.0,282.0,0.0,0.0,23937.7493,9,9,2,0,59630,34.7686372497119,127.709617319445
A55024001,선경1차,4613012200,전라남도,여수시,미평동,,전라남도 여수시 미평동 746 선경1차,분양,개별난방,33727.06,6,360.0,선경건설(주),선경건설,0616529246,,아파트,전라남도 여수시 대학로 46,위탁관리,혼합식,19940328,0616526710,360,32640.0,200.0,120.0,40.0,0.0,26315.6,10,10,0,14,59627,34.7736892945772,127.702872588971
A55024002,선경2차,4613012200,전라남도,여수시,미평동,,전라남도 여수시 미평동 741 선경2차,분양,개별난방,36191.04,4,390.0,SK건설(주),(주)신한,0616529279,,아파트,전라남도 여수시 양지6길 2,위탁관리,계단식,19950429,0616529280,390,34539.93,240.0,150.0,0.0,0.0,26974.5,15,15,1,13,59627,34.7726490844614,127.703871498621
A55024004,미평주공2차아파트,4613012200,전라남도,여수시,미평동,,전라남도 여수시 미평동 284 미평주공2차아파트,분양,개별난방,53792.62,5,990.0,대한주택공사,대한주택공사,0616530371,,아파트,전라남도 여수시 미평로 77,위탁관리,복도식,19920530,0616536112,990,52520.1,990.0,0.0,0.0,0.0,40332.6,15,15,0,11,59629,34.7711404701719,127.70917536348
A55024005,여수미평1관리소,4613012200,전라남도,여수시,미평동,,전라남도 여수시 미평동 284 여수미평1관리소,임대,중앙난방,25556.49,3,537.0,한국토지주택공사,한국토지주택공사,0616524568,www.kohom.co.kr,아파트,전라남도 여수시 미평로 77,위탁관리,복도식,19920425,0616539580,537,22378.14,537.0,0.0,0.0,0.0,15343.74,15,15,0,6,59629,34.7711404701719,127.70917536348
A55076903,선경아파트3차,4613012200,전라남도,여수시,미평동,,전라남도 여수시 미평동 807 선경아파트3차,분양,개별난방,89988.266,14,976.0,SK건설(주),SK건설(주),0616526232,,아파트,전라남도 여수시 양지1길 5,위탁관리,계단식,19950429,0616526234,976,87051.53,699.0,181.0,96.0,0.0,68253.599,15,15,0,41,59628,34.7708235880098,127.701856422032
A10026294,여도아파트,4613012300,전라남도,여수시,둔덕동,,전라남도 여수시 둔덕동 53-48 여도아파트,분양,개별난방,967765.0,1,97.0,우진,우진,0616540448,,아파트,전라남도 여수시 상암로 72,자치관리,복도식,20010111,0616540448,97,737588.0,97.0,0.0,0.0,0.0,4576.46,15,15,2,2,59625,34.7862169129478,127.702236013439
A55025001,여수신원아르시스,4613012300,전라남도,여수시,둔덕동,,전라남도 여수시 둔덕동 464-3 여수신원아르시스,분양,개별난방,27364.0,4,234.0,(주)신한주택개발,(주)신한주택개발,0616542288,,아파트,전라남도 여수시 둔덕1길 14,위탁관리,계단식,20080603,0616542289,234,26687.42,0.0,234.0,0.0,0.0,19868.0908,12,12,0,10,59696,34.7651553230755,127.700170547298
A55025002,둔덕주공,4613012300,전라남도,여수시,둔덕동,,전라남도 여수시 둔덕동 464 둔덕주공,분양,개별난방,25326.0,13,420.0,대한주택공사,대한주택공사,0616513279,,아파트,전라남도 여수시 좌수영로 435,자치관리,계단식,19841105,0616540786,430,24149.4,420.0,0.0,0.0,0.0,22685.52,5,5,0,0,59696,34.7659993442307,127.700632728003
A55025003,라온유,4613012300,전라남도,여수시,둔덕동,,전라남도 여수시 둔덕동 266 라온유,분양,개별난방,112251.945,12,810.0,라온건설,라온건설,0616528403,"cafe,daum.net/RAON",아파트,전라남도 여수시 상암로 16,자치관리,계단식,20060530,0616528404,810,90987.6,0.0,660.0,150.0,0.0,71024.055,15,15,0,0,59625,34.7844196567724,127.69666223571
A55025004,여수중앙하이츠,4613012300,전라남도,여수시,둔덕동,,전라남도 여수시 둔덕동 583 여수중앙하이츠,분양,개별난방,86109.0,8,915.0,중앙건설,중앙건설,0616520310,,아파트,전라남도 여수시 쌍봉로 366,자치관리,혼합식,19900927,0616524526,915,86107.05,195.0,720.0,0.0,0.0,69945.6,15,15,0,26,59695,34.7674329743096,127.693744644678
A55025005,한려아파트,4613012300,전라남도,여수시,둔덕동,,전라남도 여수시 둔덕동 648 한려아파트,분양,개별난방,93031.0,13,1026.0,"화성건설,중앙건설",LH,0616519990,,아파트,전라남도 여수시 쌍봉로 316,자치관리,계단식,19950507,0616527782,1026,87163.56,756.0,270.0,0.0,0.0,68272.69,18,18,1,33,59695,34.7659743501716,127.689187147712
A10025908,여수엑스포시티프라디움,4613012600,전라남도,여수시,덕충동,,전라남도 여수시 덕충동 2033 여수엑스포시티프라디움,분양,개별난방,56473.8,10,352.0,시티건설(주),시티건설산업(주),0616611542,,아파트,전라남도 여수시 박람회길 70,위탁관리,계단식,20180515,0616611543,352,38980.906,0.0,352.0,0.0,0.0,29918.1544,20,20,2,0,59723,34.7548205775638,127.74412396429
A10026323,동성노블힐스2차,4613012600,전라남도,여수시,덕충동,,전라남도 여수시 덕충동 2040 동성노블힐스2차,분양,개별난방,11639.257,1,52.0,동성종합건설(주),(주)동성노블리,0616612088,,아파트,전라남도 여수시 박람회길 56,위탁관리,계단식,20171229,0616612073,66,9041.513,0.0,52.0,0.0,0.0,4257.7236,15,15,2,0,59723,34.7537628757695,127.742752033693
A10026429,동성노블힐스1차,4613012600,전라남도,여수시,덕충동,,전라남도 여수시 덕충동 2041 동성노블힐스1차,분양,개별난방,16278.896,4,99.0,동성노블리,동성종합건설,0616655466,,주상복합,전라남도 여수시 박람회길 46,위탁관리,계단식,20171019,0616655467,99,9845.525,0.0,99.0,0.0,0.0,7211.5363,15,15,2,0,59723,34.7533258137106,127.743087991811
A55001001,귀인그린파크,4613012600,전라남도,여수시,덕충동,,전라남도 여수시 덕충동 1797 귀인그린파크,분양,개별난방,21820.26,1,242.0,영광건설(주),.,0616633258,미사용,아파트,전라남도 여수시 덕충2길 37,자치관리,계단식,19971001,0616633257,242,15523.68,196.0,46.0,0.0,0.0,15523.68,18,18,1,8,59725,34.7551916425709,127.737328724523
A55075901,엑스포힐스테이트1단지,4613012600,전라남도,여수시,덕충동,,전라남도 여수시 덕충동 2038 엑스포힐스테이트1단지,분양,개별난방,182768.0,19,1080.0,한국토지주택공사,현대건설(주),0616631300,,아파트,전라남도 여수시 박람회길 61,위탁관리,계단식,20121121,0616631500,1080,181879.56,0.0,554.0,516.0,10.0,104388.84,15,15,0,42,59723,34.754882643641,127.742092133929
A55075902,엑스포힐스테이트2단지,4613012600,전라남도,여수시,덕충동,,전라남도 여수시 덕충동 2020 엑스포힐스테이트2단지,분양,개별난방,43639.01,5,362.0,(주)현대건설,한국토지주택공사,0616626033,,아파트,전라남도 여수시 박람회길 81,위탁관리,계단식,20121121,0616626034,362,43635.84,322.0,40.0,0.0,0.0,21711.68,15,15,2,15,59723,34.7567227773087,127.743446732833
A10020412,쌍용더플래티넘여수35아파트,4613012800,전라남도,여수시,학동,,전라남도 여수시 학동 74- 쌍용더플래티넘여수35아파트,분양,개별난방,39099.297,2,244.0,쌍용건설(주),(주)제이비플러스,0616919995,,주상복합,전라남도 여수시 거북선공원1길 17-3,위탁관리,계단식,20250924,0616919996,244,27519.316,0.0,242.0,0.0,2.0,20916.34,35,35,5,0,,34.7620026757234,127.664100604913
A10023997,e-편한세상 여수 더퍼스트아파트,4613012800,전라남도,여수시,학동,,전라남도 여수시 학동 1 e-편한세상 여수 더퍼스트아파트,분양,개별난방,85880.85,9,821.0,DL 이앤씨,장미아파트 지역주택조합,0616847666,,아파트,전라남도 여수시 학동북4길 7,위탁관리,계단식,20211214,0616847665,821,84365.31,106.0,715.0,0.0,0.0,64624.5851,25,25,3,1,59671,34.7669528814609,127.657456464384
A10027290,센트럴파크,4613012800,전라남도,여수시,학동,,전라남도 여수시 학동 175-9 센트럴파크,분양,개별난방,11087.825,1,208.0,제이앤케이,"제이앤케이, 성진건설",0616867566,,주상복합,전라남도 여수시 시청동1길 29,자치관리,복도식,20140324,0616857566,208,9558.804,208.0,0.0,0.0,0.0,5588.76,15,15,0,2,59689,34.7582908352235,127.663087024441
A55570501,프라임시티,4613012800,전라남도,여수시,학동,,전라남도 여수시 학동 39-13 프라임시티,분양,개별난방,16121.0,1,297.0,엑스포종합건설(주),(주)여수로얄팰리스2,0616926320,,주상복합,전라남도 여수시 학동2길 22,위탁관리,복도식,20131219,0616926319,297,14162.143,297.0,0.0,0.0,0.0,7773.9904,13,13,1,0,59677,34.765372619393,127.665458013045
A55580804,신동아파밀리에아파트,4613012800,전라남도,여수시,학동,,전라남도 여수시 학동 54 신동아파밀리에아파트,분양,개별난방,243831.1,20,1830.0,신동아건설,신동아건설,0616836000,,아파트,전라남도 여수시 무선로 50,위탁관리,계단식,20080627,0616836004,1830,197059.9,472.0,1198.0,160.0,0.0,149600.9352,22,22,2,44,59672,34.7662980609002,127.656596320732
A55580901,여천부영1차,4613012800,전라남도,여수시,학동,,전라남도 여수시 학동 111 여천부영1차,분양,개별난방,50531.387,5,416.0,(주)부영주택,(주)부영주택,0616923471,,아파트,전라남도 여수시 소호로 658,자치관리,계단식,20050224,0616922460,416,41773.953,60.0,356.0,0.0,0.0,33796.7776,15,15,1,14,59674,34.7607429688414,127.656839266191
A10020334,여수원더라움더힐,4613012900,전라남도,여수시,학용동,,전라남도 여수시 학용동 73-3 여수원더라움더힐,임대,개별난방,26746.834,3,172.0,우평건설주식회사,대한토지신탁,0616857303,,아파트,전라남도 여수시 쌍봉로 221,위탁관리,계단식,20250917,0616857304,172,18881.205,0.0,172.0,0.0,0.0,14577.6104,19,19,2,6,,34.7655485239519,127.679776517562
A10022178,LG화학 여수 안산사택,4613013000,전라남도,여수시,안산동,,전라남도 여수시 안산동 28- LG화학 여수 안산사택,사택 및 관사 등,개별난방,147940992.0,9,200.0,대명종합건설,LG화학,0616814539,LG화학,아파트,전라남도 여수시 소호로 619,위탁관리,계단식,19780101,0616814539,200,2565.2,40.0,152.0,8.0,0.0,12826.32,4,4,1,0,,34.7569690182333,127.65329930565
A10022244,LG화학 도원사택,4613013000,전라남도,여수시,안산동,,전라남도 여수시 안산동 435 LG화학 도원사택,사택 및 관사 등,개별난방,20067.0,4,204.0,lg건설,lg화학,0616813137,,아파트,전라남도 여수시 안산1길 179,위탁관리,복도식,19891001,0616813137,204,13226.4,156.0,48.0,0.0,0.0,13226.4,10,0,0,4,,34.7599561697305,127.648763005944
A55505001,모아미래도 아파트,4613013000,전라남도,여수시,안산동,,전라남도 여수시 안산동 658 모아미래도 아파트,분양,개별난방,39747.34,4,299.0,모아건설산업(주),(주)모아주택산업,0616913600,,아파트,전라남도 여수시 안산1길 134,자치관리,계단식,20041002,0616922121,299,33507.766,0.0,299.0,0.0,0.0,25397.6281,15,15,0,11,59662,34.7565012251087,127.652048677427
A55570901,우미린아파트,4613013000,전라남도,여수시,안산동,,전라남도 여수시 안산동 727 우미린아파트,분양,개별난방,34568.0,4,240.0,우미건설,우미건설,0616919700,,아파트,전라남도 여수시 장성1길 37,자치관리,계단식,20060620,0616919701,240,32732.215,0.0,120.0,120.0,0.0,24087.084,15,15,1,8,59663,34.7540016097474,127.6523245637
A55570902,여천부영2차아파트,4613013000,전라남도,여수시,안산동,,전라남도 여수시 안산동 441-1 여천부영2차아파트,혼합,개별난방,71225.78,6,876.0,부영주택,부영주택,0616815456,,아파트,전라남도 여수시 소호로 659,위탁관리,복도식,19881208,0616824076,876,67324.695,768.0,108.0,0.0,0.0,50931.36,12,12,1,7,59662,34.7606595454763,127.65565997355
A55570903,여천부영5차,4613013000,전라남도,여수시,안산동,,전라남도 여수시 안산동 440 여천부영5차,분양,개별난방,92307.02,6,784.0,(주)부영주택,(주)부영주택,0616920528,,아파트,전라남도 여수시 도원로 204,자치관리,계단식,20041213,0616920538,784,77008.15,222.0,562.0,0.0,0.0,60988.5392,19,19,0,21,59662,34.7594448720389,127.65331946342
A10022116,LG소호사택,4613013100,전라남도,여수시,소호동,,전라남도 여수시 소호동 352-2 LG소호사택,사택 및 관사 등,개별난방,28614.0,4,284.0,엘지,엘지,0616812749,,아파트,전라남도 여수시 소호5길 32,위탁관리,복도식,19910831,0610000000,284,16869.6,284.0,0.0,0.0,0.0,16869.6,12,0,1,0,,34.7454284746889,127.648630398791
A10023189,여수금호어울림오션테라스,4613013100,전라남도,여수시,소호동,,전라남도 여수시 소호동 945 여수금호어울림오션테라스,분양,개별난방,30387.0,10,162.0,(주)금호건설,(주)에이치피개발,0613810307,https://xn--jj0b82pmxbw4mm1aeyy0nzmamqv1cg67d3lm.apti.co.kr/,연립주택,전라남도 여수시 소호로 273,위탁관리,계단식,20230601,0616810308,162,19406.607,0.0,90.0,72.0,0.0,14490.8262,4,4,2,22,59670,34.7294398795544,127.64323729765
A55506001,우미오션빌,4613013100,전라남도,여수시,소호동,,전라남도 여수시 소호동 427 우미오션빌,분양,개별난방,32649.797,3,239.0,우미건설,우미건설,0616914713,,아파트,전라남도 여수시 소호7길 28,자치관리,계단식,20020612,0616914713,239,28853.613,0.0,149.0,90.0,0.0,23437.767,15,15,1,8,59669,34.7412194680655,127.647072112931
A55506002,프레지던트,4613013100,전라남도,여수시,소호동,,전라남도 여수시 소호동 424 프레지던트,분양,개별난방,74574.36,10,466.0,금호건설,케이비부동산신탁(주),0616919865,,아파트,전라남도 여수시 소호7길 36,자치관리(직영),계단식,20020629,0616921002,466,61871.05,0.0,325.0,111.0,30.0,47314.85,15,15,2,18,59668,34.7411651924064,127.645562464014
A55506003,소호금호아파트,4613013100,전라남도,여수시,소호동,,전라남도 여수시 소호동 353 소호금호아파트,분양,개별난방,62670.035,5,560.0,금호건설(주),금호건설(주),0616852474,,아파트,전라남도 여수시 소호5길 12,자치관리,계단식,19920116,0616821730,560,60192.098,0.0,512.0,24.0,24.0,48611.1,15,15,0,20,59666,34.7441823977216,127.65043515838
A55506004,주은금호아파트,4613013100,전라남도,여수시,소호동,,전라남도 여수시 소호동 423 주은금호아파트,분양,개별난방,139451.88,16,1392.0,금호산업(주),주은부동산신탁(주),0616914231,cafe.naver.com/juenkumho,아파트,전라남도 여수시 소호5길 39,자치관리,복도식,20020930,0619203030,1392,135841.3,0.0,1392.0,0.0,0.0,97498.777,15,15,3,25,59668,34.743428024648,127.646335956144
A55506005,여수소호,4613013100,전라남도,여수시,소호동,,전라남도 여수시 소호동 352-1 여수소호,임대,개별난방,29294.0,5,476.0,호반건설,한국토지주택공사,0616922061,355290@kohom.or.kr,아파트,전라남도 여수시 소호4길 45,위탁관리,복도식,20030613,0616922062,476,29117.977,476.0,0.0,0.0,0.0,19360.45,15,15,1,10,59666,34.7467199395157,127.648252706325
A55503001,우미타운,4613013200,전라남도,여수시,시전동,,전라남도 여수시 시전동 243 우미타운,분양,개별난방,44885.51,4,495.0,우미건설,우미주택,0616822629,,아파트,전라남도 여수시 여천체육공원길 23,자치관리,계단식,19931216,0616922629,495,44885.51,205.0,266.0,24.0,0.0,35898.43,15,15,0,18,59683,34.7622940554993,127.677346329174
A10021769,신기휴스티지,4613013300,전라남도,여수시,신기동,,전라남도 여수시 신기동 11- 신기휴스티지,분양,,24411.0,2,142.0,대창기업,하나자산신탁 (주)파트에이,0616911480,,주상복합,전라남도 여수시 쌍봉로 208,위탁관리,계단식,20220811,0616921480,142,21341.082,0.0,142.0,0.0,0.0,11983.557,20,20,2,4,,34.7638764285051,127.678533233746
A10023090,여수 대광 로제비앙,4613013300,전라남도,여수시,신기동,,전라남도 여수시 신기동 8-1 여수 대광 로제비앙,분양,개별난방,58444.0,10,363.0,대광건영,대국개발,0616815551,대광로제비앙센텀29.apti.co.kr,아파트,전라남도 여수시 신기북7길 30,위탁관리,계단식,20230731,0616815557,363,44094.2,0.0,305.0,0.0,58.0,34135.2671,29,29,1,5,59683,34.7629833120631,127.676883705213
A55502004,신화아파트,4613013300,전라남도,여수시,신기동,,전라남도 여수시 신기동 140 신화아파트,분양,개별난방,45511.426,5,420.0,(주)광주고속,신화산업(주),0616850790,,아파트,전라남도 여수시 선소로 72-28,자치관리,계단식,19911018,0616850791,420,39471.21,90.0,330.0,0.0,0.0,32655.51,15,15,1,14,59690,34.7567591436371,127.668156055566
A55502005,신기주공3단지아파트,4613013300,전라남도,여수시,신기동,,전라남도 여수시 신기동 6 신기주공3단지아파트,분양,개별난방,23863.0,10,450.0,대한주택공사,대한주택공사,0616831310,,아파트,전라남도 여수시 신기북7길 60,자치관리,계단식,19890522,0616832310,450,23594.3,450.0,0.0,0.0,0.0,18934.5,5,5,0,0,59683,34.7627619652276,127.68080595871
A55570601,신기부영3차,4613013300,전라남도,여수시,신기동,,전라남도 여수시 신기동 137 신기부영3차,혼합,개별난방,132166.0,12,1463.0,부영주택,부영주택,0616842443,,아파트,전라남도 여수시 망마로 54,위탁관리,복도식,19891114,0616842444,1463,122286.21,1367.0,96.0,0.0,0.0,90172.32,12,12,0,25,59688,34.7587663585689,127.668307113741
A55580303,우림필유아파트,4613013300,전라남도,여수시,신기동,,전라남도 여수시 신기동 75 우림필유아파트,분양,개별난방,75183.0,7,418.0,우림건설(주),파인빌(주),0616812830,www.sgwoolim.co.kr,아파트,전라남도 여수시 여천체육공원길 52,자치관리,계단식,20080926,0616815691,418,61960.484,0.0,90.0,268.0,60.0,49131.5284,15,15,1,14,59684,34.7591928422976,127.676073581061
A10023465,웅천더힐,4613013400,전라남도,여수시,웅천동,,전라남도 여수시 웅천동 1840 웅천더힐,분양,개별난방,176969.88,18,1054.0,(주)부영주택,(주)부영주택,0616858990,,아파트,전라남도 여수시 여서로 58,위탁관리,계단식,20220429,0616858991,1054,115107.38,0.0,1054.0,0.0,0.0,89523.9828,25,25,2,26,59694,34.7470719949108,127.690583550345
A10024010,여수웅천포레스트 부영2단지,4613013400,전라남도,여수시,웅천동,,전라남도 여수시 웅천동 1835 여수웅천포레스트 부영2단지,임대,개별난방,101716.555,8,738.0,부영주택,부영주택,0616865510,,아파트,전라남도 여수시 여서로 55,위탁관리,계단식,20211125,0616865512,738,71587.01,370.0,368.0,0.0,0.0,53452.0326,25,25,1,16,59693,34.7481862307644,127.686882628516
A10024033,여수웅천포레스트부영1단지,4613013400,전라남도,여수시,웅천동,,전라남도 여수시 웅천동 1832 여수웅천포레스트부영1단지,임대,개별난방,91773.55,8,662.0,(주)부영주택,(주)부영주택,0616854412,,아파트,전라남도 여수시 웅천로 292,위탁관리,계단식,20211125,0616854413,662,62910.523,376.0,286.0,0.0,0.0,46850.0544,25,25,2,15,59693,34.7468405165314,127.686997510754
A10024120,웅천골드클래스테라스힐,4613013400,전라남도,여수시,웅천동,,전라남도 여수시 웅천동 1815-1 웅천골드클래스테라스힐,분양,개별난방,47288.594,13,262.0,보광종합건설(주),골드디움(주),0616917881,,연립주택,전라남도 여수시 웅천북2로 81,위탁관리,계단식,20210930,0616917882,262,29140.92,0.0,260.0,2.0,0.0,22282.7428,4,4,1,40,59693,34.7506440190369,127.68404156127
A10024432,포레나 여수웅천더테라스,4613013400,전라남도,여수시,웅천동,,전라남도 여수시 웅천동 1866-1 포레나 여수웅천더테라스,분양,개별난방,90231.375,20,452.0,한화건설,"웅천1단지지역주택조합,웅천2단지지역주택조합",0618072922,,아파트,전라남도 여수시 웅천남1로 99,위탁관리,계단식,20200227,0618072923,452,52429.727,0.0,348.0,96.0,8.0,41642.1464,4,4,1,59,59692,34.7420746340488,127.679058932541
A10025466,포레나 여수 웅천2단지아파트,4613013400,전라남도,여수시,웅천동,,전라남도 여수시 웅천동 1889-1 포레나 여수 웅천2단지아파트,분양,개별난방,259420.55,11,1448.0,한화건설,아시아신탁,0616847757,dream2.kr,아파트,전라남도 여수시 웅천남8로 23,위탁관리,계단식,20190326,0616847759,1448,161661.92,0.0,1162.0,286.0,0.0,122766.2353,29,29,3,29,59792,34.7400377418964,127.678347122768
A10025501,포레나여수웅천1단지아파트,4613013400,전라남도,여수시,웅천동,,전라남도 여수시 웅천동 1888-1 포레나여수웅천1단지아파트,분양,개별난방,65545.555,3,333.0,아시아신탁(주),(주)한화건설,0616847723,포레나여수웅천1단지.apti.co.kr,주상복합,전라남도 여수시 웅천남8로 24,위탁관리,계단식,20190326,0616847725,333,41106.83,0.0,180.0,153.0,0.0,31240.5797,29,29,2,0,59792,34.73862252408,127.68033850906
A10026573,여수웅천사랑으로부영5차아파트,4613013400,전라남도,여수시,웅천동,,전라남도 여수시 웅천동 1853 여수웅천사랑으로부영5차아파트,임대,개별난방,29265.871,4,218.0,부영주택(주),부영주택(주),0616920095,,아파트,전라남도 여수시 웅천로 190,위탁관리,계단식,20171107,0616920063,218,20837.633,103.0,115.0,0.0,0.0,15874.2092,15,15,1,8,59694,34.7397576190403,127.683324056667
A10027959,웅천부영2차,4613013400,전라남도,여수시,웅천동,,전라남도 여수시 웅천동 1232 웅천부영2차,혼합,개별난방,150574.0,22,1080.0,부영,부영,0616866464,,아파트,전라남도 여수시 웅천로 319,위탁관리,계단식,20150727,0616868778,1080,112343.31,180.0,900.0,0.0,0.0,86712.552,15,15,1,44,59693,34.7481609124573,127.683339637319
A10027968,웅천부영3차아파트,4613013400,전라남도,여수시,웅천동,,전라남도 여수시 웅천동 270 웅천부영3차아파트,혼합,개별난방,77054.36,10,580.0,(주)부영주택,(주)부영주택,0616923311,,아파트,전라남도 여수시 웅천로 291,위탁관리,계단식,20150722,0616924114,580,56712.92,228.0,352.0,0.0,0.0,43358.9584,15,15,1,20,59693,34.746561450189,127.685028094029
A10028039,여수웅천사랑으로부영1차아파트,4613013400,전라남도,여수시,웅천동,,전라남도 여수시 웅천동 1395 여수웅천사랑으로부영1차아파트,혼합,개별난방,47813.81,9,424.0,부영주택,부영주택,0616864411,,아파트,전라남도 여수시 웅천로 189,위탁관리,계단식,20150511,0616864211,424,43390.914,96.0,328.0,0.0,0.0,33423.7312,12,12,1,0,59694,34.7412485703449,127.683911695948
A55507001,웅천지웰,4613013400,전라남도,여수시,웅천동,,전라남도 여수시 웅천동 1683 웅천지웰,분양,개별난방,151507.69,20,1084.0,한라건설,신영,0616815081,,아파트,전라남도 여수시 예울마루로 30,위탁관리,혼합식,20100629,0616850377,1084,119465.22,150.0,934.0,0.0,0.0,88323.44,15,15,1,38,59691,34.7487247372037,127.671706451214
A55507002,웅천지웰2차,4613013400,전라남도,여수시,웅천동,,전라남도 여수시 웅천동 1642 웅천지웰2차,분양,개별난방,87654.12,7,614.0,주식회사 신영,(주)한라,0616928755,,아파트,전라남도 여수시 웅천중앙로 33,위탁관리,계단식,20131128,0616928756,614,69845.36,0.0,564.0,50.0,0.0,53498.3,25,25,1,13,59691,34.7495310579435,127.669525853976
A55507003,여수웅천지웰3차,4613013400,전라남도,여수시,웅천동,,전라남도 여수시 웅천동 1643 여수웅천지웰3차,분양,개별난방,97971.0,9,672.0,한라건설,주식회사 신영,0616855008,,아파트,전라남도 여수시 웅천중앙로 47,위탁관리,계단식,20141028,0616855059,672,76855.03,0.0,571.0,101.0,0.0,58704.2056,25,25,1,15,59691,34.7496092039641,127.671785580721
A10022062,여수이랑빌,4613013500,전라남도,여수시,선원동,,전라남도 여수시 선원동 1349- 여수이랑빌,혼합,개별난방,7458.0,8,100.0,(주)일군토건,유한회사 하나그린,0618112060,,다세대,전라남도 여수시 선원7길 60,위탁관리,계단식,20140416,0618112061,100,7457.632,100.0,0.0,0.0,0.0,5976,4,4,0,0,,34.763061532209,127.649802672803
A55504001,선원대주아파트,4613013500,전라남도,여수시,선원동,,전라남도 여수시 선원동 1311-2 선원대주아파트,분양,개별난방,14132.0,1,180.0,송촌건설(주),대주건설,0616830339,,아파트,전라남도 여수시 무선1길 20,자치관리,계단식,19951030,0616822725,180,14131.8,165.0,15.0,0.0,0.0,11117.85,15,15,1,6,59641,34.7708802849948,127.654123108531
A55504002,선원금호타운,4613013500,전라남도,여수시,선원동,,전라남도 여수시 선원동 53 선원금호타운,분양,개별난방,57786.0,7,570.0,(주)광주고속,(주)광주고속,0616811131,,아파트,전라남도 여수시 시청로 82,자치관리,계단식,19900324,0616843660,570,55950.0,0.0,540.0,30.0,0.0,45797.7,15,15,0,19,59635,34.7685898368025,127.663087678743
A55504003,남양아파트,4613013500,전라남도,여수시,선원동,,전라남도 여수시 선원동 1256 남양아파트,분양,개별난방,73494.0,13,970.0,남양건설,여수시,0616844017,,아파트,전라남도 여수시 무선2길 27,자치관리,혼합식,19901130,0616814372,970,66373.9,970.0,0.0,0.0,0.0,51581.08,15,15,0,14,59641,34.7708522904195,127.651459688139
A55571404,우미이노스빌,4613013500,전라남도,여수시,선원동,,전라남도 여수시 선원동 1341 우미이노스빌,분양,개별난방,49556.51,6,411.0,우미건설,우미건설,0616920037,,아파트,전라남도 여수시 선원4길 67,자치관리,계단식,20040604,0616920038,411,47369.945,150.0,141.0,120.0,0.0,36215.6955,15,15,1,14,59646,34.7628835339932,127.650860666559
A55511001,무선주공3단지,4613013700,전라남도,여수시,화장동,,전라남도 여수시 화장동 882 무선주공3단지,임대,개별난방,99511.41,14,1497.0,한국토지주택공사,한국토지주택공사,0616920086,,아파트,전라남도 여수시 덕양로 157,위탁관리,복도식,20050408,0616920087,1497,99104.61,1497.0,0.0,0.0,0.0,63973.48,15,15,0,28,59636,34.7747983356764,127.635220912878
A55511003,무선주공2단지,4613013700,전라남도,여수시,화장동,,전라남도 여수시 화장동 740 무선주공2단지,분양,개별난방,59864.8,9,742.0,"라인건설,삼능건설",대한주택공사,0616824108,,아파트,전라남도 여수시 무선2길 39,자치관리,복도식,19950418,0616851519,742,58648.97,742.0,0.0,0.0,0.0,43139.88,15,15,0,10,59641,34.7724293756153,127.64948556806
A55571104,무선주공1단지,4613013700,전라남도,여수시,화장동,,전라남도 여수시 화장동 740 무선주공1단지,임대,개별난방,13597.57,2,298.0,라인건설,한국토지주택공사,0616866540,www.kohom.or.kr,아파트,전라남도 여수시 무선2길 39,자치관리(직영),복도식,19950418,0616844197,298,12653.08,298.0,0.0,0.0,0.0,8595.81,15,15,0,4,59641,34.7724293756153,127.64948556806
A55508001,신동아아파트,4613013900,전라남도,여수시,봉계동,,전라남도 여수시 봉계동 2 신동아아파트,분양,개별난방,34813.64,3,409.0,(주)신동아건설,(주)신동아건설,0616822033,,아파트,전라남도 여수시 좌수영로 682-26,자치관리,계단식,19971210,0616810663,409,33357.27,367.0,42.0,0.0,0.0,25537.36,15,15,1,13,59632,34.7850261763025,127.692354040876
A55508002,로얄골드빌,4613013900,전라남도,여수시,봉계동,,전라남도 여수시 봉계동 5-5 로얄골드빌,분양,개별난방,71965.7,7,558.0,로얄종합건설,로얄종합건설,0616915930,,아파트,전라남도 여수시 좌수영로 682-27,자치관리,계단식,20030318,0616913435,558,65167.145,0.0,558.0,0.0,0.0,47292.732,20,20,1,15,59632,34.7844925050778,127.692076990896
A55508003,아주타운아파트,4613013900,전라남도,여수시,봉계동,,전라남도 여수시 봉계동 5-25 아주타운아파트,분양,개별난방,58133.2,7,704.0,(주)석탑건설,(주)아주건설,0616842353,여수아주타운.apti.co.kr,아파트,전라남도 여수시 봉계대곡길 50,위탁관리,계단식,19980327,0616842365,704,55989.48,650.0,54.0,0.0,0.0,43545.6,15,15,1,24,59632,34.7846963975969,127.69039485579
A55575001,대광오투빌아파트,4613013900,전라남도,여수시,봉계동,,전라남도 여수시 봉계동 11 대광오투빌아파트,분양,개별난방,89413.2,10,755.0,(주)대광건설,(주)대광건설,0616918564,,아파트,전라남도 여수시 봉계대곡길 52-1,위탁관리,계단식,20020513,0616918565,755,80044.31,176.0,579.0,0.0,0.0,59597.3467,20,20,0,0,59632,34.7867527897486,127.689750763754
A55690201,청솔1차,4613025030,전라남도,여수시,돌산읍,우두리,전라남도 여수시 돌산읍 우두리 1046-1 청솔1차,분양,개별난방,62110.27,7,750.0,새롬성원산업주식회사,한국토지신탁,0616443311,없음,아파트,전라남도 여수시 강남8길 20,위탁관리,복도식,20000909,0616445580,750,62109.9,750.0,0.0,0.0,0.0,44887.5,15,15,1,11,59769,34.7185546939074,127.747750557935
A55690202,돌산청솔2차,4613025030,전라남도,여수시,돌산읍,우두리,전라남도 여수시 돌산읍 우두리 1132-1 돌산청솔2차,분양,개별난방,46382.0,5,560.0,새롬성원,한국토지신탁,0616446494,,아파트,전라남도 여수시 강남동로 46-19,위탁관리,복도식,20030129,0616446495,560,45976.0,560.0,0.0,0.0,0.0,33516,13,13,1,5,59769,34.7178464093592,127.757288933587
A55690203,여수청솔3차,4613025030,전라남도,여수시,돌산읍,우두리,전라남도 여수시 돌산읍 우두리 1134-2 여수청솔3차,분양,개별난방,47109.27,5,568.0,새롬성원,(주)한국토지신탁,0616446784,,아파트,전라남도 여수시 강남동로 46-3,위탁관리,복도식,20030227,0616446785,568,43145.28,568.0,0.0,0.0,0.0,33994.8,14,14,0,10,59769,34.7188806084446,127.75638517419
A10024028,여수힐스테이트 죽림 젠트리스아파트,4613031022,전라남도,여수시,소라면,죽림리,전라남도 여수시 소라면 죽림리 1254 여수힐스테이트 죽림 젠트리스아파트,분양,개별난방,148493.0,18,989.0,현대엔지니어링(주),여수죽림현대지역주택조합,0616831480,,아파트,전라남도 여수시 덕양로 21-18,위탁관리,계단식,20211123,0556831481,997,101446.945,180.0,809.0,0.0,0.0,77595.7135,15,15,2,34,59655,34.762420760193,127.630995699011
A10026843,양우내안애 아파트,4613031022,전라남도,여수시,소라면,죽림리,전라남도 여수시 소라면 죽림리 1247 양우내안애 아파트,분양,개별난방,113641.0,15,813.0,양우건설,죽림지역주택조합,0616813600,,아파트,전라남도 여수시 도원로 80,위탁관리,계단식,20170814,0616813601,813,81964.74,220.0,593.0,0.0,0.0,60550.8456,15,15,1,29,59656,34.7605116661748,127.640323501373
A10026950,여수 죽림호반베르디움 아파트,4613031022,전라남도,여수시,소라면,죽림리,전라남도 여수시 소라면 죽림리 1117 여수 죽림호반베르디움 아파트,분양,개별난방,41039.0,4,269.0,"(주)리젠시빌주택, (주)호반건설",(주)리젠시빌건설,0616865662,,아파트,전라남도 여수시 덕양로 96,자치관리,계단식,20170614,0616865664,269,30341.158,0.0,269.0,0.0,0.0,22845.1121,20,20,1,0,59655,34.7675095506727,127.637185761101
A55681101,여수죽림휴먼시아2단지,4613031022,전라남도,여수시,소라면,죽림리,전라남도 여수시 소라면 죽림리 1123 여수죽림휴먼시아2단지,임대,개별난방,64950.0,11,775.0,신동아건설,한국토지주택공사,0616866177,,아파트,전라남도 여수시 죽림로 38,위탁관리,계단식,20101207,0616813101,775,33099.8,775.0,0.0,0.0,0.0,33109.05,17,17,2,17,59655,34.7653634996371,127.638614053316
A55681102,여수죽림휴먼시아1단지,4613031022,전라남도,여수시,소라면,죽림리,전라남도 여수시 소라면 죽림리 1102 여수죽림휴먼시아1단지,임대,개별난방,63289.07,9,830.0,한국토지주택공사,진흥기업,0616851166,,아파트,전라남도 여수시 덕양로 97-9,위탁관리,복도식,20101230,0616850065,830,33200.0,830.0,0.0,0.0,0.0,33826.58,20,20,1,17,59655,34.7694781215084,127.633297255353
A55681103,죽림부영1차,4613031022,전라남도,여수시,소라면,죽림리,전라남도 여수시 소라면 죽림리 1130 죽림부영1차,혼합,개별난방,178062.0,21,1340.0,(주)부영주택,(주)부영주택,0616848668,,아파트,전라남도 여수시 죽림로 10,위탁관리,계단식,20140221,0616848680,1340,103628.63,390.0,950.0,0.0,0.0,103629.344,15,15,1,45,59655,34.7627891163676,127.640465277434
A55681104,여수죽림부영2차,4613031022,전라남도,여수시,소라면,죽림리,전라남도 여수시 소라면 죽림리 1111 여수죽림부영2차,혼합,개별난방,92974.0,12,866.0,부영주택,부영주택,0616842772,,아파트,전라남도 여수시 덕양로 114,위탁관리,계단식,20140429,0616842882,866,68707.4,866.0,0.0,0.0,0.0,51901.8824,15,15,1,27,59655,34.7698323794264,127.638507561861
A10020433,율촌국제미소래 1·2차아파트,4613032022,전라남도,여수시,율촌면,월산리,전라남도 여수시 율촌면 월산리 1502-1 율촌국제미소래 1·2차아파트,임대,개별난방,50741.016,6,396.0,국제미소래(주),"국제위너스(주), 국제미소래(주)",0616863565,,아파트,전라남도 여수시 여순로 1022-179,위탁관리,계단식,20241217,0616863569,396,35848.363,258.0,138.0,0.0,0.0,26968.8892,20,20,1,12,,34.8831028735837,127.572260143715
A55689101,여수동양엔파트,4613032022,전라남도,여수시,율촌면,월산리,전라남도 여수시 율촌면 월산리 1501-1 여수동양엔파트,분양,개별난방,38015.844,4,357.0,동양메이져(주)건설,(주)동양건설,0616859555,dyypt.aptner.com/v2,주상복합,전라남도 여수시 여순로 1038,위탁관리,계단식,20110714,0616861166,357,38015.477,118.0,239.0,0.0,0.0,27337.6652,15,15,1,12,59602,34.8831699617938,127.570029132875
