kaptCode,kaptName,bjdCode,as1,as2,as3,as4,kaptAddr,codeSaleNm,codeHeatNm,kaptTarea,kaptDongCnt,kaptdaCnt,kaptBcompany,kaptAcompany,kaptTel,kaptUrl,codeAptNm,doroJuso,codeMgrNm,codeHallNm,kaptUsedate,kaptFax,hoCnt,kaptMarea,kaptMparea60,kaptMparea85,kaptMparea135,kaptMparea136,privArea,kaptTopFloor,ktownFlrNo,kaptBaseFloor,kaptdEcntp,zipcode,위도,경도
A10023779,전주태평아이파크,5211111900,전북특별자치도,전주완산구,태평동,,전북특별자치도 전주완산구 태평동 123-19 전주태평아이파크,분양,개별난방,188456.0,12,1319.0,HDC현대산업개발,태평1구역주택재개발정비사업조합,0632540300,,아파트,전북특별자치도 전주시 완산구 태진로 35,위탁관리,계단식,20220531,0632540301,1319,95681.94,532.0,787.0,0.0,0.0,95681.9371,25,25,2,33,54998,35.8251304785526,127.136524118756
A10025261,대양아리스타,5211111900,전북특별자치도,전주완산구,태평동,,전북특별자치도 전주완산구 태평동 304 대양아리스타,분양,개별난방,24740.941,2,198.0,대양종합건설,(주)메디파크,0632517702,,주상복합,전북특별자치도 전주시 완산구 태평4길 11,위탁관리,계단식,20190920,0632517705,198,15836.975,198.0,0.0,0.0,0.0,11543.8501,27,27,2,4,54996,35.8234684633698,127.142581409846
A56008001,SK VIEW,5211111900,전북특별자치도,전주완산구,태평동,,전북특별자치도 전주완산구 태평동 291 SK VIEW,분양,개별난방,187523.33,10,712.0,sk건설,KT&G,0632737712,,아파트,전북특별자치도 전주시 완산구 태평2길 22,자치관리,계단식,20090108,0632739712,712,111173.46,0.0,0.0,166.0,546.0,111175.578,18,18,2,22,54997,35.824680084718,127.139924189473
A10026521,한옥마을 서해그랑블아파트,5211112000,전북특별자치도,전주완산구,중노송동,,전북특별자치도 전주완산구 중노송동 797 한옥마을 서해그랑블아파트,분양,개별난방,125141.0,14,821.0,(주)서해종합건설,물왕멀구역 주택재개발정비사업조합,0632821022,,아파트,전북특별자치도 전주시 완산구 견훤왕궁1길 10,위탁관리,계단식,20180312,0632821023,821,86934.41,102.0,649.0,70.0,0.0,66408.7185,23,23,3,24,55007,35.8279148561304,127.153460522841
A56010001,중노송동 기린봉,5211112000,전북특별자치도,전주완산구,중노송동,,전북특별자치도 전주완산구 중노송동 26-1 중노송동 기린봉,분양,개별난방,34673.5,3,302.0,거성건설,도청주택조합,0632870554,kiringbong.apti.co.kr/aptHome/,아파트,전북특별자치도 전주시 완산구 견훤로 100,위탁관리,계단식,19930809,0632310194,302,31891.2,0.0,302.0,0.0,0.0,25651.88,15,15,0,11,55108,35.8195653663637,127.162943865261
A56082702,중노송동 우성해오름,5211112000,전북특별자치도,전주완산구,중노송동,,전북특별자치도 전주완산구 중노송동 303 중노송동 우성해오름,분양,개별난방,56617.94,7,400.0,(유)우성종합건설,(유)우성종합건설,0632842001,,아파트,전북특별자치도 전주시 완산구 인봉남로 56,위탁관리,계단식,20051229,0632878040,400,41010.504,32.0,68.0,200.0,100.0,41010.5036,19,19,2,13,55010,35.8259380008494,127.158897086536
A10024256,서완산 골드클래스아파트,5211112400,전북특별자치도,전주완산구,서완산동2가,,전북특별자치도 전주완산구 서완산동2가 345-1 서완산 골드클래스아파트,분양,개별난방,38423.0,4,248.0,보광종합건설(주),골드종합건설(주),0632320028,,아파트,전북특별자치도 전주시 완산구 안행로 149,위탁관리,계단식,20210604,0632320029,248,26467.11,0.0,248.0,0.0,0.0,20421.8032,17,17,2,0,55048,35.8092570384904,127.132405792669
A56015201,오페라하우스,5211112400,전북특별자치도,전주완산구,서완산동2가,,전북특별자치도 전주완산구 서완산동2가 335 오페라하우스,분양,개별난방,43262.0,4,160.0,(유)예림,(유)KC,0632312330,오페라하우스.ma-um.co.kr,아파트,전북특별자치도 전주시 완산구 안행로 150,위탁관리,계단식,20080111,0632312335,160,27635.6,0.0,0.0,120.0,40.0,22491.264,10,10,2,8,55047,35.8098063575822,127.133058730976
A56012001,동서학동 진흥하이츠,5211112500,전북특별자치도,전주완산구,동서학동,,전북특별자치도 전주완산구 동서학동 279-4 동서학동 진흥하이츠,분양,개별난방,28943.38,1,283.0,진흥건설,진흥건설,0632319380,동서학동진흥하이츠.ma-um.co.kr,아파트,전북특별자치도 전주시 완산구 학봉2길 11,자치관리,혼합식,19931129,0632319381,283,25753.27,172.0,111.0,0.0,0.0,19225.5,20,20,1,4,55114,35.8061168996997,127.154644682867
A56012002,동서학동 거산황궁,5211112500,전북특별자치도,전주완산구,동서학동,,전북특별자치도 전주완산구 동서학동 290-3 동서학동 거산황궁,분양,개별난방,57067.0,4,433.0,(유)거산건설,(유)거산건설,0632875761,거산황궁 apti.co.kr,아파트,전북특별자치도 전주시 완산구 장승배기로 398,자치관리,계단식,19930630,0639015763,433,54128.62,0.0,283.0,90.0,60.0,45587.53,15,15,0,16,55114,35.805163922413,127.152372548658
A56072701,효성흑석마을,5211112600,전북특별자치도,전주완산구,서서학동,,전북특별자치도 전주완산구 서서학동 985-1 효성흑석마을,혼합,개별난방,10949.362,1,150.0,효성종합산업,효성종합산업,0639031003,,아파트,전북특별자치도 전주시 완산구 흑석1길 85,위탁관리,복도식,20001209,0632824331,150,7673.82,150.0,0.0,0.0,0.0,5522.3475,9,9,2,2,55114,35.7980317538105,127.149086998975
A56081604,서서학동 우정목련,5211112600,전북특별자치도,전주완산구,서서학동,,전북특별자치도 전주완산구 서서학동 334-9 서서학동 우정목련,분양,개별난방,22215.0,1,244.0,우정건설,우정건설,0632884851,,아파트,전북특별자치도 전주시 완산구 석불1길 9,위탁관리,복도식,19930318,0632884850,244,16613.52,162.0,82.0,0.0,0.0,16613.52,18,18,0,4,55118,35.8006196420681,127.147110092544
A56081606,서서학동 광진산업,5211112600,전북특별자치도,전주완산구,서서학동,,전북특별자치도 전주완산구 서서학동 318-10 서서학동 광진산업,분양,개별난방,39142.69,7,432.0,(유)KJ건설,(유)KJ건설,0632318480,cafe.daum.net/sskwangjin,아파트,전북특별자치도 전주시 완산구 덕적골3길 17,위탁관리,계단식,20000529,0632310530,432,35351.273,432.0,0.0,0.0,0.0,25576.9816,7,7,0,31,55119,35.7983924828899,127.146114866947
A56081701,서서학동 대아청산@,5211112600,전북특별자치도,전주완산구,서서학동,,전북특별자치도 전주완산구 서서학동 978-6 서서학동 대아청산@,분양,개별난방,14656.48,2,154.0,대아건설,대아건설,0632319337,,아파트,전북특별자치도 전주시 완산구 흑석1길 88,위탁관리,복도식,19931030,0632319338,154,13244.0,154.0,0.0,0.0,0.0,9235.38,10,10,1,3,55114,35.7989336329968,127.148735113238
A56081702,우정아파트,5211112600,전북특별자치도,전주완산구,서서학동,,전북특별자치도 전주완산구 서서학동 987-1 우정아파트,분양,개별난방,16583.0,1,195.0,(유)우정건설,(유)우정건설,0632834485,woojung.apti.co.kr,아파트,전북특별자치도 전주시 완산구 흑석로 71,위탁관리,복도식,19920225,0639084484,195,16077.75,195.0,0.0,0.0,0.0,11483.55,15,15,1,3,55114,35.7981053554028,127.150270745281
A56081703,서서학동 대승푸른맨션,5211112600,전북특별자치도,전주완산구,서서학동,,전북특별자치도 전주완산구 서서학동 977-1 서서학동 대승푸른맨션,분양,개별난방,31776.824,2,223.0,대영건설,한국부동산신탁,0632825141,,아파트,전북특별자치도 전주시 완산구 흑석로 53,위탁관리,계단식,19980702,0632854401,223,20290.08,121.0,102.0,0.0,0.0,15916.74,18,18,3,7,55114,35.7990949444737,127.150988380732
A56081705,서서학동 신세계블루타운,5211112600,전북특별자치도,전주완산구,서서학동,,전북특별자치도 전주완산구 서서학동 983-2 서서학동 신세계블루타운,분양,개별난방,14360.39,1,252.0,신세계주택개발,신세계주택개발,0632858542,,아파트,전북특별자치도 전주시 완산구 흑석로 64,위탁관리,복도식,19970321,0632887539,252,11876.37,252.0,0.0,0.0,0.0,8880.6,12,12,1,3,55114,35.7988468820334,127.149935940102
A10021436,중화산 동신1차아파트,5211112700,전북특별자치도,전주완산구,중화산동1가,,전북특별자치도 전주완산구 중화산동1가 162-42 중화산 동신1차아파트,분양,개별난방,4911.0,1,137.0,동신주택개발(주),동신주택개발(주),0632833653,,아파트,전북특별자치도 전주시 완산구 강당4길 3,자치관리,복도식,19901128,0632833656,137,4010.89,55.0,82.0,0.0,0.0,9916.86,1,12,1,2,,35.8135594654907,127.134126230972
A10021621,거성근영2차아파트,5211112700,전북특별자치도,전주완산구,중화산동1가,,전북특별자치도 전주완산구 중화산동1가 223-6 거성근영2차아파트,분양,개별난방,12693.0,1,121.0,거성건설주식회사,거성건설주식회사,0632258288,,아파트,전북특별자치도 전주시 완산구 선너머로 36-9,위탁관리,계단식,19950513,0639028288,121,10982.82,61.0,60.0,0.0,0.0,8719.57,1,18,1,5,,35.814722371926,127.128928140297
A56025101,중화산동 옥성트레비앙,5211112700,전북특별자치도,전주완산구,중화산동1가,,전북특별자치도 전주완산구 중화산동1가 327-12 중화산동 옥성트레비앙,분양,개별난방,22902.42,2,155.0,(유)옥성건설,(유)옥성,0632845595,중화산동옥성트레비앙ma-um.co.kr,아파트,전북특별자치도 전주시 완산구 서원로 348,위탁관리,계단식,20081028,0639085595,155,16672.55,0.0,155.0,0.0,0.0,12997.5765,10,10,1,8,55046,35.8123890731438,127.132022618089
A56083205,중화산동 남양서원,5211112700,전북특별자치도,전주완산구,중화산동1가,,전북특별자치도 전주완산구 중화산동1가 221-1 중화산동 남양서원,분양,개별난방,20031.0,2,230.0,남양건설,남양건설,0632851297,중화산동남양서원.ma-um.co.kr,아파트,전북특별자치도 전주시 완산구 선너머4길 25,위탁관리,복도식,19930927,0639011298,230,19567.25,230.0,0.0,0.0,0.0,13786.2,15,15,0,4,54987,35.814944206693,127.131558239306
A56083206,중화산동 동신2차,5211112700,전북특별자치도,전주완산구,중화산동1가,,전북특별자치도 전주완산구 중화산동1가 250 중화산동 동신2차,분양,개별난방,27160.0,2,258.0,(주)동신,(주)동신,0632317406,,아파트,전북특별자치도 전주시 완산구 선너머2길 2-7,위탁관리,혼합식,19950729,0639017406,258,20384.39,106.0,76.0,76.0,0.0,20384.39,19,19,1,5,54986,35.8136127378393,127.129265265964
A56083210,중화산동 신일,5211112700,전북특별자치도,전주완산구,중화산동1가,,전북특별자치도 전주완산구 중화산동1가 154 중화산동 신일,분양,개별난방,55066.0,5,440.0,신일건설,신일건설,0639046100,https://중화산동신일.apti.co.kr,아파트,전북특별자치도 전주시 완산구 서원로 386,자치관리,혼합식,19951107,0639046070,440,47868.086,178.0,172.0,72.0,18.0,37594.29,11,11,1,18,55046,35.8134253287042,127.136235975985
A56083502,중화산동 현대(B)단지,5211112700,전북특별자치도,전주완산구,중화산동1가,,전북특별자치도 전주완산구 중화산동1가 331 중화산동 현대(B)단지,분양,개별난방,21430.0,3,164.0,현대건설,현대건설,0632828015,중화산동현대(B)단지.ma-um.co.kr,아파트,전북특별자치도 전주시 완산구 안행로 176,위탁관리,계단식,19980126,0639028010,164,18419.72,20.0,108.0,0.0,36.0,15352.88,12,12,2,7,55046,35.8115114059268,127.131875665048
A56083508,중화산동 현대(A)단지,5211112700,전북특별자치도,전주완산구,중화산동1가,,전북특별자치도 전주완산구 중화산동1가 329 중화산동 현대(A)단지,분양,개별난방,41296.0,3,323.0,현대건설,현대건설,0632838010,,아파트,전북특별자치도 전주시 완산구 안행로 175,위탁관리,계단식,19990402,0632838033,323,36993.14,38.0,202.0,51.0,32.0,29679.54,19,19,1,9,55048,35.8116409578917,127.131509417107
A10022535,광진햇빛찬2차아파트,5211112800,전북특별자치도,전주완산구,중화산동2가,,전북특별자치도 전주완산구 중화산동2가 485-27 광진햇빛찬2차아파트,분양,개별난방,0.0,2,96.0,광진산업,광진산업,0632221525,,,전북특별자치도 전주시 완산구 강변로 304,위탁관리,계단식,20090403,0632221525,96,12190.056,0.0,0.0,96.0,0.0,10332.96,15,15,1,0,,35.8169550867187,127.114580789566
A10027772,중화산영무예다음아파트,5211112800,전북특별자치도,전주완산구,중화산동2가,,전북특별자치도 전주완산구 중화산동2가 850 중화산영무예다음아파트,분양,개별난방,46348.04,5,336.0,(주)영무건설,(주)영무토건,0632875544,,아파트,전북특별자치도 전주시 완산구 안행로 165-5,위탁관리,계단식,20150618,0639015560,336,36630.082,0.0,336.0,0.0,0.0,28436.4864,20,20,1,11,55048,35.8102557528088,127.131231074321
A56025201,새한그린파크아파트,5211112800,전북특별자치도,전주완산구,중화산동2가,,전북특별자치도 전주완산구 중화산동2가 232 새한그린파크아파트,분양,개별난방,25518.688,1,218.0,(주)새한산업개발,(주)새한산업개발,0632257275,xn--2i0b75tvufxpr87core.apti.co.kr/,아파트,전북특별자치도 전주시 완산구 영경1길 22,위탁관리,혼합식,19941228,0632257276,218,21921.22,102.0,72.0,44.0,0.0,16625.6,24,24,1,4,54984,35.8175732203885,127.125454198208
A56076709,거성화산,5211112800,전북특별자치도,전주완산구,중화산동2가,,전북특별자치도 전주완산구 중화산동2가 37 거성화산,분양,개별난방,24832.18,3,180.0,(주)거성건설,(주)거성건설,0632854835,,아파트,전북특별자치도 전주시 완산구 따박골9길 33,위탁관리,계단식,19921231,0639044835,180,21619.932,0.0,120.0,30.0,30.0,17922.58,15,15,1,7,55048,35.8100216154738,127.130808026983
A56076710,중화산동광진햇빛찬,5211112800,전북특별자치도,전주완산구,중화산동2가,,전북특별자치도 전주완산구 중화산동2가 825 중화산동광진햇빛찬,분양,개별난방,39663.29,3,224.0,광진건설,광진주택,0632210973,중화산동광진햇빛찬.ma-um.co.kr,아파트,전북특별자치도 전주시 완산구 강변로 306,자치관리,계단식,20050830,0639050973,224,33698.4,0.0,0.0,152.0,72.0,26962.992,19,19,0,6,54975,35.8174397188233,127.114460761474
A56076711,중화산풍림아이원,5211112800,전북특별자치도,전주완산구,중화산동2가,,전북특별자치도 전주완산구 중화산동2가 827 중화산풍림아이원,분양,개별난방,97645.89,11,498.0,풍림건설,풍림건설,0632280820,중화산풍림아이원.apti.co.kr,아파트,전북특별자치도 전주시 완산구 서원로 289,위탁관리,계단식,20110430,0632270828,498,78813.4,0.0,78.0,354.0,66.0,61612.858,15,15,2,17,54986,35.8132577880509,127.127354224524
A56083207,중화산동 거성근영1차,5211112800,전북특별자치도,전주완산구,중화산동2가,,전북특별자치도 전주완산구 중화산동2가 17 중화산동 거성근영1차,분양,개별난방,30307.28,1,268.0,거성건설(주),거성건설(주),0632250508,거성근영1아파트.apti.co.kr/aptHome/,아파트,전북특별자치도 전주시 완산구 선너머로 40,자치관리,혼합식,19931120,0639010508,268,25753.2,172.0,48.0,48.0,0.0,19734.72,24,24,1,4,54986,35.8157612348693,127.128947192237
A56083209,중화산동 광진,5211112800,전북특별자치도,전주완산구,중화산동2가,,전북특별자치도 전주완산구 중화산동2가 190 중화산동 광진,분양,개별난방,46460.0,5,346.0,(유)광진산업개발,(유)광진산업개발,0632260316,중화산동광진.apti.co.kr,아파트,전북특별자치도 전주시 완산구 선너머로 16,위탁관리,계단식,19980704,0639010314,346,35713.08,0.0,244.0,0.0,102.0,35713.08,15,15,1,13,54986,35.8154225632059,127.126893717453
A56083306,중화산동우성근영,5211112800,전북특별자치도,전주완산구,중화산동2가,,전북특별자치도 전주완산구 중화산동2가 256 중화산동우성근영,분양,개별난방,69844.6,6,651.0,(유)우성종합건설,(유)우성종합건설,0632264174,중화산동우성근영.ma-um.co.kr,아파트,전북특별자치도 전주시 완산구 영경1길 25,위탁관리,계단식,19960703,0632264176,651,62056.465,300.0,311.0,40.0,0.0,49630.56,20,20,0,17,54984,35.81826660404,127.125239177945
A56083602,중화산동거성그린,5211112800,전북특별자치도,전주완산구,중화산동2가,,전북특별자치도 전주완산구 중화산동2가 545-1 중화산동거성그린,분양,개별난방,50435.0,2,263.0,거성,거성,0632235513,,아파트,전북특별자치도 전주시 완산구 따박골로 11,자치관리,계단식,19920618,0632235514,263,44143.0,0.0,0.0,161.0,102.0,38143.79,15,15,0,9,55049,35.8101003098527,127.124427057758
A56083603,오성은하,5211112800,전북특별자치도,전주완산구,중화산동2가,,전북특별자치도 전주완산구 중화산동2가 545 오성은하,분양,개별난방,38368.76,2,270.0,(유)하봉,쌍용주택건설,0632246356,,아파트,전북특별자치도 전주시 완산구 서원로 272,자치관리,혼합식,19920608,0639016356,270,36805.0,0.0,108.0,80.0,82.0,30630,14,14,1,6,55049,35.8111767031518,127.124411033509
A56083704,중화산동우성중산타운,5211112800,전북특별자치도,전주완산구,중화산동2가,,전북특별자치도 전주완산구 중화산동2가 406-3 중화산동우성중산타운,분양,개별난방,39462.125,5,320.0,유)우성종합건설,유)우성종합건설,0632295017,,아파트,전북특별자치도 전주시 완산구 신촌3길 1,위탁관리,계단식,20030523,0632285017,320,32268.8,0.0,320.0,0.0,0.0,26637.888,20,20,1,9,54978,35.8161351746132,127.117511363746
A56083705,중화산동한신코아,5211112800,전북특별자치도,전주완산구,중화산동2가,,전북특별자치도 전주완산구 중화산동2가 482-1 중화산동한신코아,분양,개별난방,51482.37,6,444.0,한신공영,한신공영,0632239610,,아파트,전북특별자치도 전주시 완산구 신촌2길 20,위탁관리,계단식,19901102,0639019610,444,47624.16,0.0,362.0,82.0,0.0,39773.55,15,15,0,18,54978,35.81470378426,127.116034829341
A56083807,중화산동코오롱하늘채,5211112800,전북특별자치도,전주완산구,중화산동2가,,전북특별자치도 전주완산구 중화산동2가 746-1 중화산동코오롱하늘채,분양,개별난방,131266.7,10,858.0,코오롱건설,코오롱건설,0639020222,중화산동코오롱하늘채.ma-um.co.kr,아파트,전북특별자치도 전주시 완산구 화산천변로 55,위탁관리,계단식,20030714,0632290981,858,113082.74,0.0,484.0,302.0,72.0,89785.158,20,20,1,25,54970,35.8231085211018,127.115439300778
A56083808,중화산동현대에코르,5211112800,전북특별자치도,전주완산구,중화산동2가,,전북특별자치도 전주완산구 중화산동2가 745-1 중화산동현대에코르,분양,개별난방,149271.0,10,992.0,현대건설,전북개발공사,0632297441,https://현대에코르아파트.apti.co.kr,아파트,전북특별자치도 전주시 완산구 화산천변로 50,위탁관리,계단식,20031030,0639027442,992,121838.73,0.0,598.0,394.0,0.0,93740.5,22,22,0,0,54970,35.8239352203905,127.117235686993
A10021676,서신영창아파트,5211112900,전북특별자치도,전주완산구,서신동,,전북특별자치도 전주완산구 서신동 325-1 서신영창아파트,분양,,9731.0,1,112.0,대한방직,영창건설,0632534598,,아파트,전북특별자치도 전주시 완산구 전룡5길 7,자치관리,계단식,19920930,0632261833,112,8176.0,0.0,112.0,0.0,0.0,7966.84,13,13,0,0,,35.8260388069707,127.120649198655
A10023387,플러스리버하임,5211112900,전북특별자치도,전주완산구,서신동,,전북특별자치도 전주완산구 서신동 1045 플러스리버하임,분양,개별난방,18139.0,4,164.0,플러스건설,유한회사 콤파스,0632735930,,아파트,전북특별자치도 전주시 완산구 전주천서로 457,위탁관리,계단식,20230120,0632735931,167,13875.449,164.0,0.0,0.0,0.0,9766.364,22,22,1,5,54940,35.8325725772515,127.125226680957
A10024783,서신아이파크e편한세상,5211112900,전북특별자치도,전주완산구,서신동,,전북특별자치도 전주완산구 서신동 1044 서신아이파크e편한세상,분양,개별난방,196999.56,21,1390.0,"에이치디씨현대산업개발주식회사,대림산업주식회사",바구멀1구역 주택재개발정비사업조합,0632736481,,아파트,전북특별자치도 전주시 완산구 전주천서로 445,위탁관리,혼합식,20201201,0632736483,1390,141178.55,429.0,795.0,166.0,0.0,107814.0362,20,20,2,41,54940,35.831411025305,127.125840425988
A56079101,동아한일아파트,5211112900,전북특별자치도,전주완산구,서신동,,전북특별자치도 전주완산구 서신동 961 동아한일아파트,분양,개별난방,141627.0,20,1408.0,동아건설.한일건설,동아건설.한일건설,0632728242,,아파트,전북특별자치도 전주시 완산구 새터로 95,위탁관리,계단식,19990730,0632783051,1408,107055.02,1408.0,0.0,0.0,0.0,84388.384,18,18,2,48,54945,35.8361170710447,127.119264343624
A56079102,선변서신고을,5211112900,전북특별자치도,전주완산구,서신동,,전북특별자치도 전주완산구 서신동 246 선변서신고을,분양,개별난방,9715.85,1,154.0,(유)선변주택,(유)선변주택,0632511300,www.k-apt.net,아파트,전북특별자치도 전주시 완산구 안터3길 21,위탁관리,복도식,20020729,0632534405,155,7900.862,154.0,0.0,0.0,0.0,4939.2144,12,12,1,2,54950,35.8285616766705,127.117950338182
A56081807,서신동 롯데,5211112900,전북특별자치도,전주완산구,서신동,,전북특별자치도 전주완산구 서신동 5-10 서신동 롯데,분양,개별난방,48539.94,6,396.0,롯데건설(주),롯데건설(주),0632749955,lotte.apti.co.kr,아파트,전북특별자치도 전주시 완산구 전룡로 128-5,자치관리,계단식,19930330,0632749953,396,48539.94,0.0,276.0,18.0,102.0,40259.16,15,15,1,13,54941,35.83560031305539,127.12068558758337
A56082102,서신동비사벌,5211112900,전북특별자치도,전주완산구,서신동,,전북특별자치도 전주완산구 서신동 762-1 서신동비사벌,분양,개별난방,32210.0,2,216.0,(주)비사벌주택,(,0632747971,서신비사벌.ma-um.co.kr,아파트,전북특별자치도 전주시 완산구 당산로 34,위탁관리,계단식,19950819,0632747972,216,27799.2,0.0,0.0,216.0,0.0,23334.48,15,15,1,8,54947,35.8315461052702,127.111238587466
A56082108,서신동아아파트,5211112900,전북특별자치도,전주완산구,서신동,,전북특별자치도 전주완산구 서신동 765-1 서신동아아파트,분양,개별난방,55938.918,6,419.0,동아건설,동아건설,0632727758,서신동동아1차.ma-um.co.kr,아파트,전북특별자치도 전주시 완산구 당산로 101,위탁관리,계단식,19960831,0639017758,419,55927.06,0.0,0.0,419.0,0.0,46082.917,15,15,0,14,54949,35.8324106382081,127.118635914534
A56082109,서신현대,5211112900,전북특별자치도,전주완산구,서신동,,전북특별자치도 전주완산구 서신동 765-1 서신현대,분양,개별난방,62489.0,6,419.0,고려산업개발(주),고려산업개발(주),0632532456,서신동현대.ma-um.co.kr,아파트,전북특별자치도 전주시 완산구 서신로 90,위탁관리,계단식,19960802,0632532496,419,56000.69,0.0,0.0,419.0,0.0,46082.61,15,15,0,14,54949,35.8324203089644,127.117137934124
A56082111,서신동 제일비사벌,5211112900,전북특별자치도,전주완산구,서신동,,전북특별자치도 전주완산구 서신동 764-2 서신동 제일비사벌,분양,개별난방,53986.29,6,510.0,주식회사 비사벌 제일건설,주식회사 비사벌 제일건설,0632757169,,아파트,전북특별자치도 전주시 완산구 당산로 43,위탁관리,계단식,19951117,0632552381,510,53986.05,0.0,510.0,0.0,0.0,43252.2,15,15,0,17,54948,35.8325236637464,127.11263269603
A56082112,서신동 남양대명,5211112900,전북특별자치도,전주완산구,서신동,,전북특별자치도 전주완산구 서신동 764-1 서신동 남양대명,분양,개별난방,55458.45,6,510.0,(유)남양건설. 대명건설(유),"(유)남양건설, 대명건설(유)",0632781124,,아파트,전북특별자치도 전주시 완산구 당산로 55,위탁관리,계단식,19951219,0639011124,510,53947.8,0.0,510.0,0.0,0.0,43329.6,15,15,0,17,54948,35.8325290153182,127.114409492848
A56082114,서신동 성원,5211112900,전북특별자치도,전주완산구,서신동,,전북특별자치도 전주완산구 서신동 762-2 서신동 성원,분양,개별난방,53455.54,7,630.0,성원건설(주),성원건설(주),0632527497,,아파트,전북특별자치도 전주시 완산구 서신천변11길 22,위탁관리,계단식,19951228,0632527487,630,49983.445,630.0,0.0,0.0,0.0,37781.1,18,18,0,21,54947,35.8308332500779,127.111097479981
A56082116,서신e-편한세상 아파트,5211112900,전북특별자치도,전주완산구,서신동,,전북특별자치도 전주완산구 서신동 572 서신e-편한세상 아파트,분양,개별난방,104222.74,10,651.0,대림산업,진보산업,0632762882,e-편한세상아파트.ma-um.co.kr,아파트,전북특별자치도 전주시 완산구 여울로 161,위탁관리,계단식,20070102,0632762881,651,104222.74,0.0,0.0,501.0,150.0,86679.302,15,15,0,22,54942,35.8407130383512,127.106497813284
A56082117,서신동광진,5211112900,전북특별자치도,전주완산구,서신동,,전북특별자치도 전주완산구 서신동 761-1 서신동광진,분양,개별난방,65329.0,6,826.0,유)광진산업개발,유)광진산업개발,0632744417,,아파트,전북특별자치도 전주시 완산구 온고을로 121,위탁관리,계단식,19951229,0639024417,826,62800.78,826.0,0.0,0.0,0.0,49543.48,15,15,0,28,54947,35.8334832328735,127.107112591632
A56082118,서신동 신일,5211112900,전북특별자치도,전주완산구,서신동,,전북특별자치도 전주완산구 서신동 763-1 서신동 신일,분양,개별난방,89934.2,6,930.0,신일건설,신일건설,0632747444,서신동신일.ma-um.co.kr,아파트,전북특별자치도 전주시 완산구 온고을로 119,위탁관리,계단식,19950830,0632785033,930,70587.0,930.0,0.0,0.0,0.0,55781.4,15,15,1,31,54947,35.8326580665945,127.111833584056
A56082201,서신대우아파트,5211112900,전북특별자치도,전주완산구,서신동,,전북특별자치도 전주완산구 서신동 960-2 서신대우아파트,분양,개별난방,32655.748,2,208.0,(주)대우,(주)대우,0632554566,서신동대우.apti.co.kr,아파트,전북특별자치도 전주시 완산구 여울로 79,위탁관리,계단식,19980629,0632786005,208,28676.123,0.0,0.0,208.0,0.0,23806.68,15,15,1,7,54944,35.8367780212709,127.114950296305
A56082203,서신LG아파트,5211112900,전북특별자치도,전주완산구,서신동,,전북특별자치도 전주완산구 서신동 960-1 서신LG아파트,분양,개별난방,48347.0,4,294.0,LG건설,LG건설,0632516479,서신동엘지.ma-um.co.kr,아파트,전북특별자치도 전주시 완산구 여울로 109,위탁관리,계단식,19980626,0639016479,294,40930.2,0.0,0.0,246.0,48.0,33752.136,15,15,1,11,54944,35.8370472233167,127.112477604413
A56082204,서신동 2차동아,5211112900,전북특별자치도,전주완산구,서신동,,전북특별자치도 전주완산구 서신동 960-5 서신동 2차동아,분양,개별난방,51350.0,4,297.0,동아건설,동아건설,0632729928,,아파트,전북특별자치도 전주시 완산구 새터로 63,위탁관리,계단식,19981223,0632729935,297,43574.95,0.0,0.0,297.0,0.0,36926.19,15,15,1,10,54944,35.8357944908423,127.112941136339
A56082205,광진선수촌,5211112900,전북특별자치도,전주완산구,서신동,,전북특별자치도 전주완산구 서신동 965-2 광진선수촌,분양,개별난방,45554.24,3,390.0,광진주택,광진주택,0632535604,,아파트,전북특별자치도 전주시 완산구 서신로 102,위탁관리,계단식,19980121,0639015644,390,40573.26,0.0,390.0,0.0,0.0,33111,15,15,1,13,54945,35.8352806084304,127.116977115039
A56082206,서신동 대우.대창,5211112900,전북특별자치도,전주완산구,서신동,,전북특별자치도 전주완산구 서신동 965-3 서신동 대우.대창,분양,개별난방,47469.953,5,390.0,대창기업(주),대창기업(주),0632526923,대우대창.apti.co.kr/,아파트,전북특별자치도 전주시 완산구 새터로 100,위탁관리,계단식,19991028,0639046923,390,41763.945,0.0,390.0,0.0,0.0,33042.64,17,17,0,13,54945,35.8342606885104,127.118048643076
A56082210,서신동 2차광진장미,5211112900,전북특별자치도,전주완산구,서신동,,전북특별자치도 전주완산구 서신동 962-1 서신동 2차광진장미,분양,개별난방,40780.44,5,428.0,kj건설,kj건설,0639044680,서신동2차광진장미.ma-um.co.kr,아파트,전북특별자치도 전주시 완산구 새터로 60,위탁관리,계단식,20011115,0632785029,428,33332.64,428.0,0.0,0.0,0.0,25487.4,18,18,1,14,54944,35.8353377677042,127.112327434192
A56082213,서신동 쌍용아파트,5211112900,전북특별자치도,전주완산구,서신동,,전북특별자치도 전주완산구 서신동 761-2 서신동 쌍용아파트,분양,개별난방,45478.59,3,531.0,(유)지성주택건설,(유)지성주택건설,0632715586,,아파트,전북특별자치도 전주시 완산구 당산로 11,위탁관리,복도식,19960404,0639015586,531,43884.28,531.0,0.0,0.0,0.0,31343.868,18,18,0,10,54947,35.8322101195463,127.107813337129
A56082215,서신동 중흥아파트,5211112900,전북특별자치도,전주완산구,서신동,,전북특별자치도 전주완산구 서신동 962-2 서신동 중흥아파트,분양,개별난방,56128.62,6,630.0,중흥건설,중흥건설,0632530406,,아파트,전북특별자치도 전주시 완산구 새터로 74,위탁관리,계단식,19980828,0639040403,630,37771.65,630.0,0.0,0.0,0.0,37771.65,15,15,0,21,54944,35.8352130856806,127.114279755957
A10020822,두레아파트,5211113200,전북특별자치도,전주완산구,평화동1가,,전북특별자치도 전주완산구 평화동1가 431- 두레아파트,분양,개별난방,5035.63,1,62.0,두레아파트,두레아파트,0632321331,,아파트,전북특별자치도 전주시 완산구 덕적골3길 36-10,자치관리,계단식,20030807,,62,1488.0,42.0,20.0,0.0,0.0,3913.6522,1,14,0,0,,35.7975914264,127.143129118731
A10025002,플러스하임,5211113200,전북특별자치도,전주완산구,평화동1가,,전북특별자치도 전주완산구 평화동1가 767 플러스하임,임대,개별난방,31161.0,3,249.0,유한회사플러스건설,유한회사거목종합개발,0632826481,,아파트,전북특별자치도 전주시 완산구 덕적골3길 60,위탁관리,계단식,20200207,0632826482,249,22533.557,159.0,90.0,0.0,0.0,15708.1692,25,25,1,6,55119,35.7948488177112,127.142727836101
A56077801,평화코오롱아파트,5211113200,전북특별자치도,전주완산구,평화동1가,,전북특별자치도 전주완산구 평화동1가 696 평화코오롱아파트,분양,개별난방,155304.6,12,1259.0,코오롱건설,코오롱건설,0632242278,,아파트,전북특별자치도 전주시 완산구 평화로 181,위탁관리,계단식,19950109,0632245239,1259,142978.5,0.0,974.0,249.0,36.0,116245.15,20,20,1,36,55122,35.7926445816571,127.135815427238
A56077802,평화동오네뜨,5211113200,전북특별자치도,전주완산구,평화동1가,,전북특별자치도 전주완산구 평화동1가 766 평화동오네뜨,분양,개별난방,59221.195,8,431.0,남해종합개발,평화동지역주택조합,0632211811,,아파트,전북특별자치도 전주시 완산구 덕적골1길 50,위탁관리,계단식,20131223,0632211812,431,42985.492,0.0,431.0,0.0,0.0,32103.4399,15,15,2,20,55121,35.7933183608106,127.139753145714
A56077803,효성양지마을,5211113200,전북특별자치도,전주완산구,평화동1가,,전북특별자치도 전주완산구 평화동1가 412 효성양지마을,분양,개별난방,14717.411,2,206.0,효성종합건설,효성종합건설,0639031006,,아파트,전북특별자치도 전주시 완산구 장승배기3길 8,위탁관리,복도식,20030731,0632320403,206,11586.08,206.0,0.0,0.0,0.0,8957.711,7,7,1,3,55107,35.8003909698345,127.142564500368
A56078802,평화동 일성,5211113200,전북특별자치도,전주완산구,평화동1가,,전북특별자치도 전주완산구 평화동1가 522 평화동 일성,분양,개별난방,49220.535,4,488.0,일성건설(주),일성건설(주),0632277667,평화일성아파트.apti.co.kr,아파트,전북특별자치도 전주시 완산구 평화19길 20,자치관리,계단식,19970827,0632277696,488,44810.95,238.0,250.0,0.0,0.0,34592.54,20,20,0,3,55121,35.7938731490196,127.138532848795
A56084101,평화동 극동평화,5211113200,전북특별자치도,전주완산구,평화동1가,,전북특별자치도 전주완산구 평화동1가 570-15 평화동 극동평화,분양,개별난방,15735.0,2,158.0,(주)극동건설,(주)극동건설,0632214661,,아파트,전북특별자치도 전주시 완산구 덕적골1길 14,자치관리,계단식,19901126,0632224661,158,15603.0,0.0,158.0,0.0,0.0,12640.83,11,11,1,8,55121,35.7962199365737,127.138074176414
A56084303,평화동 한성,5211113200,전북특별자치도,전주완산구,평화동1가,,전북특별자치도 전주완산구 평화동1가 467 평화동 한성,분양,개별난방,44531.832,3,496.0,(주)한성,(주)한성,0632844658,,아파트,전북특별자치도 전주시 완산구 덕적골1길 33,위탁관리,계단식,19961212,0639034658,496,42613.35,376.0,120.0,0.0,0.0,31841.868,20,20,0,13,55120,35.7946934367523,127.140819528124
A56084305,평화주공3단지,5211113200,전북특별자치도,전주완산구,평화동1가,,전북특별자치도 전주완산구 평화동1가 445-1 평화주공3단지,분양,중앙난방,38841.58,3,720.0,대한주택공사,대한주택공사,0632882205,,아파트,전북특별자치도 전주시 완산구 덕적골2길 22,위탁관리,복도식,19921106,0632882209,720,38276.4,720.0,0.0,0.0,0.0,29332.8,15,15,0,8,55120,35.7966216949817,127.14019855775
A56084306,평화주공2단지아파트,5211113200,전북특별자치도,전주완산구,평화동1가,,전북특별자치도 전주완산구 평화동1가 445-6 평화주공2단지아파트,분양,중앙난방,261927.6,6,1350.0,대한주택공사,대한주택공사,0632313158,,아파트,전북특별자치도 전주시 완산구 덕적골2길 11,위탁관리,복도식,19920410,0632323159,1350,71746.65,1350.0,0.0,0.0,0.0,54999,15,15,0,15,55119,35.7966460631753,127.141707096347
A56084308,전주평화주공1아파트,5211113200,전북특별자치도,전주완산구,평화동1가,,전북특별자치도 전주완산구 평화동1가 445-1 전주평화주공1아파트,임대,중앙난방,68072.81,6,1650.0,한국토지주택공사,"삼성중공업, 성원건설",0632856946,www.kohom.co.kr,아파트,전북특별자치도 전주시 완산구 덕적골2길 22,위탁관리,복도식,19911015,0632856947,1650,67693.26,1650.0,0.0,0.0,0.0,45211.5,15,15,1,22,55120,35.7966216949817,127.14019855775
A56084404,평화동 지안리즈아파트,5211113200,전북특별자치도,전주완산구,평화동1가,,전북특별자치도 전주완산구 평화동1가 761 평화동 지안리즈아파트,임대,개별난방,46993.0,7,500.0,(유)예림,전북개발공사,0632880555,평화동 지안리즈아파트.ma-um.co.kr,아파트,전북특별자치도 전주시 완산구 덕적골2길 66,위탁관리,복도식,20060801,0632880556,500,35832.87,500.0,0.0,0.0,0.0,25709.3632,15,15,1,7,55120,35.7933517205207,127.141207765031
A56086517,전주평화4,5211113200,전북특별자치도,전주완산구,평화동1가,,전북특별자치도 전주완산구 평화동1가 663-3 전주평화4,임대,지역난방,53553.76,7,1223.0,성원건설,한국토지주택공사,0632247840,www.kohom.or.kr,아파트,전북특별자치도 전주시 완산구 모악로 4726,위탁관리,복도식,19950620,0632250574,1224,52731.695,1223.0,0.0,0.0,0.0,33725.61,15,15,1,16,55123,35.7911199889809,127.1328429523
A10021315,평화양우내안애,5211113300,전북특별자치도,전주완산구,평화동2가,,전북특별자치도 전주완산구 평화동2가 954- 평화양우내안애,분양,개별난방,0.0,1,145.0,양우건설,양우건설,0632226481,,아파트,전북특별자치도 전주시 완산구 평화2길 6,위탁관리,혼합식,20170612,0632226481,145,14746.17,45.0,100.0,0.0,0.0,11130.3423,19,19,1,6,,35.7819979182585,127.133418297941
A10024658,전주 평화2차 골드클래스,5211113300,전북특별자치도,전주완산구,평화동2가,,전북특별자치도 전주완산구 평화동2가 964 전주 평화2차 골드클래스,분양,개별난방,63519.4,5,398.0,부광건설,골드디움(주),0632216481,,아파트,전북특별자치도 전주시 완산구 맏내로 37,위탁관리,계단식,20200814,0632236482,398,46579.344,0.0,340.0,58.0,0.0,36037.5592,29,29,1,12,55140,35.7849395335699,127.125574676172
A10024679,평화골드클래스3차아파트,5211113300,전북특별자치도,전주완산구,평화동2가,,전북특별자치도 전주완산구 평화동2가 966 평화골드클래스3차아파트,분양,개별난방,35332.31,2,225.0,보광종합건설,골드디움(주),0632374598,,아파트,전북특별자치도 전주시 완산구 맏내로 38,위탁관리,계단식,20200814,0632374598,225,25330.25,0.0,225.0,0.0,0.0,19123.0792,27,27,1,7,55140,35.7844982770817,127.126260311997
A10026054,평화 광신프로그레스아파트,5211113300,전북특별자치도,전주완산구,평화동2가,,전북특별자치도 전주완산구 평화동2가 956 평화 광신프로그레스아파트,임대,개별난방,130068.62,8,856.0,(주)광신종합건설,(주)광신주택,0632247755,,아파트,전북특별자치도 전주시 완산구 맏내로 28,위탁관리,계단식,20180831,0639010077,856,128872.24,0.0,856.0,0.0,0.0,69650.3647,27,27,1,17,55140,35.7845346035966,127.127451188206
A10026514,평화골드클래스아파트,5211113300,전북특별자치도,전주완산구,평화동2가,,전북특별자치도 전주완산구 평화동2가 955 평화골드클래스아파트,분양,개별난방,57184.0,4,396.0,보광종합건설(주),골드종합건설(주),0632261827,,아파트,전북특별자치도 전주시 완산구 구이로 2077,위탁관리,계단식,20180118,0632231827,397,41586.65,0.0,396.0,0.0,0.0,31254.1034,28,28,1,9,55126,35.7840001818212,127.129197948902
A56086501,평화동 케이제이모악,5211113300,전북특별자치도,전주완산구,평화동2가,,전북특별자치도 전주완산구 평화동2가 713-1 평화동 케이제이모악,분양,개별난방,17897.0,3,165.0,(유)광진산업개발,(유)광진산업개발,0632270147,KJ모악.apti.co.kr,아파트,전북특별자치도 전주시 완산구 양지3길 7,위탁관리,계단식,20010912,0632270027,165,12342.0,0.0,165.0,0.0,0.0,12338.08,15,15,1,6,55136,35.7901736500607,127.117254000348
A56086505,평화동 미송하이존,5211113300,전북특별자치도,전주완산구,평화동2가,,전북특별자치도 전주완산구 평화동2가 310-1 평화동 미송하이존,분양,개별난방,55552.0,4,438.0,미송건설(주),미송건설(주),0632288735,평화동미송하이존.ma-um.co.kr/,아파트,전북특별자치도 전주시 완산구 모악로 4681,위탁관리,계단식,20030210,0639038901,438,47014.895,0.0,438.0,0.0,0.0,37139.8422,15,15,0,16,55135,35.7873596680014,127.127575492266
A56086508,평화동 현대,5211113300,전북특별자치도,전주완산구,평화동2가,,전북특별자치도 전주완산구 평화동2가 336-6 평화동 현대,분양,개별난방,54580.414,5,539.0,현대산업개발,현대산업개발,0632273380,phhd.apti.co.kr,아파트,전북특별자치도 전주시 완산구 소대배기로 33,위탁관리,계단식,19960529,0639033380,539,51357.8,232.0,307.0,0.0,0.0,38854.32,20,20,1,0,55123,35.7878200245373,127.134127438322
A56086509,동도미소드림,5211113300,전북특별자치도,전주완산구,평화동2가,,전북특별자치도 전주완산구 평화동2가 457-4 동도미소드림,분양,개별난방,72607.32,7,541.0,동도건설,동도건설,0632360017,www.apartz.com/homepage/5608411/index.html,아파트,전북특별자치도 전주시 완산구 모악로 4651,위탁관리,계단식,20041016,0639020220,541,63243.26,0.0,450.0,91.0,0.0,48547.381,20,20,0,17,55135,35.7861790478704,127.127285241479
A56086510,평화동 우미,5211113300,전북특별자치도,전주완산구,평화동2가,,전북특별자치도 전주완산구 평화동2가 312-6 평화동 우미,분양,개별난방,52487.88,3,603.0,우미산업개발,우미산업개발,0632270956,https://xn--hg3b19qnrkooc.apti.co.kr/default.asp,아파트,전북특별자치도 전주시 완산구 모악로 4685,위탁관리,복도식,19960627,0632270952,603,50124.375,603.0,0.0,0.0,0.0,36173.88,20,20,1,7,55135,35.7879718131169,127.129509117815
A56086513,평화동 주공5단지,5211113300,전북특별자치도,전주완산구,평화동2가,,전북특별자치도 전주완산구 평화동2가 292 평화동 주공5단지,분양,중앙난방,63675.0,7,838.0,대한주택공사,대한주택공사,0632261963,,아파트,전북특별자치도 전주시 완산구 모악로 4724,위탁관리,복도식,19950620,0632263774,838,63674.45,838.0,0.0,0.0,0.0,46899.49,15,15,1,7,55123,35.7901028947187,127.132776991198
A56086602,평화동우성신성타운,5211113300,전북특별자치도,전주완산구,평화동2가,,전북특별자치도 전주완산구 평화동2가 259-12 평화동우성신성타운,분양,개별난방,34432.75,2,270.0,우성건설,우성건설,0632271087,,아파트,전북특별자치도 전주시 완산구 맏내1길 5,위탁관리,계단식,20031212,0632251087,270,22475.719,0.0,270.0,0.0,0.0,22475.718,15,15,1,10,55135,35.7904954450845,127.130259548226
A56086604,삼성강남아파트,5211113300,전북특별자치도,전주완산구,평화동2가,,전북특별자치도 전주완산구 평화동2가 259-5 삼성강남아파트,분양,개별난방,33754.64,2,422.0,(유)삼성주택건설,(유)삼성주택건설,0632247559,삼성강남.apti.co.kr/,아파트,전북특별자치도 전주시 완산구 모악로 4705,위탁관리,복도식,19931009,0632247684,422,33480.973,422.0,0.0,0.0,0.0,25311.56,15,15,0,8,55135,35.789470674594,127.129538871687
A56086607,두산경복궁아파트,5211113300,전북특별자치도,전주완산구,평화동2가,,전북특별자치도 전주완산구 평화동2가 180 두산경복궁아파트,분양,개별난방,54204.26,4,477.0,(유)신화토건,(유)두산주택건설,0632360500,평화동두산경복궁.ma-um.co.kr,아파트,전북특별자치도 전주시 완산구 평화로 120,자치관리,계단식,20050413,0632253815,477,49551.73,129.0,348.0,0.0,0.0,37175.25,20,20,0,0,55124,35.787527971901,127.135211843338
A56086614,평화동 송정써미트,5211113300,전북특별자치도,전주완산구,평화동2가,,전북특별자치도 전주완산구 평화동2가 943 평화동 송정써미트,분양,개별난방,119779.53,9,888.0,(유)송정건설,(유)송정건설,0632271711,,아파트,전북특별자치도 전주시 완산구 평화7길 40,위탁관리,계단식,20051122,0639041713,895,102488.07,0.0,888.0,0.0,0.0,75143.6556,20,20,1,26,55124,35.7851073075438,127.139124222164
A56086703,평화동 두산푸른솔,5211113300,전북특별자치도,전주완산구,평화동2가,,전북특별자치도 전주완산구 평화동2가 712-1 평화동 두산푸른솔,분양,개별난방,31681.0,1,279.0,1,1,0632276977,www.khmais.net,아파트,전북특별자치도 전주시 완산구 양지1길 16-3,위탁관리,혼합식,20011126,0639046977,279,26031.87,117.0,162.0,0.0,0.0,20587.365,18,18,1,6,55132,35.790927592574,127.118871016763
A56086706,평화동 동아현대,5211113300,전북특별자치도,전주완산구,평화동2가,,전북특별자치도 전주완산구 평화동2가 843-1 평화동 동아현대,분양,개별난방,72568.0,5,473.0,현대산업개발,현대,0632228831,평화동동아현대.ma-um.co.kr,아파트,전북특별자치도 전주시 완산구 맏내3길 22,자치관리,계단식,19991202,0639018831,473,64998.348,0.0,155.0,239.0,79.0,54149.42,22,22,0,13,55134,35.7931331287383,127.129049122308
A56086711,평화동 호반리젠시빌,5211113300,전북특별자치도,전주완산구,평화동2가,,전북특별자치도 전주완산구 평화동2가 889-7 평화동 호반리젠시빌,분양,개별난방,79670.99,6,639.0,호반리젠시빌/건설(주),호반리젠시빌/건설(주),0632290999,,아파트,전북특별자치도 전주시 완산구 평화로 95,위탁관리,계단식,20020424,0639043337,639,69708.51,0.0,639.0,0.0,0.0,54158.7645,20,20,0,17,55126,35.7851097512401,127.133144207691
A56087112,평화동주공그린타운1단지,5211113300,전북특별자치도,전주완산구,평화동2가,,전북특별자치도 전주완산구 평화동2가 897-1 평화동주공그린타운1단지,분양,개별난방,69350.19,10,730.0,경남기업,한국토지주택공사,0639015077,평화동주공그린타운1단지.ma-um.co.kr,아파트,전북특별자치도 전주시 완산구 구이로 2094,위탁관리,계단식,20020125,0639015078,730,47730.0,538.0,192.0,0.0,0.0,47784.18,20,20,0,19,55126,35.7832229724576,127.131981011053
A56087115,평화동주공그린타운2단지,5211113300,전북특별자치도,전주완산구,평화동2가,,전북특별자치도 전주완산구 평화동2가 896-1 평화동주공그린타운2단지,분양,개별난방,121275.81,16,1329.0,"국제, 호반",한국주택공사,0632294500,,아파트,전북특별자치도 전주시 완산구 평화로 100,위탁관리,혼합식,20021025,0639022586,1329,120819.02,1137.0,192.0,0.0,0.0,79537.48,20,20,1,35,55125,35.7866363549805,127.134886792799
A56087516,평화동동신아파트,5211113300,전북특별자치도,전주완산구,평화동2가,,전북특별자치도 전주완산구 평화동2가 567 평화동동신아파트,분양,개별난방,177034.34,16,1558.0,동신건설,동신건설,0632260854,동신.ma-um.co.kr,아파트,전북특별자치도 전주시 완산구 양지2길 10,위탁관리,계단식,19980618,0639020854,1558,143471.94,840.0,640.0,78.0,0.0,111762.54,20,20,2,42,55132,35.7909968063981,127.120863353151
A56087517,평화영무예다음,5211113300,전북특별자치도,전주완산구,평화동2가,,전북특별자치도 전주완산구 평화동2가 952 평화영무예다음,분양,개별난방,58975.203,5,407.0,(주)영무토건,(주)영무건설,0632292550,,아파트,전북특별자치도 전주시 완산구 구이로 2065,위탁관리,계단식,20121130,0632292551,407,45002.805,0.0,407.0,0.0,0.0,34425.71,15,15,2,14,55126,35.7824370437381,127.128171315815
A56087518,현대엠코타운,5211113300,전북특별자치도,전주완산구,평화동2가,,전북특별자치도 전주완산구 평화동2가 953 현대엠코타운,분양,개별난방,69965.945,8,510.0,현대엠코(주),나리산업개발,0632217250,amcotown.apt.co.kr,아파트,전북특별자치도 전주시 완산구 양지3길 25,위탁관리,혼합식,20130131,0632267251,510,50340.332,193.0,317.0,0.0,0.0,38508.3968,15,15,1,19,55136,35.7897711842411,127.120406531839
A56087918,전주평화푸른마을,5211113300,전북특별자치도,전주완산구,평화동2가,,전북특별자치도 전주완산구 평화동2가 941 전주평화푸른마을,임대,개별난방,51107.223,7,686.0,극동건설,대한주택공사,0632298226,www.kohom.or.kr,아파트,전북특별자치도 전주시 완산구 평화9길 16,위탁관리,계단식,20030409,0632298227,686,35434.64,686.0,0.0,0.0,0.0,35434.64,15,15,1,15,55124,35.7875946860278,127.138363001293
A10021672,광진공작아파트,5211113700,전북특별자치도,전주완산구,삼천동1가,,전북특별자치도 전주완산구 삼천동1가 138-6 광진공작아파트,분양,,17642.0,5,270.0,광진,광진,0632217415,,아파트,전북특별자치도 전주시 완산구 백제대로 86,자치관리,계단식,19860421,0639017415,270,13635.0,270.0,0.0,0.0,0.0,15989.4,5,5,0,0,,35.8018773560008,127.127879045266
A10023321,아너센트럴신원리브웰아파트,5211113700,전북특별자치도,전주완산구,삼천동1가,,전북특별자치도 전주완산구 삼천동1가 585-5 아너센트럴신원리브웰아파트,분양,개별난방,79802.6,6,499.0,신원건설,삼천쌍용주택재건축정비사업조합,0632268400,,아파트,전북특별자치도 전주시 완산구 백제대로 85,위탁관리,계단식,20230302,0632268401,499,53892.316,56.0,443.0,0.0,0.0,40915.7137,18,18,2,19,55083,35.8012763256746,127.12572185625
A10026866,삼천삼익아파트,5211113700,전북특별자치도,전주완산구,삼천동1가,,전북특별자치도 전주완산구 삼천동1가 590-1 삼천삼익아파트,분양,개별난방,14832.34,1,145.0,(유)삼익주택건설,한서종합건설,0632212310,,아파트,전북특별자치도 전주시 완산구 용리로 133,자치관리,계단식,19921118,0639012310,145,13781.38,0.0,145.0,0.0,0.0,12284.98,15,15,1,0,55083,35.7976871784531,127.124380153942
A56029108,전주 삼천주공4.5단지 아파트,5211113700,전북특별자치도,전주완산구,삼천동1가,,전북특별자치도 전주완산구 삼천동1가 766-1 전주 삼천주공4.5단지 아파트,분양,개별난방,74950.0,11,804.0,한국주택공사,한양건설,0632283582,https://삼천주공4-5단지.apti.co.kr,아파트,전북특별자치도 전주시 완산구 장승배기로 13,위탁관리,계단식,20000320,0632283581,804,74940.77,654.0,150.0,0.0,0.0,51490.26,18,18,1,26,55087,35.7931685987647,127.114493312758
A56075601,삼천세창짜임,5211113700,전북특별자치도,전주완산구,삼천동1가,,전북특별자치도 전주완산구 삼천동1가 585-10 삼천세창짜임,분양,개별난방,97072.37,9,674.0,(주)세창,(주)세창,0632291169,cafe.daum.net/Zzaim,아파트,전북특별자치도 전주시 완산구 용리로 179,위탁관리,계단식,20060720,0639051170,674,77338.11,107.0,295.0,272.0,0.0,61017.6493,20,20,1,18,55083,35.7999596695646,127.127519852049
A56075602,삼천세경,5211113700,전북특별자치도,전주완산구,삼천동1가,,전북특별자치도 전주완산구 삼천동1가 585-3 삼천세경,분양,개별난방,29232.0,8,480.0,(주)세경건설,(주)세경건설,0632214184,삼천세경.ma-um.co.kr,아파트,전북특별자치도 전주시 완산구 성지산로 30,자치관리,계단식,19861203,0632258891,480,26524.8,480.0,0.0,0.0,0.0,26524.8,5,5,0,0,55083,35.7987657488865,127.122685782825
A56075604,삼천주공6단지,5211113700,전북특별자치도,전주완산구,삼천동1가,,전북특별자치도 전주완산구 삼천동1가 764-1 삼천주공6단지,임대,개별난방,61320.066,10,854.0,대한주택공사,.,0632283584,kohom.co.kr,아파트,전북특별자치도 전주시 완산구 삼천천변1길 9,위탁관리,복도식,20000327,0632283583,854,61319.94,854.0,0.0,0.0,0.0,35655.44,15,15,1,20,55086,35.7953688534489,127.111424987084
A56075605,오성대우,5211113700,전북특별자치도,전주완산구,삼천동1가,,전북특별자치도 전주완산구 삼천동1가 705 오성대우,분양,,28909.115,8,265.0,모름,모름,0632228873,,아파트,전북특별자치도 전주시 완산구 솟대로 24,자치관리,계단식,19911021,0632248874,265,28909.088,0.0,265.0,0.0,0.0,21200.4,5,5,0,0,55092,35.7961026216519,127.126582445415
A56075606,삼천이안아파트,5211113700,전북특별자치도,전주완산구,삼천동1가,,전북특별자치도 전주완산구 삼천동1가 585-12 삼천이안아파트,분양,개별난방,120397.48,9,702.0,(주)대우산업개발,삼천주공2단지 재건축 조합,0632266213,,아파트,전북특별자치도 전주시 완산구 용리로 165,위탁관리,계단식,20141127,0632266214,702,62154.793,29.0,600.0,73.0,0.0,61399.33,15,15,4,0,55083,35.799123963633,127.124910427707
A56080405,삼천동 대왕장미타운,5211113700,전북특별자치도,전주완산구,삼천동1가,,전북특별자치도 전주완산구 삼천동1가 305-10 삼천동 대왕장미타운,분양,개별난방,34385.61,4,340.0,대왕건설(주),대왕건설(주),0632257706,,아파트,전북특별자치도 전주시 완산구 난전들로 257,자치관리,계단식,19970510,0632257884,340,30723.28,176.0,164.0,0.0,0.0,24468.8,20,20,1,9,55131,35.7911005338474,127.115835243875
A56080418,삼천동 흥건1차,5211113700,전북특별자치도,전주완산구,삼천동1가,,전북특별자치도 전주완산구 삼천동1가 300-3 삼천동 흥건1차,분양,개별난방,63538.93,6,538.0,흥건사,흥건사,0632287020,,아파트,전북특별자치도 전주시 완산구 삼천천변1길 46,위탁관리,계단식,19991230,0632287045,538,61573.88,0.0,404.0,134.0,0.0,49497.24,19,19,1,17,55087,35.7943200223932,127.115280939403
A56080421,삼천남양아파트,5211113700,전북특별자치도,전주완산구,삼천동1가,,전북특별자치도 전주완산구 삼천동1가 290-8 삼천남양아파트,분양,개별난방,54925.0,6,637.0,(주)남양건설,(주)남양건설,0632267338,삼천동남양.ma-um.co.kr/,아파트,전북특별자치도 전주시 완산구 삼천천변1길 32,자치관리,계단식,19981229,0639027338,637,48433.086,637.0,0.0,0.0,0.0,38196.1125,18,18,1,0,55087,35.7939459473237,127.113343181926
A56080809,삼천동 쌍용2차,5211113700,전북특별자치도,전주완산구,삼천동1가,,전북특별자치도 전주완산구 삼천동1가 585-2 삼천동 쌍용2차,분양,개별난방,22298.0,5,400.0,지성주택건설,지성주택건설,0632233583,,아파트,전북특별자치도 전주시 완산구 성지산로 36,자치관리,혼합식,19871215,0639033583,400,21357.4,400.0,0.0,0.0,0.0,17439.4,5,5,0,0,55083,35.8000696999901,127.122682477372
A56080812,삼천동 광진목화,5211113700,전북특별자치도,전주완산구,삼천동1가,,전북특별자치도 전주완산구 삼천동1가 585 삼천동 광진목화,분양,개별난방,34275.59,8,460.0,(주)광진주택,광진건설,0632238909,,아파트,전북특별자치도 전주시 완산구 성지산로 62,자치관리,계단식,19870415,0632238910,460,31289.2,460.0,0.0,0.0,0.0,27572.4,5,5,0,0,55083,35.8012815067394,127.124205536413
A56080816,삼천동 주공3단지아파트,5211113700,전북특별자치도,전주완산구,삼천동1가,,전북특별자치도 전주완산구 삼천동1가 585-4 삼천동 주공3단지아파트,분양,개별난방,26238.95,9,500.0,대한주택공사,남양건설,0632237118,삼천동주공3단지.ma-um.co.kr,아파트,전북특별자치도 전주시 완산구 용리로 157,자치관리,계단식,19890505,0632255186,503,25967.3,500.0,0.0,0.0,0.0,20769.3,5,5,0,0,55083,35.7982171650932,127.12563837984
A56080917,흥건삼천2차,5211113700,전북특별자치도,전주완산구,삼천동1가,,전북특별자치도 전주완산구 삼천동1가 289-5 흥건삼천2차,분양,개별난방,69678.42,6,508.0,(주)흥건사,(주)흥건사,0632221164,삼천동흥건2차.ma-um.co.kr,아파트,전북특별자치도 전주시 완산구 삼천천변1길 45,위탁관리,계단식,20000318,0639041164,508,60942.992,0.0,336.0,172.0,0.0,48316.56,19,19,1,16,55086,35.7957242162128,127.115255422157
A56080919,삼천동 삼천하이츠,5211113700,전북특별자치도,전주완산구,삼천동1가,,전북특별자치도 전주완산구 삼천동1가 722-2 삼천동 삼천하이츠,분양,개별난방,51035.0,5,540.0,승일건설(주),승일건설(주),0632268040,삼천하이츠.apti.co.kr,아파트,전북특별자치도 전주시 완산구 강변로 106,위탁관리,계단식,19970422,0632268054,540,47295.0,360.0,180.0,0.0,0.0,36855,15,15,0,18,55085,35.8006135328669,127.112632883625
A56080920,삼천동 우성2차,5211113700,전북특별자치도,전주완산구,삼천동1가,,전북특별자치도 전주완산구 삼천동1가 287-4 삼천동 우성2차,분양,개별난방,51877.01,3,561.0,우성종합건설,우성종합건설,0632222874,삼천동우성2차.ma-um.co.kr,아파트,전북특별자치도 전주시 완산구 삼천천변2길 51,위탁관리,계단식,19981218,0639012874,561,42654.74,561.0,0.0,0.0,0.0,32763.6,19,19,1,18,55086,35.7969508822042,127.115019236272
A56080922,삼천동 호반리젠시빌,5211113700,전북특별자치도,전주완산구,삼천동1가,,전북특별자치도 전주완산구 삼천동1가 286-10 삼천동 호반리젠시빌,분양,개별난방,90338.0,6,709.0,호반건설,리젠시빌건설(주),0639033337,cafe.daum.net/sdx0999,아파트,전북특별자치도 전주시 완산구 삼천천변3길 20,위탁관리,계단식,20020321,0632284999,709,60091.65,0.0,709.0,0.0,0.0,60091.6495,18,18,1,24,55086,35.796754463979,127.112095767471
A56081002,삼천동 안행현대,5211113700,전북특별자치도,전주완산구,삼천동1가,,전북특별자치도 전주완산구 삼천동1가 740-3 삼천동 안행현대,분양,개별난방,35998.547,3,296.0,현대산업개발(주),현대산업개발(주),0632239085,cafe.daum.net/hd9085,아파트,전북특별자치도 전주시 완산구 안행2길 14,위탁관리,계단식,19980428,0632239083,296,33720.77,0.0,233.0,63.0,0.0,27901.5,15,15,0,11,55105,35.8011288162613,127.130517087506
A56081006,삼천동 금호청솔아파트,5211113700,전북특별자치도,전주완산구,삼천동1가,,전북특별자치도 전주완산구 삼천동1가 740-1 삼천동 금호청솔아파트,분양,개별난방,44698.0,6,349.0,금호산업(주),금호산업(주),0632279065,,아파트,전북특별자치도 전주시 완산구 안행5길 11,위탁관리,계단식,19950526,0632279075,349,41383.254,0.0,252.0,48.0,49.0,33193.776,13,13,1,14,55105,35.8018527914994,127.131022759184
A56081023,삼천동 신일강변,5211113700,전북특별자치도,전주완산구,삼천동1가,,전북특별자치도 전주완산구 삼천동1가 723-2 삼천동 신일강변,분양,개별난방,85834.49,5,900.0,(주)신일,(주)신일,0632254522,https://xn--939a392amse9tccyde7x1qa.apti.co.kr/aptHome/,아파트,전북특별자치도 전주시 완산구 강변로 98,위탁관리,계단식,19970116,0632254564,900,80190.0,540.0,360.0,0.0,0.0,62960.4,18,18,1,25,55085,35.7998651021432,127.111690029941
A56081101,삼천동 두일하나,5211113700,전북특별자치도,전주완산구,삼천동1가,,전북특별자치도 전주완산구 삼천동1가 306-8 삼천동 두일하나,분양,개별난방,18690.717,1,176.0,두일건설(주),전주시 교원주택조합,0632245397,,아파트,전북특별자치도 전주시 완산구 장승배기로 50,위탁관리,계단식,19950227,0639035397,176,15418.48,88.0,88.0,0.0,0.0,12728.62,15,15,2,6,55132,35.7918329325488,127.118485750465
A56081303,삼천시영개나리,5211113700,전북특별자치도,전주완산구,삼천동1가,,전북특별자치도 전주완산구 삼천동1가 705-1 삼천시영개나리,분양,개별난방,21993.0,10,300.0,전주시청,전주시청,0632254644,삼천동개나리.ma-um.co.kr,아파트,전북특별자치도 전주시 완산구 용리로 162,위탁관리,계단식,19910429,0639017027,300,20790.0,300.0,0.0,0.0,0.0,17703.75,5,5,0,0,55092,35.796238685112,127.127970567867
A56081304,삼천동광진궁전,5211113700,전북특별자치도,전주완산구,삼천동1가,,전북특별자치도 전주완산구 삼천동1가 705-6 삼천동광진궁전,분양,개별난방,57074.38,6,355.0,광진건설,광진건설,0632273054,광진궁전.apti.co.kr,주상복합,전북특별자치도 전주시 완산구 장승배기로 145,자치관리,계단식,19920810,0632273050,355,47886.19,0.0,0.0,178.0,177.0,47886.19,13,13,0,15,55092,35.7954333000525,127.128323606107
A56081307,삼천동 쌍용3단지,5211113700,전북특별자치도,전주완산구,삼천동1가,,전북특별자치도 전주완산구 삼천동1가 705-3 삼천동 쌍용3단지,분양,개별난방,27199.6,5,360.0,(유)지성건설,(유)쌍용주택건설,0632246456,,아파트,전북특별자치도 전주시 완산구 용리로 178,위탁관리,계단식,19910729,0632243377,360,25077.6,360.0,0.0,0.0,0.0,21506.4,6,6,0,0,55092,35.7978979959281,127.128398481713
A56081310,삼천동 신일,5211113700,전북특별자치도,전주완산구,삼천동1가,,전북특별자치도 전주완산구 삼천동1가 705-4 삼천동 신일,분양,개별난방,31131.0,6,410.0,(주)신일,(주)신일,0632231089,,아파트,전북특별자치도 전주시 완산구 백제대로 31,위탁관리,계단식,19910801,0639011089,410,29626.19,410.0,0.0,0.0,0.0,24585.65,6,6,0,0,55092,35.7974374590586,127.129063715801
A56081311,삼천동 우성그린,5211113700,전북특별자치도,전주완산구,삼천동1가,,전북특별자치도 전주완산구 삼천동1가 705-7 삼천동 우성그린,분양,개별난방,35384.0,5,444.0,(유)우성건설,(유)우성주택,0632247217,,아파트,전북특별자치도 전주시 완산구 솟대로 10,자치관리,계단식,19910824,0639047218,444,32290.922,444.0,0.0,0.0,0.0,26510.28,6,6,1,0,55092,35.7952706026866,127.127239228456
A56081314,삼천우성,5211113700,전북특별자치도,전주완산구,삼천동1가,,전북특별자치도 전주완산구 삼천동1가 705-5 삼천우성,분양,개별난방,64230.67,6,488.0,우성건설,우성건설,0632228715,삼천우성.ma-um.co.kr,아파트,전북특별자치도 전주시 완산구 백제대로 13,자치관리,계단식,19930311,0632270555,488,64230.67,0.0,0.0,488.0,0.0,54677.095,15,15,0,19,55092,35.7962804451544,127.130623212699
A10020324,동방아로채아파트,5211114000,전북특별자치도,전주완산구,효자동1가,,전북특별자치도 전주완산구 효자동1가 802- 동방아로채아파트,분양,개별난방,16140.17,3,82.0,성우건설(주),동방디앤씨,0632224118,,주상복합,전북특별자치도 전주시 완산구 효동3길 17-5,위탁관리,혼합식,20141021,0632210084,122,9601.509,82.0,0.0,0.0,0.0,4772.4378,5,5,2,13,,35.8053146282709,127.129611945965
A10021823,남양황제아파트,5211114000,전북특별자치도,전주완산구,효자동1가,,전북특별자치도 전주완산구 효자동1가 637- 남양황제아파트,분양,개별난방,15475.0,3,142.0,남양건설,남양건설,0632362508,,아파트,전북특별자치도 전주시 완산구 백제대로 159,자치관리(직영),계단식,19901124,0632233508,142,11928.0,0.0,142.0,0.0,0.0,12002.05,1,6,1,0,,35.8068958324458,127.122270660505
A10023726,힐스테이트어울림효자,5211114000,전북특별자치도,전주완산구,효자동1가,,전북특별자치도 전주완산구 효자동1가 161-1 힐스테이트어울림효자,혼합,개별난방,193564.48,17,1248.0,"현대건설, 금호건설",효자주택재개발정비사업조합,0632211120,힐스테이트어울림효자.apti.co.kr/,아파트,전북특별자치도 전주시 완산구 용머리로 135,위탁관리,계단식,20220628,0632211170,1248,127488.7,132.0,1048.0,68.0,0.0,196504.6209,17,17,3,40,55049,35.8063110478475,127.126238952662
A10024959,광진진주아파트,5211114000,전북특별자치도,전주완산구,효자동1가,,전북특별자치도 전주완산구 효자동1가 636-1 광진진주아파트,분양,개별난방,3540.77,4,135.0,광진산업개발주식회사,광진산업개발주식회사,0632238404,,아파트,전북특별자치도 전주시 완산구 신봉로 64,자치관리,계단식,19901123,0632238404,135,14256.0,0.0,135.0,0.0,0.0,11460.69,5,5,0,0,55053,35.8087705775833,127.121262258755
A10025279,효자미송하이존아파트,5211114000,전북특별자치도,전주완산구,효자동1가,,전북특별자치도 전주완산구 효자동1가 431 효자미송하이존아파트,분양,개별난방,7570.8,3,71.0,미석건설산업(주),미석건설산업(주),0632254429,,아파트,전북특별자치도 전주시 완산구 거마평로 189-11,위탁관리,혼합식,20010518,0632292627,71,5457.0,35.0,36.0,0.0,0.0,4250.4917,9,9,1,3,55056,35.8085506459512,127.114862250801
A10025373,효자롯데2차아파트,5211114000,전북특별자치도,전주완산구,효자동1가,,전북특별자치도 전주완산구 효자동1가 416 효자롯데2차아파트,분양,개별난방,15282.88,2,138.0,롯데건설주식회사,(주)건축사무소효진,0632231346,,아파트,전북특별자치도 전주시 완산구 용머리로 27,위탁관리,계단식,19971020,0632231346,138,927536.94,56.0,82.0,0.0,0.0,10323.36,16,16,1,5,55056,35.8059813171405,127.112682946972
A10026857,전주 신원리브웰아파트,5211114000,전북특별자치도,전주완산구,효자동1가,,전북특별자치도 전주완산구 효자동1가 810 전주 신원리브웰아파트,분양,개별난방,45476.0,6,326.0,신원건설,우진태하재건축,0632255850,,아파트,전북특별자치도 전주시 완산구 용머리로 101,위탁관리,계단식,20170830,0632265851,326,34015.39,57.0,269.0,0.0,0.0,26208.18,22,22,2,10,55053,35.8067287136905,127.120239939405
A56085013,효자동대명까치맨션,5211114000,전북특별자치도,전주완산구,효자동1가,,전북특별자치도 전주완산구 효자동1가 45 효자동대명까치맨션,분양,개별난방,47750.12,2,499.0,(유)대명건설,(유)대명건설,0632317741,,아파트,전북특별자치도 전주시 완산구 유기전2길 23,위탁관리,복도식,19930524,0632317745,499,46011.234,322.0,177.0,0.0,0.0,34256.52,15,15,1,6,55096,35.8072235426146,127.138467073984
A56085117,금호아파트,5211114000,전북특별자치도,전주완산구,효자동1가,,전북특별자치도 전주완산구 효자동1가 98 금호아파트,분양,개별난방,75372.24,9,720.0,(주)금호건설,(주)금호건설,0632865950,효자금호타운.apti.co.kr/aptHome/,아파트,전북특별자치도 전주시 완산구 효동3길 33,위탁관리,계단식,19920325,0632873005,720,72991.72,0.0,600.0,120.0,0.0,63038.64,15,15,1,24,55094,35.8024613416971,127.129843514438
A56085202,효자동남양황실,5211114000,전북특별자치도,전주완산구,효자동1가,,전북특별자치도 전주완산구 효자동1가 640 효자동남양황실,분양,개별난방,34073.0,2,200.0,남양건설,남양건설,0632243040,daum.net,아파트,전북특별자치도 전주시 완산구 따박골로 8,자치관리,계단식,19920610,0632243042,200,33454.547,0.0,0.0,160.0,40.0,27276.4,20,20,0,5,55049,35.8090609475605,127.123842457383
A56085209,효자동한신휴플러스,5211114000,전북특별자치도,전주완산구,효자동1가,,전북특별자치도 전주완산구 효자동1가 799 효자동한신휴플러스,분양,개별난방,48038.74,6,370.0,한신공영,재건축조합,0632213770,gywkgkstls.apti.co.kr,아파트,전북특별자치도 전주시 완산구 따박골4길 10,자치관리,계단식,20060823,0639053772,370,32638.096,0.0,296.0,74.0,0.0,32638.0965,19,19,0,12,55049,35.8067160337553,127.127813446915
A56085215,효자동대림,5211114000,전북특별자치도,전주완산구,효자동1가,,전북특별자치도 전주완산구 효자동1가 205-74 효자동대림,분양,개별난방,74336.0,11,626.0,(주)삼호,"효자동재건축조합, (주)삼호",0632257100,,아파트,전북특별자치도 전주시 완산구 안행2길 26,위탁관리,계단식,20021116,0632257711,626,66682.51,141.0,362.0,123.0,0.0,52169.378,25,25,2,17,55094,35.8036182765564,127.128347611709
A56085401,효자뷰티빌,5211114000,전북특별자치도,전주완산구,효자동1가,,전북특별자치도 전주완산구 효자동1가 373 효자뷰티빌,분양,개별난방,25356.0,2,181.0,우리산업개발(주),우리종합건설(주),0632288133,효자뷰티빌.apti.co.kr,아파트,전북특별자치도 전주시 완산구 거마평로 217,위탁관리,계단식,20080612,0632288139,181,19989.494,0.0,181.0,0.0,0.0,15371.5682,15,15,1,6,55050,35.810851322987,127.114362347112
A56085606,효자삼호,5211114000,전북특별자치도,전주완산구,효자동1가,,전북특별자치도 전주완산구 효자동1가 364-3 효자삼호,분양,개별난방,38563.0,4,343.0,(주)삼호,(주)삼호,0632245987,,아파트,전북특별자치도 전주시 완산구 강변로 220-16,위탁관리,계단식,19911128,0639045987,343,31310.07,0.0,284.0,59.0,0.0,31306.755,15,15,1,14,55050,35.809520021009,127.113938553328
A56085610,케이제이라미안,5211114000,전북특별자치도,전주완산구,효자동1가,,전북특별자치도 전주완산구 효자동1가 408-1 케이제이라미안,분양,개별난방,43523.8,3,386.0,kj건설,kj건설,0632271015,효자동케이제이라미안.ma-um.co.kr,아파트,전북특별자치도 전주시 완산구 강변로 210,위탁관리,계단식,20031020,0639021017,386,42599.8,0.0,386.0,0.0,0.0,32530.8,18,18,0,11,55056,35.8069886874407,127.110613293086
A56085614,효자동현대,5211114000,전북특별자치도,전주완산구,효자동1가,,전북특별자치도 전주완산구 효자동1가 418 효자동현대,분양,개별난방,57484.0,6,582.0,홍주주택,현대,0632221745,,아파트,전북특별자치도 전주시 완산구 용머리로 20,자치관리,계단식,19900312,0639011745,582,56410.004,0.0,582.0,0.0,0.0,46231.74,15,15,0,20,55080,35.8041691285958,127.112511777479
A56085711,삼성효자타운,5211114000,전북특별자치도,전주완산구,효자동1가,,전북특별자치도 전주완산구 효자동1가 451 삼성효자타운,분양,개별난방,51580.03,2,467.0,(유)삼성주택건설,거성건축사사무소,0632271900,sshj.apti.co.kr,아파트,전북특별자치도 전주시 완산구 거마평로 139,위탁관리,혼합식,19970217,0632237116,467,41854.496,222.0,245.0,0.0,0.0,33066.59,20,20,1,9,55080,35.8048872764791,127.11571718236
A56085716,효자동롯데1차,5211114000,전북특별자치도,전주완산구,효자동1가,,전북특별자치도 전주완산구 효자동1가 414 효자동롯데1차,분양,개별난방,76508.97,7,666.0,롯데건설주식회사,롯데건설주식회사,0632214445,cafe.daum.net/vudghkehdtls,아파트,전북특별자치도 전주시 완산구 용머리로 29,자치관리,계단식,19901204,0639014324,666,73760.7,0.0,492.0,174.0,0.0,60932.88,15,15,0,23,55056,35.8082980635997,127.112627579152
A56085718,상산타운,5211114000,전북특별자치도,전주완산구,효자동1가,,전북특별자치도 전주완산구 효자동1가 652 상산타운,분양,개별난방,122678.0,9,1155.0,"비사벌, 우성","비사벌, 우성",0632238133,sangsan.apti.co.kr,아파트,전북특별자치도 전주시 완산구 거마평로 125,위탁관리,혼합식,19940430,0632232539,1155,116574.04,435.0,480.0,240.0,0.0,92643.3,15,15,0,33,55080,35.8040984482275,127.11463335098
A56085807,효자동쌍용모악파크,5211114000,전북특별자치도,전주완산구,효자동1가,,전북특별자치도 전주완산구 효자동1가 654-2 효자동쌍용모악파크,분양,개별난방,31561.47,3,345.0,쌍용주택,쌍용주택,0632211907,,아파트,전북특별자치도 전주시 완산구 거마평로 93,위탁관리,계단식,19940303,0639011907,345,24754.5,180.0,165.0,0.0,0.0,24754.5,15,15,1,12,55085,35.8010650494509,127.115968084229
A56085808,효자동제일효자타운,5211114000,전북특별자치도,전주완산구,효자동1가,,전북특별자치도 전주완산구 효자동1가 654 효자동제일효자타운,분양,개별난방,33229.34,3,360.0,제일건설,제일건설,0632229248,,아파트,전북특별자치도 전주시 완산구 거마평로 109,위탁관리,계단식,19930915,0639019213,360,32727.6,180.0,180.0,0.0,0.0,26076.6,15,15,0,12,55085,35.802113959823,127.114914274925
A56085812,효자한강아파트,5211114000,전북특별자치도,전주완산구,효자동1가,,전북특별자치도 전주완산구 효자동1가 660-1 효자한강아파트,분양,개별난방,46562.22,4,498.0,(유)한강,한강건설,0632260088,,아파트,전북특별자치도 전주시 완산구 강변로 120,위탁관리,계단식,19970429,0632260385,498,37203.414,498.0,0.0,0.0,0.0,29316.66,18,18,1,16,55085,35.8015635936506,127.112879276449
A56089319,효자남양아이좋은집,5211114000,전북특별자치도,전주완산구,효자동1가,,전북특별자치도 전주완산구 효자동1가 363-1 효자남양아이좋은집,분양,개별난방,30303.0,2,260.0,남양건설,태백주택,0632211149,효자남양아이좋은집.ma-um.co.kr,아파트,전북특별자치도 전주시 완산구 강변로 242,위탁관리,계단식,20060529,0632225211,260,30070.023,0.0,212.0,48.0,0.0,23472.1031,24,24,0,6,55050,35.8113086000557,127.113435454451
A56089320,효자주공3단지,5211114000,전북특별자치도,전주완산구,효자동1가,,전북특별자치도 전주완산구 효자동1가 133 효자주공3단지,분양,개별난방,73152.65,35,1230.0,한국주택공사,.,0632845645,효자주공3단지.ma-um.co.kr,아파트,전북특별자치도 전주시 완산구 용머리로 194,자치관리,계단식,19841015,0632835645,1255,70814.51,755.0,475.0,0.0,0.0,71604.6,5,5,0,0,55095,35.8039284083678,127.132003305657
A56089321,효자성원맨션,5211114000,전북특별자치도,전주완산구,효자동1가,,전북특별자치도 전주완산구 효자동1가 415-2 효자성원맨션,분양,개별난방,26230.809,2,235.0,성원,성원,0632247441,,아파트,전북특별자치도 전주시 완산구 거마평로 189-47,위탁관리,혼합식,19980727,0632247442,235,24469.4,85.0,83.0,67.0,0.0,19834.6325,15,15,1,7,55056,35.8084905791945,127.113579154634
A10020662,본아르떼 리버뷰,5211114100,전북특별자치도,전주완산구,효자동2가,,전북특별자치도 전주완산구 효자동2가 1409- 본아르떼 리버뷰,분양,개별난방,39363.934,4,277.0,더본건설,주성산업개발,0632231177,,아파트,전북특별자치도 전주시 완산구 쑥고개로 398-13,위탁관리,계단식,20250220,0632231178,277,28308.64,0.0,277.0,0.0,0.0,20555.2219,26,26,2,7,,35.8032797654398,127.109976091861
A10022049,효자이지움아파트,5211114100,전북특별자치도,전주완산구,효자동2가,,전북특별자치도 전주완산구 효자동2가 1354- 효자이지움아파트,분양,개별난방,11254.0,2,74.0,계성건설,게성건설,0632230205,,,전북특별자치도 전주시 완산구 세내로 185,위탁관리,계단식,20151217,0632210208,74,7994.0,0.0,70.0,4.0,0.0,6443.6956,0,19,1,0,,35.8071007069978,127.108144837284
A10024839,효천대방노블랜드 에코파크,5211114100,전북특별자치도,전주완산구,효자동2가,,전북특별자치도 전주완산구 효자동2가 1383 효천대방노블랜드 에코파크,분양,개별난방,182002.02,14,1370.0,대방건설,엔비건설,0632262425,,아파트,전북특별자치도 전주시 완산구 효천중앙로 20,위탁관리,계단식,20200515,0639010017,1370,170543.77,0.0,690.0,680.0,0.0,134708.3306,25,25,0,29,55152,35.7976852197159,127.102899286628
A10025021,효자2차수목토아파트,5211114100,전북특별자치도,전주완산구,효자동2가,,전북특별자치도 전주완산구 효자동2가 110 효자2차수목토아파트,분양,개별난방,31059.365,5,140.0,엘드,(주)엘드건설,0632370140,,아파트,전북특별자치도 전주시 완산구 봉곡로 149,위탁관리,계단식,20061004,0632360140,140,22023.4,0.0,0.0,84.0,56.0,18767.1036,15,15,1,5,55057,35.8097449057651,127.109553935145
A10025077,효천 우미린 더 프레스티지,5211114100,전북특별자치도,전주완산구,효자동2가,,전북특별자치도 전주완산구 효자동2가 1364 효천 우미린 더 프레스티지,분양,개별난방,173403.08,11,1128.0,우미건설(주),(주)우미개발,0632227200,https://wmhc.aptner.com/,아파트,전북특별자치도 전주시 완산구 홍산로 77,위탁관리,계단식,20200107,0632237201,1128,123334.76,0.0,1128.0,0.0,0.0,95850.2308,25,25,2,27,55079,35.7994700728693,127.104061985618
A10025123,효천리버클래스,5211114100,전북특별자치도,전주완산구,효자동2가,,전북특별자치도 전주완산구 효자동2가 1382 효천리버클래스,임대,개별난방,121612.73,9,818.0,우미건설,(주)엔에이치에프제11호공공임대위탁관리부동산투자회사,0632233701,효천리버클래스.apti.co.kr,아파트,전북특별자치도 전주시 완산구 효천중앙로 50,위탁관리,계단식,20191111,0632233702,818,86880.414,0.0,818.0,0.0,0.0,67541.55,20,20,2,24,55152,35.7982588765775,127.106620233395
A10025438,효천 우미린 더 퍼스트아파트,5211114100,전북특별자치도,전주완산구,효자동2가,,전북특별자치도 전주완산구 효자동2가 1363 효천 우미린 더 퍼스트아파트,분양,개별난방,172906.03,12,1120.0,(주)우미산업개발,우미건설(주),0632225113,효천우미린더퍼스트.apti.co.kr,아파트,전북특별자치도 전주시 완산구 효천중앙로 11,위탁관리,계단식,20190621,0632225117,1120,122624.76,0.0,1120.0,0.0,0.0,95170.8182,25,25,3,1,55079,35.7984584114278,127.102480005821
A10027712,효자SK리더스 뷰,5211114100,전북특별자치도,전주완산구,효자동2가,,전북특별자치도 전주완산구 효자동2가 1157-4 효자SK리더스 뷰,분양,개별난방,76549.31,4,392.0,SK건설,SK건설,0632375300,없음,주상복합,전북특별자치도 전주시 완산구 홍산1길 7,위탁관리,계단식,20160125,0632364242,392,45852.63,0.0,392.0,0.0,0.0,33299.91,32,32,2,8,54969,35.8141205792576,127.108506555137
A10027976,서희스타힐스아파트,5211114100,전북특별자치도,전주완산구,효자동2가,,전북특별자치도 전주완산구 효자동2가 1157-1 서희스타힐스아파트,분양,개별난방,77488.0,4,481.0,서부신시가지지역주택조합,(주)서희건설,0632238442,seohee0331.apti.co.kr,주상복합,전북특별자치도 전주시 완산구 홍산1길 21,위탁관리,혼합식,20150331,0632238443,481,55733.02,0.0,481.0,0.0,0.0,40872.57,29,29,2,0,54969,35.8143954510434,127.107316106989
A56076001,효자휴먼시아4지구3단지,5211114100,전북특별자치도,전주완산구,효자동2가,,전북특별자치도 전주완산구 효자동2가 1201-2 효자휴먼시아4지구3단지,임대,개별난방,50774.0,7,691.0,LH,(주)삼환까뮤,0632256910,효자휴먼시아4지구3단지.ma-um.co.kr,아파트,전북특별자치도 전주시 완산구 용호로 20,위탁관리,복도식,20071015,0632266913,691,50574.016,691.0,0.0,0.0,0.0,30088.27,15,15,0,14,55062,35.8076672337754,127.10175142307
A56076002,효자동풍림아이원,5211114100,전북특별자치도,전주완산구,효자동2가,,전북특별자치도 전주완산구 효자동2가 184 효자동풍림아이원,분양,개별난방,34666.277,3,202.0,(주)풍림산업,(주)한국토지신탁,0632370071,,아파트,전북특별자치도 전주시 완산구 우전1길 40,위탁관리,계단식,20070529,0632370071,202,28837.94,0.0,0.0,202.0,0.0,21816.1738,15,15,1,8,55058,35.8060295178745,127.105961694136
A56076003,효자휴먼시아4지구1단지,5211114100,전북특별자치도,전주완산구,효자동2가,,전북특별자치도 전주완산구 효자동2가 1191-1 효자휴먼시아4지구1단지,임대,개별난방,72637.93,10,949.0,진흥기업(주),진흥기업(주),0632299490,35075@kohom.co.kr,아파트,전북특별자치도 전주시 완산구 호암로 2,위탁관리,복도식,20071015,0632299491,949,72209.78,949.0,0.0,0.0,0.0,41802.31,15,15,1,20,55063,35.8074839431544,127.096134717342
A56076004,더샵효자2차,5211114100,전북특별자치도,전주완산구,효자동2가,,전북특별자치도 전주완산구 효자동2가 122 더샵효자2차,분양,개별난방,61494.0,7,269.0,포스코건설,옥성건설,0632371459,,아파트,전북특별자치도 전주시 완산구 봉곡로 140,자치관리,계단식,20070209,0639051459,269,48362.39,0.0,0.0,88.0,181.0,39688.4563,15,15,1,0,55058,35.8095127540402,127.107744146622
A56076005,데시앙아이린아파트,5211114100,전북특별자치도,전주완산구,효자동2가,,전북특별자치도 전주완산구 효자동2가 1193-1 데시앙아이린아파트,분양,개별난방,68579.49,9,502.0,태영건설,한국토지주택공사,0632211912,데시앙아이린.apti.co.kr,아파트,전북특별자치도 전주시 완산구 소태정로 1,위탁관리,계단식,20090827,0632211911,502,68112.16,0.0,502.0,0.0,0.0,41932.08,20,20,1,18,55064,35.8060409776415,127.097421370295
A56076006,골든팰리스휴먼시아,5211114100,전북특별자치도,전주완산구,효자동2가,,전북특별자치도 전주완산구 효자동2가 1192-1 골든팰리스휴먼시아,분양,개별난방,73077.0,7,340.0,(주)신일건업,한국토지주택공사,0632246556,cafe.daum.net/smailehumansia,아파트,전북특별자치도 전주시 완산구 호암로 40,위탁관리,계단식,20091113,0632246557,340,55315.58,0.0,0.0,273.0,67.0,44504.31,20,20,1,10,55063,35.8088359249367,127.099569375594
A56076008,효자휴먼시아6단지,5211114100,전북특별자치도,전주완산구,효자동2가,,전북특별자치도 전주완산구 효자동2가 1320-1 효자휴먼시아6단지,임대,개별난방,46074.83,6,646.0,남양건설(주),한국토지주택공사,0632370237,lh0237@hanmail.net,아파트,전북특별자치도 전주시 완산구 호암로 88,위탁관리,계단식,20100409,0632362779,646,45668.13,646.0,0.0,0.0,0.0,25485.59,20,20,0,13,55062,35.8078302578128,127.102722067898
A56076009,아르팰리스휴먼시아,5211114100,전북특별자치도,전주완산구,효자동2가,,전북특별자치도 전주완산구 효자동2가 1314-1 아르팰리스휴먼시아,분양,개별난방,91459.16,10,604.0,(주)서희건설,한국토지주택공사,0632220384,,아파트,전북특별자치도 전주시 완산구 호암로 41,위탁관리,계단식,20101119,0632220383,604,91135.91,0.0,604.0,0.0,0.0,50467.78,20,20,1,17,55063,35.8104301820614,127.099333589256
A56076010,세븐팰리스 데시앙,5211114100,전북특별자치도,전주완산구,효자동2가,,전북특별자치도 전주완산구 효자동2가 1315-1 세븐팰리스 데시앙,분양,개별난방,83257.57,8,560.0,태영건설(주),LH,0632277020,,아파트,전북특별자치도 전주시 완산구 우전로 180,위탁관리,계단식,20131220,0632277027,560,61607.023,0.0,560.0,0.0,0.0,47487.43,20,20,1,16,55062,35.8102399884876,127.101949993101
A56085901,효자동엘드수목토1차,5211114100,전북특별자치도,전주완산구,효자동2가,,전북특별자치도 전주완산구 효자동2가 70 효자동엘드수목토1차,분양,개별난방,55124.844,5,419.0,엘드건설,엘드,0632364190,효자동엘드수목토1차.ma-um.co.kr,아파트,전북특별자치도 전주시 완산구 세내로 241,위탁관리,계단식,20050830,0639020419,419,47648.68,0.0,419.0,0.0,0.0,35569.9184,20,20,0,0,55057,35.8127355845255,127.10962841531
A56085902,더샵효자,5211114100,전북특별자치도,전주완산구,효자동2가,,전북특별자치도 전주완산구 효자동2가 100-1 더샵효자,분양,개별난방,171524.67,9,888.0,(주) 포스코 건설,(유)옥성건설,0632232820,,아파트,전북특별자치도 전주시 완산구 세내로 239,위탁관리,계단식,20051021,0632232821,888,116180.66,0.0,0.0,629.0,259.0,116180.6577,20,20,1,23,55057,35.8106027330773,127.108553440803
A56089322,전주효자5휴먼시아,5211114100,전북특별자치도,전주완산구,효자동2가,,전북특별자치도 전주완산구 효자동2가 1316-1 전주효자5휴먼시아,임대,개별난방,64254.54,8,856.0,진흥기업,LH,0639085335,,아파트,전북특별자치도 전주시 완산구 호암로 87,위탁관리,복도식,20100326,0632210787,856,63715.95,856.0,0.0,0.0,0.0,36587.17,20,20,1,17,55062,35.8092427905872,127.103580267505
A10021739,성우아르데코주상복합아파트,5211114200,전북특별자치도,전주완산구,효자동3가,,전북특별자치도 전주완산구 효자동3가 1542-2 성우아르데코주상복합아파트,분양,개별난방,15852.0,1,144.0,(주)성우건설,(주)성우홀딩스,0632374074,,아파트,전북특별자치도 전주시 완산구 세내로 281,위탁관리,복도식,20180725,,144,9879.228,144.0,0.0,0.0,0.0,6943.8848,1,18,3,0,,35.8153047248196,127.111387660465
A10025744,코아루해피트리아파트,5211114200,전북특별자치도,전주완산구,효자동3가,,전북특별자치도 전주완산구 효자동3가 1540-1 코아루해피트리아파트,분양,개별난방,28100.0,2,212.0,(주)신일건설,(주)한국토지신탁,0632260500,,주상복합,전북특별자치도 전주시 완산구 세내로 303,위탁관리,계단식,20181121,0632260503,212,20286.066,68.0,144.0,0.0,0.0,14085.6244,39,39,3,4,54969,35.8172321289845,127.111325287747
A10026450,힐스테이트 효자동,5211114200,전북특별자치도,전주완산구,효자동3가,,전북특별자치도 전주완산구 효자동3가 1540-3 힐스테이트 효자동,분양,개별난방,41180.0,2,302.0,현대건설,힐스테이크 지역주택조합,0632266481,효자동힐스테이트.apti.co.kr,주상복합,전북특별자치도 전주시 완산구 세내로 291,위탁관리,계단식,20171107,0632266482,302,29592.045,75.0,227.0,0.0,0.0,22365.6231,42,42,3,6,54969,35.8164182966173,127.111513147701
A10027899,코오롱스카이타워아파트,5211114200,전북특별자치도,전주완산구,효자동3가,,전북특별자치도 전주완산구 효자동3가 1526-2 코오롱스카이타워아파트,분양,개별난방,79699.78,5,513.0,코오롱글로벌(주),신시가지 스카이타워 지역주택조합,0632373831,,주상복합,전북특별자치도 전주시 완산구 홍산북로 83-17,위탁관리,계단식,20151028,0632373832,513,58980.188,0.0,508.0,5.0,0.0,43430.2507,42,42,4,1,54969,35.8181485985805,127.110470312324
A10028036,신원아침도시PENT176,5211114200,전북특별자치도,전주완산구,효자동3가,,전북특별자치도 전주완산구 효자동3가 1540-2 신원아침도시PENT176,분양,개별난방,29420.205,1,176.0,신원종합개발(주),신원종합개발(주),0632211982,,주상복합,전북특별자치도 전주시 완산구 세내로 299,위탁관리,계단식,20150522,0632211984,176,19386.746,0.0,174.0,2.0,0.0,14866.0229,33,33,3,4,54969,35.816839641722,127.111409832769
A56087001,효자동 서곡현대,5211114200,전북특별자치도,전주완산구,효자동3가,,전북특별자치도 전주완산구 효자동3가 1473-2 효자동 서곡현대,분양,개별난방,50998.0,5,323.0,현대산업개발,현대산업개발,0632715094,cafe.daum.net/senaero545,아파트,전북특별자치도 전주시 완산구 세내로 545,위탁관리,계단식,19990629,0639015094,323,37723.9,0.0,0.0,323.0,0.0,37723.9,18,18,0,7,54957,35.8326924884083,127.098777180601
A56087002,효자동 서곡엘지,5211114200,전북특별자치도,전주완산구,효자동3가,,전북특별자치도 전주완산구 효자동3가 1473-1 효자동 서곡엘지,분양,개별난방,52450.98,4,328.0,LG건설,LG건설,0632776467,,아파트,전북특별자치도 전주시 완산구 세내로 559,위탁관리,계단식,19991105,0639026467,328,45898.758,0.0,0.0,328.0,0.0,38044.22,15,15,0,11,54957,35.8334973617035,127.097724420931
A56087003,효자동 서곡대림,5211114200,전북특별자치도,전주완산구,효자동3가,,전북특별자치도 전주완산구 효자동3가 1473-5 효자동 서곡대림,분양,개별난방,39267.875,5,438.0,대림건설,대림산업,0632742355,rgsdi27425@hanmail.net,아파트,전북특별자치도 전주시 완산구 서곡로 11,위탁관리,계단식,19991028,0639012354,438,38788.973,438.0,0.0,0.0,0.0,26250.48,19,19,1,13,54957,35.8322866141815,127.097498597145
A56087004,효자동 서곡두산,5211114200,전북특별자치도,전주완산구,효자동3가,,전북특별자치도 전주완산구 효자동3가 1483-2 효자동 서곡두산,분양,개별난방,65338.957,6,535.0,(주)두산건설,(주)두산건설,0632517911,,아파트,전북특별자치도 전주시 완산구 서곡로 22,위탁관리,계단식,19990927,0639027912,535,57778.215,0.0,535.0,0.0,0.0,45415.5,19,19,1,15,54957,35.8302596356936,127.098441483513
A56087005,효자동 서곡청솔,5211114200,전북특별자치도,전주완산구,효자동3가,,전북특별자치도 전주완산구 효자동3가 1483-1 효자동 서곡청솔,분양,개별난방,49697.0,6,593.0,새롬성원(주),한국토지신탁,0632538782,cafe.daum.net/sg8782,아파트,전북특별자치도 전주시 완산구 서곡로 34,위탁관리,복도식,20010430,0632538786,593,40173.973,593.0,0.0,0.0,0.0,32484.54,15,15,2,7,54957,35.8314393227388,127.099282294443
A56087006,효자동 서곡주공,5211114200,전북특별자치도,전주완산구,효자동3가,,전북특별자치도 전주완산구 효자동3가 1482-1 효자동 서곡주공,분양,개별난방,68164.63,11,766.0,한국주택토지공사,한국주택토지공사,0632527305,효자동서곡주공.ma-um.co.kr,아파트,전북특별자치도 전주시 완산구 서곡로 8,위탁관리,계단식,20000323,0632527306,766,67190.7,766.0,0.0,0.0,0.0,45872.74,18,18,1,25,54957,35.8317797369767,127.096617337887
A56088401,신시가지아이파크,5211114200,전북특별자치도,전주완산구,효자동3가,,전북특별자치도 전주완산구 효자동3가 1524-1 신시가지아이파크,분양,개별난방,119400.94,9,622.0,현대산업개발(주),현대산업개발(주),0632282552,서부현대아이파크.apti.co.kr,아파트,전북특별자치도 전주시 완산구 홍산로 390,위탁관리,계단식,20071207,0632282553,622,72038.914,0.0,0.0,578.0,44.0,72038.916,20,20,1,0,54955,35.8272794938595,127.106621740279
A56088402,서부신시가지호반베르디움,5211114200,전북특별자치도,전주완산구,효자동3가,,전북특별자치도 전주완산구 효자동3가 1524-2 서부신시가지호반베르디움,분양,개별난방,115910.0,10,836.0,(주)호반건설,(주)호반주택,0639056556,서부신시가지호반베르디움.ma-um.co.kr,아파트,전북특별자치도 전주시 완산구 유연로 217,위탁관리,계단식,20071220,0632266557,836,94818.37,0.0,836.0,0.0,0.0,70969.7064,17,17,1,16,54955,35.8256361055945,127.106759203048
A56088403,서부신시가지우미린,5211114200,전북특별자치도,전주완산구,효자동3가,,전북특별자치도 전주완산구 효자동3가 1523-3 서부신시가지우미린,분양,개별난방,52600.0,6,369.0,우미건설,우미건설,0632254664,,아파트,전북특별자치도 전주시 완산구 유연로 219,위탁관리,계단식,20071207,0632284665,369,42409.59,0.0,369.0,0.0,0.0,31316.1919,20,20,0,0,54955,35.825735368006,127.110511147284
A56088404,코아루성우아르테코,5211114200,전북특별자치도,전주완산구,효자동3가,,전북특별자치도 전주완산구 효자동3가 1531-1 코아루성우아르테코,분양,개별난방,23025.92,1,224.0,성우건설,(주)사랑과도시,0632284335,코아루성우아르데코.apti.co.kr,주상복합,전북특별자치도 전주시 완산구 홍산로 262,위탁관리,복도식,20131204,0632274336,224,13811.2,224.0,0.0,0.0,0.0,10230.72,18,18,3,3,54969,35.8172335685549,127.106452726389
A56026001,대성동 영동고덕,5211114300,전북특별자치도,전주완산구,대성동,,전북특별자치도 전주완산구 대성동 19 대성동 영동고덕,분양,개별난방,17427.74,2,162.0,영동건설,영동건설,0632864230,대성동영동고덕.ma-um.co.kr,아파트,전북특별자치도 전주시 완산구 고덕산2길 9,위탁관리,혼합식,19920922,0632864231,162,15279.312,0.0,162.0,0.0,0.0,11647.22,14,14,1,3,55116,35.7988091136451,127.178935695434
