kaptCode,kaptName,bjdCode,as1,as2,as3,as4,kaptAddr,codeSaleNm,codeHeatNm,kaptTarea,kaptDongCnt,kaptdaCnt,kaptBcompany,kaptAcompany,kaptTel,kaptUrl,codeAptNm,doroJuso,codeMgrNm,codeHallNm,kaptUsedate,kaptFax,hoCnt,kaptMarea,kaptMparea60,kaptMparea85,kaptMparea135,kaptMparea136,privArea,kaptTopFloor,ktownFlrNo,kaptBaseFloor,kaptdEcntp,zipcode,위도,경도
A10022679,아산칸타빌센트럴시티아파트,4420010100,충청남도,아산시,온천동,,충청남도 아산시 온천동 260-28 아산칸타빌센트럴시티아파트,분양,개별난방,39273.945,3,299.0,(주)대원,(주)하은,0415422990,,주상복합,충청남도 아산시 아산로17번길 5,위탁관리,기타,20240330,0415482990,299,26219.75,272.0,27.0,0.0,0.0,18438.5707,41,41,2,6,31506,36.7841364822927,126.997819469051
A10022814,삼일파라뷰 시그니처,4420010100,충청남도,아산시,온천동,,충청남도 아산시 온천동 3149 삼일파라뷰 시그니처,임대,개별난방,71109.47,4,444.0,삼일건설,파라뷰골든클래스,0415317396,,아파트,충청남도 아산시 문화공원로 42,위탁관리,계단식,20240103,0415327396,444,44103.74,198.0,246.0,0.0,0.0,31548.8518,29,29,3,10,31509,36.7926540947153,126.99825764538
A10026233,갤러리휴리움 아산,4420010100,충청남도,아산시,온천동,,충청남도 아산시 온천동 79-14 갤러리휴리움 아산,분양,개별난방,11659.96,1,256.0,(주)다우건설,(주)두영개발,0419107991,huerium1.apti.co.kr,주상복합,충청남도 아산시 온천대로 1532-5,위탁관리,복도식,20180516,0419107992,266,8614.4,256.0,0.0,0.0,0.0,11854.32,15,15,1,2,31520,36.7800377675456,127.008178235977
A10027131,아산온천미소지움아파트,4420010100,충청남도,아산시,온천동,,충청남도 아산시 온천동 1935 아산온천미소지움아파트,분양,개별난방,73187.49,7,586.0,SG신성건설(주),SG신성건설(주),0415473773,아산미소지움.apti.co.kr,아파트,충청남도 아산시 아산로 116-20,위탁관리,계단식,20170221,0415473774,586,51996.445,336.0,250.0,0.0,0.0,38707.7542,20,20,2,14,31509,36.7921660668528,126.995439722982
A10027179,올리브힐,4420010100,충청남도,아산시,온천동,,충청남도 아산시 온천동 307-41 올리브힐,혼합,개별난방,14062.625,1,212.0,(주)레자미종합건설,수안건설,0415349700,아산올리브힐.apti.co.kr,주상복합,충청남도 아산시 청운로84번길 15,위탁관리,혼합식,20160425,0415349720,220,9432.346,212.0,0.0,0.0,0.0,6590.966,13,13,2,3,31520,36.781271719039,127.008691552473
A10027531,아산 반도유보라 아파트,4420010100,충청남도,아산시,온천동,,충청남도 아산시 온천동 1928 아산 반도유보라 아파트,분양,개별난방,80743.055,8,650.0,반도건설,반도종합건설,0415419600,,아파트,충청남도 아산시 아산로 116-21,위탁관리,계단식,20160325,0415419605,650,53533.516,650.0,0.0,0.0,0.0,38991.8786,25,25,2,17,31509,36.7922190889616,126.996523265351
A33601001,아산 경남아너스빌아파트,4420010100,충청남도,아산시,온천동,,충청남도 아산시 온천동 1052 아산 경남아너스빌아파트,분양,개별난방,41169.91,4,370.0,대아건설(주),(주)대아건설,0415484861,,아파트,충청남도 아산시 문화로 115,위탁관리,계단식,19960404,0415413861,370,33838.03,152.0,186.0,32.0,0.0,28792.14,16,16,1,12,31509,36.7914976055319,126.99829430853
A33601002,온양일성아파트,4420010100,충청남도,아산시,온천동,,충청남도 아산시 온천동 1235 온양일성아파트,분양,개별난방,40610.0,5,400.0,일성건설(주),일성건설(주),0415437530,,아파트,충청남도 아산시 시민로 485,위탁관리,계단식,19951120,0415437532,400,34155.387,251.0,134.0,15.0,0.0,27882.58,19,19,1,5,31509,36.7919137512769,126.999522372434
A33601003,모노팰리스,4420010100,충청남도,아산시,온천동,,충청남도 아산시 온천동 74-5 모노팰리스,임대,개별난방,8208.0,1,156.0,우덕산업개발(주),우덕산업개발(주),0415323010,,도시형 생활주택(주상복합),충청남도 아산시 온천대로 1555,자치관리,계단식,20140327,0415450545,156,7378.513,156.0,0.0,0.0,0.0,5056.08,14,14,1,2,31521,36.7802950206624,127.01065073025
A33601201,아산 삼정하이츠아파트,4420010100,충청남도,아산시,온천동,,충청남도 아산시 온천동 617-1 아산 삼정하이츠아파트,분양,개별난방,25588.246,6,300.0,삼정건설,삼정건설,0415446888,온천동삼정하이츠.apti.co.kr,아파트,충청남도 아산시 어의정로 41,자치관리,계단식,19910411,0415446888,300,24924.979,110.0,190.0,0.0,0.0,21279.18215,5,5,0,0,31570,36.7756797912854,127.001466969599
A33676001,온양힐스테이트아파트,4420010100,충청남도,아산시,온천동,,충청남도 아산시 온천동 1910 온양힐스테이트아파트,분양,개별난방,84224.23,7,533.0,(주) 현대건설,삼광하이텍 (주),0415333884,온양힐스테이트.apt.co.kr,아파트,충청남도 아산시 남산로 126,위탁관리,계단식,20060317,0415333886,533,65842.18,0.0,428.0,105.0,0.0,49752.815,15,15,0,16,31574,36.7786674672631,127.007779855874
A33602001,온양벽산아파트,4420010200,충청남도,아산시,실옥동,,충청남도 아산시 실옥동 186 온양벽산아파트,분양,개별난방,39546.0,6,350.0,벽산건설,벽산건설,0415452013,아산벽산블루밍.apti.co.kr/,아파트,충청남도 아산시 문화로 33-10,위탁관리,계단식,19961231,0415452062,350,32366.68,132.0,218.0,0.0,0.0,26389.18,23,23,2,0,31502,36.7889777689635,126.989964041859
A33602002,아산 중부팬더아파트,4420010200,충청남도,아산시,실옥동,,충청남도 아산시 실옥동 156-24 아산 중부팬더아파트,분양,개별난방,42476.0,2,376.0,중부건설,서해건설,0415463969,중부팬더apti.co.kr,아파트,충청남도 아산시 아산로 103-17,위탁관리,혼합식,19990730,0415443969,376,36941.16,160.0,172.0,44.0,0.0,29487.1,22,22,2,7,31503,36.7899363548861,126.993591798777
A33602003,아산 대우푸르지오 아파트,4420010200,충청남도,아산시,실옥동,,충청남도 아산시 실옥동 537 아산 대우푸르지오 아파트,분양,개별난방,74798.0,7,580.0,대우건설,(주)원정건설,0415470057,asanprugio.apti.co.kr,아파트,충청남도 아산시 아산로117번길 17,위탁관리,계단식,20060525,0415470058,580,62294.96,0.0,580.0,0.0,0.0,47739.6872,15,15,2,20,31488,36.7904714510434,126.992315303628
A10021805,방축현대아파트,4420010300,충청남도,아산시,방축동,,충청남도 아산시 방축동 55-11 방축현대아파트,분양,개별난방,17459.18,7,170.0,현대산업개발(주),현대산업개발(주),0415421975,,아파트,충청남도 아산시 방축로 8,위탁관리,계단식,19910427,0415321975,170,17320.17,0.0,170.0,0.0,0.0,14045.6,5,5,1,0,,36.7805929584833,126.987775854754
A10024665,아산방축KD아람채,4420010300,충청남도,아산시,방축동,,충청남도 아산시 방축동 775 아산방축KD아람채,임대,개별난방,32416.67,4,271.0,KD건설,3588501579,0415346008,,아파트,충청남도 아산시 온천대로 1323-25,위탁관리,계단식,20200807,0415346009,271,32416.586,189.0,82.0,0.0,0.0,16910.646,25,25,1,6,31502,36.7873475185705,126.985222544544
A10024977,삼일 파라뷰 더스테이,4420010300,충청남도,아산시,방축동,,충청남도 아산시 방축동 773 삼일 파라뷰 더스테이,임대,개별난방,42431.23,5,346.0,삼일건설(주),파라뷰플러스(주),0415483344,삼일파라뷰더스테이.apti.co.kr,아파트,충청남도 아산시 실옥로 15,위탁관리,계단식,20200302,0415333341,346,29598.115,346.0,0.0,0.0,0.0,20725.5539,20,20,2,0,31504,36.7852029932208,126.993848854741
A33607002,아산 방축 한성아파트,4420010300,충청남도,아산시,방축동,,충청남도 아산시 방축동 150-3 아산 방축 한성아파트,분양,개별난방,12352.93,2,182.0,신우종합건설(주),한성주택(주),0415496383,방축한성아파트.apti,아파트,충청남도 아산시 온천대로 1315,자치관리,복도식,19971230,0415496383,182,10743.806,182.0,0.0,0.0,0.0,8385.3,12,12,1,3,31502,36.7864688086695,126.984960221558
A33607003,아산 삼환나우빌 아파트,4420010300,충청남도,아산시,방축동,,충청남도 아산시 방축동 707 아산 삼환나우빌 아파트,분양,개별난방,38263.58,7,256.0,삼환기업,도시공영(주),0415498070,아산삼환나우빌.aptilco.kr,아파트,충청남도 아산시 번영로 15,위탁관리,계단식,20061031,0415428070,256,32674.383,0.0,172.0,84.0,0.0,24957.7672,15,15,2,9,31504,36.7857743954323,126.992381535048
A33607004,아산 동아나래2차아파트,4420010300,충청남도,아산시,방축동,,충청남도 아산시 방축동 140-7 아산 동아나래2차아파트,분양,개별난방,29414.684,2,280.0,동아건설산업(주),동아건설산업(주),0415451523,,아파트,충청남도 아산시 온천대로1333번길 10,위탁관리,계단식,19970812,0415461523,280,22810.2,180.0,100.0,0.0,0.0,19040.16,21,21,2,7,31502,36.7857942131461,126.987082787028
A33607005,아산 남산현대아파트,4420010300,충청남도,아산시,방축동,,충청남도 아산시 방축동 134-1 아산 남산현대아파트,분양,개별난방,41958.8,4,332.0,현대건설,현대건설,0415411799,,아파트,충청남도 아산시 문화로 26-4,위탁관리,계단식,19981125,0415459653,332,36437.695,0.0,276.0,56.0,0.0,29835.9,15,15,1,12,31504,36.7851969964014,126.990383304785
A33607006,아산 방축주공아파트,4420010300,충청남도,아산시,방축동,,충청남도 아산시 방축동 57-6 아산 방축주공아파트,분양,개별난방,17091.3,10,410.0,대한주택공사,대한주택공사,0415455770,,아파트,충청남도 아산시 방축로 21,자치관리,계단식,19900825,0415475770,410,17091.3,410.0,0.0,0.0,0.0,17091.3,5,5,0,0,31565,36.7816029688072,126.988170359253
A33607007,아산 동아나래1차아파트,4420010300,충청남도,아산시,방축동,,충청남도 아산시 방축동 140-4 아산 동아나래1차아파트,분양,개별난방,45882.39,3,484.0,동아건설,동아건설,0415487824,동아나래1차.Apti.co.kr,아파트,충청남도 아산시 온천대로1333번길 7,자치관리,계단식,19970812,0415487825,484,44586.96,200.0,284.0,0.0,0.0,36089.84,22,22,1,12,31502,36.7865510337399,126.986847279848
A33614001,아산엘크루,4420010600,충청남도,아산시,신인동,,충청남도 아산시 신인동 453 아산엘크루,분양,개별난방,66060.7,9,480.0,대우조선 해양건설,한국 토지주택공사,0415320690,http://아산엘크루.apti.co.kr,아파트,충청남도 아산시 순천향로 602,위탁관리,계단식,20100930,0415320696,480,53950.56,0.0,480.0,0.0,0.0,40647.072,12,12,2,20,31559,36.7515616391782,126.989650665625
A10025471,신원더파크2차아파트,4420010700,충청남도,아산시,법곡동,,충청남도 아산시 법곡동 161-22 신원더파크2차아파트,분양,개별난방,45845.098,5,369.0,신원종합개발(주),코람코자산신탁(주),0415323316,,아파트,충청남도 아산시 법곡길 20-12,위탁관리,계단식,20190930,0415333317,369,33037.047,248.0,121.0,0.0,0.0,23920.1691,20,20,2,8,31560,36.7647787284259,127.010184341005
A10027178,법곡동KD아람채,4420010700,충청남도,아산시,법곡동,,충청남도 아산시 법곡동 333 법곡동KD아람채,분양,개별난방,18837.398,2,208.0,케이디건설주식회사,케이디건설주식회사,0415323353,,아파트,충청남도 아산시 법곡길 10,위탁관리,계단식,20161229,0415323313,208,13644.488,208.0,0.0,0.0,0.0,9371.6064,20,20,1,0,31560,36.7657282790355,127.012567312082
A10027596,법곡코아루더파크,4420010700,충청남도,아산시,법곡동,,충청남도 아산시 법곡동 1-45 법곡코아루더파크,분양,개별난방,63815.805,7,513.0,신영건설,한국토지신탁,0415471934,코아루더파크aptI.co.kr,아파트,충청남도 아산시 법곡길 8,위탁관리,계단식,20160225,0415471935,513,45861.21,341.0,172.0,0.0,0.0,33311.0617,15,15,2,1,31560,36.7648369798442,127.011716744244
A33678801,장존청솔,4420010800,충청남도,아산시,장존동,,충청남도 아산시 장존동 305 장존청솔,분양,개별난방,144596.0,14,1998.0,삼두,한국토지신탁,0415320097,아산장존청솔.apti.co.kr,아파트,충청남도 아산시 외암로 1247,위탁관리,혼합식,20040817,0415320098,1998,121722.38,1998.0,0.0,0.0,0.0,97601.064,15,15,1,43,31561,36.7473276217763,127.01399748391
A33621001,아산초원설화타운3차아파트,4420010900,충청남도,아산시,좌부동,,충청남도 아산시 좌부동 83 아산초원설화타운3차아파트,분양,개별난방,29338.74,3,358.0,초원주택,초원주택,0415483003,초원설화타운3단지.apti.co.kr,아파트,충청남도 아산시 고불로 665,위탁관리,계단식,19951122,0415483223,358,28391.549,358.0,0.0,0.0,0.0,21437.04,14,14,0,13,31581,36.7543426709124,127.0314240511
A33621002,초원설화타운1차아파트,4420010900,충청남도,아산시,좌부동,,충청남도 아산시 좌부동 84-3 초원설화타운1차아파트,분양,개별난방,53295.0,2,810.0,(주)초원주택,(주)초원주택,0415489576,초원설화1차.apti.co.kr,아파트,충청남도 아산시 고불로 667,위탁관리,복도식,19941223,0415489577,810,51003.69,810.0,0.0,0.0,0.0,37171.8,15,15,0,9,31581,36.7527802192018,127.03108119288
A33621003,아산 초원설화타운 2차 아파트,4420010900,충청남도,아산시,좌부동,,충청남도 아산시 좌부동 84 아산 초원설화타운 2차 아파트,분양,개별난방,69679.0,7,830.0,(주)초원주택,(주)초원주택,0415484656,없음,아파트,충청남도 아산시 고불로 669,위탁관리,계단식,19951130,0415484657,830,65810.7,830.0,0.0,0.0,0.0,49700.4,15,15,0,28,31581,36.7538666451689,127.030595056782
A33676602,주택관리공단 아산읍내관리소,4420011000,충청남도,아산시,읍내동,,충청남도 아산시 읍내동 206 주택관리공단 아산읍내관리소,임대,중앙난방,53119.25,7,1223.0,"남광토건, 신영건설",한국토지주택공사,0415463725,www.kohom.co.kr/moffice/1109001/index.do,아파트,충청남도 아산시 외암로 1420,위탁관리,복도식,19930727,0415480664,1223,48976.06,1223.0,0.0,0.0,0.0,32988.06,15,15,0,16,31562,36.7638787257032,127.014975110451
A10026373,아산 풍기 이지더원2차 아파트,4420011100,충청남도,아산시,풍기동,,충청남도 아산시 풍기동 519 아산 풍기 이지더원2차 아파트,분양,개별난방,28251.316,2,182.0,라인산업,이지아산산업(주),0415497463,풍기이지더원2차.apti.co.kr,아파트,충청남도 아산시 어의정로 182,위탁관리,계단식,20180328,0415497464,182,18046.994,0.0,182.0,0.0,0.0,13271.314,28,28,2,4,31579,36.7744020527673,127.015772797823
A10026757,아산풍기이지더원1차아파트,4420011100,충청남도,아산시,풍기동,,충청남도 아산시 풍기동 514 아산풍기이지더원1차아파트,분양,개별난방,163438.0,13,1120.0,(주)라인산업,(주)이지아산산업,0415498031,아산풍기이지더원1차.apti.co.kr,아파트,충청남도 아산시 어의정로 184,위탁관리,계단식,20170929,0415498032,1120,110020.945,0.0,1120.0,0.0,0.0,82214.339,23,23,2,0,31579,36.774515836746,127.016633095726
A33606001,아산 인정프린스아파트,4420011100,충청남도,아산시,풍기동,,충청남도 아산시 풍기동 231 아산 인정프린스아파트,분양,개별난방,27555.0,4,254.0,인정건설,인정건설,0415465390,아산인정프린스.apti.co.kr,아파트,충청남도 아산시 어의정로183번길 15,위탁관리,혼합식,19930616,0415465394,254,23250.99,92.0,142.0,20.0,0.0,19630.57,15,15,0,8,31577,36.7763971538917,127.015551523621
A33606002,아산 풍기 현대I-PARK아파트,4420011100,충청남도,아산시,풍기동,,충청남도 아산시 풍기동 447 아산 풍기 현대I-PARK아파트,분양,개별난방,147932.2,13,869.0,현대산업개발,현대산업개발,0415489800,asipark.co.kr,아파트,충청남도 아산시 남부로 321-8,위탁관리,계단식,20080128,0415489801,869,87414.125,0.0,498.0,333.0,38.0,87414.123,20,20,2,31,31579,36.7727716398106,127.016599227226
A33606003,아산 주은환타지아아파트,4420011100,충청남도,아산시,풍기동,,충청남도 아산시 풍기동 229-71 아산 주은환타지아아파트,분양,개별난방,118301.734,11,1412.0,(주)덕일,(주)주은산업,0415330167,아산주은.apti.co.kr/apthome/,아파트,충청남도 아산시 어의정로183번길 14,위탁관리,혼합식,20000830,0415330168,1412,94308.48,1412.0,0.0,0.0,0.0,68281.92,20,20,1,27,31577,36.776093844424,127.016179878938
A33606004,아산 동일하이빌 아파트,4420011100,충청남도,아산시,풍기동,,충청남도 아산시 풍기동 440 아산 동일하이빌 아파트,분양,개별난방,233897.44,18,1456.0,동일토건,한국토지신탁,0415478091,풍기동일하이빌.apt.co.kr,아파트,충청남도 아산시 남부로 353,위탁관리,계단식,20080124,0415478093,1456,136375.64,0.0,1093.0,363.0,0.0,136375.6403,20,20,2,41,31579,36.7738821735719,127.023096614591
A10020215,아산자이그랜드파크2BL아파트,4420011200,충청남도,아산시,용화동,,충청남도 아산시 용화동 133-2 아산자이그랜드파크2BL아파트,분양,개별난방,142209.58,6,849.0,GS건설,하이스용화공원(주),0414283217,,아파트,충청남도 아산시 남부로 195,위탁관리,계단식,20260226,0414283218,849,98785.09,0.0,0.0,840.0,9.0,98785.0942,37,0,2,0,,36.7696778923439,127.002100035822
A10022973,아산줌파크,4420011200,충청남도,아산시,용화동,,충청남도 아산시 용화동 480-3 아산줌파크,분양,개별난방,110317.0,9,763.0,대창건설,용화개발(주),0415450112,,,충청남도 아산시 시민로 135,위탁관리,계단식,20231019,0415450113,763,78957.45,0.0,763.0,0.0,0.0,60673.54,24,24,3,23,31568,36.7627327573939,126.992481140779
A33605002,아산 용화주공2단지아파트,4420011200,충청남도,아산시,용화동,,충청남도 아산시 용화동 356 아산 용화주공2단지아파트,분양,개별난방,18051.39,11,370.0,lh,lh,0415436734,용화주공2단지.apti.co.kr,아파트,충청남도 아산시 시민로 277-3,위탁관리,계단식,19890315,0415436734,370,17659.8,370.0,0.0,0.0,0.0,15495.3,5,5,0,0,31567,36.7744863876441,126.993944699657
A33605003,아산 모아미래도 아파트,4420011200,충청남도,아산시,용화동,,충청남도 아산시 용화동 713 아산 모아미래도 아파트,분양,개별난방,78675.0,6,510.0,미래도건설(주),모아건설(주),0415310141,moaasan.apti.co.kr,아파트,충청남도 아산시 온중로 6,위탁관리,계단식,20050217,0415310143,510,45658.2,0.0,450.0,60.0,0.0,45658.2,15,15,0,17,31571,36.7711666043029,126.996821602828
A33605004,아산 온천마을아파트,4420011200,충청남도,아산시,용화동,,충청남도 아산시 용화동 584 아산 온천마을아파트,분양,개별난방,76676.0,8,830.0,"신호,기산","신호,기산",0415492920,,아파트,충청남도 아산시 어의정로 46,위탁관리,계단식,19980618,0415492921,830,71910.78,500.0,330.0,0.0,0.0,57930.2,15,15,1,29,31572,36.7744413052817,126.999688486803
A33605005,용화주공3단지아파트,4420011200,충청남도,아산시,용화동,,충청남도 아산시 용화동 712 용화주공3단지아파트,분양,개별난방,72228.76,13,898.0,대한주택공사,대한주택공사,0415459289,,아파트,충청남도 아산시 온중로 22,위탁관리,혼합식,19970317,0415459269,898,67699.96,898.0,0.0,0.0,0.0,52030.5,15,15,0,26,31571,36.7727978036167,126.99671915614
A33679001,용화마을신도브래뉴아파트,4420011200,충청남도,아산시,용화동,,충청남도 아산시 용화동 1623 용화마을신도브래뉴아파트,분양,개별난방,134712.83,11,940.0,(주)신도종합건설,(주)킴앤코,0415317034,www.용화마을.kr,아파트,충청남도 아산시 용화고길 90,위탁관리,계단식,20091008,0415317036,940,105550.04,403.0,431.0,106.0,0.0,74209.335,31,31,1,20,31578,36.7728985720612,127.011567313984
A33679002,아산용화아이파크,4420011200,충청남도,아산시,용화동,,충청남도 아산시 용화동 1394 아산용화아이파크,분양,개별난방,138798.34,8,894.0,현대산업개발,현대산업개발,0415498056,www.yhipark.co.kr,아파트,충청남도 아산시 용화고길 46,위탁관리,계단식,20140731,0415498057,894,77058.71,0.0,852.0,42.0,0.0,77058.7101,31,31,2,21,31575,36.7725602349689,127.006351980864
A33679003,아산용화엘크루,4420011200,충청남도,아산시,용화동,,충청남도 아산시 용화동 1395 아산용화엘크루,분양,개별난방,84787.78,6,511.0,대우조선해양건설(주),대우조선해양건설(주),0415412128,아산용화엘크루.apti.co.kr/,아파트,충청남도 아산시 어의정로 92-7,위탁관리,계단식,20140904,0415412129,511,50007.35,232.0,279.0,0.0,0.0,36478.0491,26,26,2,12,31575,36.7737379085299,127.006278260933
A10020171,힐스테이트 모종 블랑루체,4420011300,충청남도,아산시,모종동,,충청남도 아산시 모종동 854 힐스테이트 모종 블랑루체,분양,개별난방,0.0,,0.0,,,041-534-2004,,아파트,충청남도 아산시 한마음로 127-12,,,20260325,,0,0.0,0.0,0.0,0.0,0.0,,0,0,0,0,,36.788843396813,127.026547660807
A10020271,아산벨코어스위첸,4420011300,충청남도,아산시,모종동,,충청남도 아산시 모종동 555-14 아산벨코어스위첸,분양,개별난방,52323.332,2,299.0,KCC건설,주식회사 지강,0415335920,,주상복합,충청남도 아산시 삼동로70번길 36,위탁관리,계단식,20251203,0415335921,299,52323.285,0.0,0.0,0.0,299.0,52323.2862,46,0,5,0,,36.7856734624171,127.015214615681
A10022442,모종 리슈빌 더 스카이,4420011300,충청남도,아산시,모종동,,충청남도 아산시 모종동 562-1 모종 리슈빌 더 스카이,분양,개별난방,41018.0,2,268.0,동성건설,(주) 다온도시개발,0415494729,,,충청남도 아산시 번영로196번길 5,위탁관리,계단식,20240628,0415484729,268,24881.67,231.0,37.0,0.0,0.0,16329.83,39,39,5,1,,36.7845489032781,127.012627295617
A10023037,힐스테이트 모종 네오루체 아파트,4420011300,충청남도,아산시,모종동,,충청남도 아산시 모종동 736 힐스테이트 모종 네오루체 아파트,분양,개별난방,143886.23,9,927.0,(주)현대엔지니어링,(주)아산피엔디,0415499290,,아파트,충청남도 아산시 못마루로 139,위탁관리,계단식,20230830,0415499291,927,102265.305,0.0,816.0,111.0,0.0,78508.4039,27,27,1,21,31528,36.7846090648013,127.024849623769
A10023666,삼일파라뷰더센트럴,4420011300,충청남도,아산시,모종동,,충청남도 아산시 모종동 734 삼일파라뷰더센트럴,임대,개별난방,32327.293,4,352.0,삼일건설(주),삼일건설(주),0415317488,,아파트,,위탁관리,계단식,20220822,0415317489,352,30735.35,352.0,0.0,0.0,0.0,20998.879,20,20,2,13,31524,36.7869871755829,127.017351682169
A10023919,모종금호어울림아이퍼스트아파트,4420011300,충청남도,아산시,모종동,,충청남도 아산시 모종동 847 모종금호어울림아이퍼스트아파트,분양,개별난방,68598.71,4,463.0,금호건설(주),모종1구역주택재계발정비사업조합,0415458288,,아파트,충청남도 아산시 삼동로16번길 52,위탁관리,계단식,20220429,0415320806,463,45838.496,211.0,252.0,0.0,0.0,34062.013,23,23,2,12,31526,36.7800497244074,127.015654314451
A10026850,모종캐슬어울림 2단지 아파트,4420011300,충청남도,아산시,모종동,,충청남도 아산시 모종동 640 모종캐슬어울림 2단지 아파트,분양,개별난방,114448.0,9,794.0,"롯데건설,금호건설",군인공제회,0415347661,mjcastle2.aptner.co.kr,아파트,충청남도 아산시 모종로22번길 33,위탁관리,계단식,20170615,0415347663,794,82786.9,288.0,460.0,46.0,0.0,61505.2884,25,25,1,20,31528,36.7815958072853,127.02121914576
A10027173,캐슬어울림1단지아파트,4420011300,충청남도,아산시,모종동,,충청남도 아산시 모종동 637 캐슬어울림1단지아파트,분양,개별난방,113703.5,9,792.0,금호건설,군인공제회,0415330386,mo-vill.com/castleoullim,아파트,충청남도 아산시 모종로22번길 7,위탁관리,계단식,20170206,0415330387,792,82411.44,292.0,460.0,40.0,0.0,61072.0804,25,25,1,21,31528,36.7841483173068,127.020121069647
A10027175,모종캐슬어울림3단지아파트,4420011300,충청남도,아산시,모종동,,충청남도 아산시 모종동 643 모종캐슬어울림3단지아파트,분양,개별난방,78418.0,6,516.0,롯데건설,군인공제회,0415330727,모종캐슬어울림3단지.apti.co.kr,아파트,충청남도 아산시 모종남로22번길 11,위탁관리,계단식,20170206,0415330724,516,56794.47,98.0,374.0,44.0,0.0,42604.2945,23,23,1,14,31528,36.7795084141173,127.021983457823
A33604001,온양라이프아파트,4420011300,충청남도,아산시,모종동,,충청남도 아산시 모종동 578 온양라이프아파트,분양,개별난방,46882.81,6,374.0,라이프종합건설,라이프종합건설,0415417707,,아파트,충청남도 아산시 번영로206번길 32,자치관리,혼합식,19921226,0415417801,374,30408.68,136.0,196.0,42.0,0.0,30408.68,9,9,1,18,31521,36.781903821581,127.012124762606
A33604002,아산 모종푸르지오,4420011300,충청남도,아산시,모종동,,충청남도 아산시 모종동 628 아산 모종푸르지오,분양,개별난방,59971.56,4,427.0,대우건설,동안S&S,0415460789,아산모종푸르지오.apti.co.kr/,아파트,충청남도 아산시 문화로 353,위탁관리,계단식,20080730,0415462789,427,48476.484,0.0,294.0,133.0,0.0,37169.2818,20,20,1,12,31527,36.7827619312384,127.019703294908
A33604003,아산 모종 주공아파트,4420011300,충청남도,아산시,모종동,,충청남도 아산시 모종동 622 아산 모종 주공아파트,임대,개별난방,41498.668,8,642.0,동산건설,한국토지주택공사,0415315533,,아파트,충청남도 아산시 문화로 301-16,위탁관리,복도식,20060616,0415324433,642,41292.06,642.0,0.0,0.0,0.0,28153.53,15,15,0,13,31525,36.7845700313589,127.018504257377
A33604004,아산 한라동백아파트,4420011300,충청남도,아산시,모종동,,충청남도 아산시 모종동 576-1 아산 한라동백아파트,분양,개별난방,79356.2,3,688.0,한라건설(주),한라건설(주),0415441230,아산한라.apti.co.kr,아파트,충청남도 아산시 삼동로 34,위탁관리,계단식,19981119,0415471230,688,65644.0,288.0,334.0,66.0,0.0,53206.7,22,22,1,16,31521,36.7833106159018,127.012387801249
A33604005,아산모종e-편한세상아파트,4420011300,충청남도,아산시,모종동,,충청남도 아산시 모종동 625 아산모종e-편한세상아파트,분양,개별난방,344011.78,10,754.0,(주)대림산업,(주)나우누리,0415478060,www.mjdaelim.com,아파트,충청남도 아산시 문화로 355,위탁관리,계단식,20060829,0415478062,754,70528.51,0.0,566.0,188.0,0.0,70528.504,22,22,1,19,31527,36.7806344297291,127.019507044692
A33604006,모종1차한성필하우스,4420011300,충청남도,아산시,모종동,,충청남도 아산시 모종동 617 모종1차한성필하우스,분양,개별난방,120388.4,9,769.0,한성종합건설(주),한성종합건설(주),0415446622,모종1차한성.apti.co.kr,아파트,충청남도 아산시 모종로 21,위탁관리,계단식,20051212,0415446628,769,91292.74,0.0,622.0,147.0,0.0,70588.9413,15,15,1,0,31525,36.7861050243505,127.019423511162
A33675201,모종2차한성필하우스,4420011300,충청남도,아산시,모종동,,충청남도 아산시 모종동 632 모종2차한성필하우스,분양,개별난방,59510.95,6,374.0,한성건설,한성건설,0415317447,www.mj2-feelhaus.com/LxProject/R01_Web/M08_Main/S01_Main/D01_Main/P01_Main.aspx,아파트,충청남도 아산시 모종로 22,위탁관리,계단식,20100429,0415448765,374,41765.93,0.0,374.0,0.0,0.0,30954.2244,20,20,2,10,31527,36.7840705895958,127.019345585802
A10020460,아산한신더휴,4420011400,충청남도,아산시,권곡동,,충청남도 아산시 권곡동 627- 아산한신더휴,분양,개별난방,99242.74,7,603.0,한신공영(주),한신공영(주),0415320828,,아파트,충청남도 아산시 문화로 257-45,위탁관리,계단식,20250818,0415320829,603,69096.375,0.0,544.0,59.0,0.0,52111.85,20,20,2,14,,36.7918974212211,127.014809812558
A10024037,모종삼일파라뷰더스위트 아파트,4420011400,충청남도,아산시,권곡동,,충청남도 아산시 권곡동 623 모종삼일파라뷰더스위트 아파트,임대,개별난방,44999.867,5,346.0,삼일건설,파라뷰더스테이(주)  삼일건설(주),0415343200,삼일파라뷰더스위트.apti.co.kr,아파트,충청남도 아산시 문화로 271-30,위탁관리,계단식,20211201,0415343201,346,30384.531,346.0,0.0,0.0,0.0,20726.6204,20,20,2,0,31524,36.7889077586033,127.0183044201
A33603001,아산 권곡주공아파트,4420011400,충청남도,아산시,권곡동,,충청남도 아산시 권곡동 607 아산 권곡주공아파트,분양,개별난방,21215.32,4,268.0,LH건설,대한주택공사,0415348798,권곡주공.apti.co.kr,아파트,충청남도 아산시 박물관로 13,위탁관리,계단식,20030708,0415348799,268,21215.32,268.0,0.0,0.0,0.0,15314.1,13,13,1,8,31516,36.7931772137479,127.010241318823
A33603002,아산 삼부르네상스 아파트,4420011400,충청남도,아산시,권곡동,,충청남도 아산시 권곡동 610 아산 삼부르네상스 아파트,분양,개별난방,82462.81,8,498.0,삼부토건(주),(주)명주도시개발,0415325600,,아파트,충청남도 아산시 문화로243번길 13,위탁관리,계단식,20051109,0415325603,498,63774.24,0.0,318.0,180.0,0.0,48889.62,15,15,1,17,31518,36.791269578169,127.012798138006
A33603003,아산 권곡청솔아파트,4420011400,충청남도,아산시,권곡동,,충청남도 아산시 권곡동 205-1 아산 권곡청솔아파트,분양,개별난방,56596.0,4,620.0,토지신탁,토지신탁,0415331155,,아파트,충청남도 아산시 문화로 257-17,위탁관리,복도식,20020730,0415321150,620,45090.926,620.0,0.0,0.0,0.0,36084,15,15,2,7,31518,36.7914816762951,127.014574225266
A33671201,아산더샵퍼스트타워,4420011400,충청남도,아산시,권곡동,,충청남도 아산시 권곡동 620 아산더샵퍼스트타워,분양,개별난방,85028.45,5,390.0,(주)포스코건설,(주)포스코건설,0415410021,,아파트,충청남도 아산시 권곡로 47,위탁관리,계단식,20090625,0415415021,390,47806.582,0.0,0.0,287.0,103.0,47806.5837,28,28,2,10,31516,36.7943402941647,127.010090326587
A33671202,아산충무서해그랑블2차,4420011400,충청남도,아산시,권곡동,,충청남도 아산시 권곡동 96-1 아산충무서해그랑블2차,분양,개별난방,90591.0,9,537.0,서해종합건설,서해종합건설,0415479200,asangrangble.apti.co.kr,아파트,충청남도 아산시 문화로 257-24,위탁관리,계단식,20090501,0415479201,537,64748.234,0.0,421.0,116.0,0.0,49485.0632,15,15,2,19,31523,36.7911357062599,127.016864463245
A33671203,아산서해그랑블1차아파트,4420011400,충청남도,아산시,권곡동,,충청남도 아산시 권곡동 169-1 아산서해그랑블1차아파트,분양,개별난방,75260.695,7,506.0,서해종합건설,서해종합건설,0415470030,서해그랑블1단지.apti.co.kr,아파트,충청남도 아산시 문화로 257-20,위탁관리,혼합식,20090501,0415470029,506,54471.24,0.0,506.0,0.0,0.0,40859.4412,15,15,2,18,31523,36.7895264885663,127.016273900863
A33613001,삼정백조,4420011500,충청남도,아산시,배미동,,충청남도 아산시 배미동 239-14 삼정백조,분양,개별난방,46258.93,5,498.0,삼정주택,삼정주택,0415317899,,아파트,충청남도 아산시 서부북로 988,위탁관리,복도식,20080918,0415317634,498,39313.117,498.0,0.0,0.0,0.0,29736.87,15,15,0,8,31531,36.7880293532646,126.968728233591
A33613002,아산서진아파트,4420011500,충청남도,아산시,배미동,,충청남도 아산시 배미동 174-3 아산서진아파트,분양,개별난방,72578.23,8,1215.0,서진종합건설,덕경종합상사,0415458176,배미마을서진.apti.co.kr,아파트,충청남도 아산시 서부북로 973,위탁관리,복도식,20000523,0415458177,1215,62645.73,1215.0,0.0,0.0,0.0,47405.34,15,15,0,16,31530,36.7897961300943,126.967246720487
A33612002,아산득산부영,4420011600,충청남도,아산시,득산동,,충청남도 아산시 득산동 392-2 아산득산부영,분양,개별난방,95202.28,9,1163.0,동광주택,부영,0415320181,아산득산부영.apti.co.kr/aptHome/,아파트,충청남도 아산시 온천대로 1105-17,위탁관리,복도식,19980530,0415320182,1163,60664.56,1163.0,0.0,0.0,0.0,60664.56,15,15,1,17,31531,36.7870224036554,126.960141752459
A10021302,성환엑스포아파트,4420025030,충청남도,아산시,염치읍,석정리,충청남도 아산시 염치읍 석정리 30-6 성환엑스포아파트,분양,개별난방+기타,10336.0,1,123.0,성환건설주식회사,성환건설주식회사,0415480653,,아파트,충청남도 아산시 충무로 227,자치관리,계단식,19950623,0415429423,123,10015.29,93.0,30.0,0.0,0.0,8046,1,15,0,5,,36.8007133075559,127.006490673591
A33681402,한남프레시앙,4420025031,충청남도,아산시,염치읍,방현리,충청남도 아산시 염치읍 방현리 442 한남프레시앙,분양,개별난방,43433.09,6,480.0,한남토건(주),(주)The ITC,0415332854,hanam.apti.co.kr,아파트,충청남도 아산시 충무로308번길 24,위탁관리,복도식,20021025,0415332853,480,37138.08,480.0,0.0,0.0,0.0,28800,15,15,1,0,31448,36.8084630267176,127.008339380923
A33681301,송곡신일아파트,4420025032,충청남도,아산시,염치읍,송곡리,충청남도 아산시 염치읍 송곡리 46-1 송곡신일아파트,분양,개별난방,30428.94,3,420.0,신일건설,신일건설,0415339138,,아파트,충청남도 아산시 송곡길68번길 3,위탁관리,계단식,20010824,0415339158,420,29867.686,420.0,0.0,0.0,0.0,23489.7,15,15,0,14,31450,36.8067234013218,127.020997695148
A10021660,아산배방라온프라이빗,4420025324,충청남도,아산시,배방읍,공수리,충청남도 아산시 배방읍 공수리 1744- 아산배방라온프라이빗,분양,개별난방,30988.0,3,195.0,라온건설,하나원디엔씨,0415321882,https://아산배방라온프라이빗.apti.co.kr/aptHome/,아파트,충청남도 아산시 배방로105번길 14,위탁관리,계단식,20240912,0415321883,195,22198.242,0.0,195.0,0.0,0.0,16574.595,20,20,1,6,,36.7713852657204,127.058738457975
A10023930,아산배방2차우방아이유쉘1단지아파트,4420025324,충청남도,아산시,배방읍,공수리,충청남도 아산시 배방읍 공수리 1738 아산배방2차우방아이유쉘1단지아파트,혼합,개별난방,84395.195,7,519.0,(주)우방,(주)우방,0415318020,,아파트,충청남도 아산시 모산로 38-11,위탁관리,계단식,20220119,0415428020,519,46353.867,0.0,519.0,0.0,0.0,69826.1682,26,26,4,16,31480,36.7713936756569,127.046208648754
A10024252,아산한성필하우스테라스인포레,4420025324,충청남도,아산시,배방읍,공수리,충청남도 아산시 배방읍 공수리 1735 아산한성필하우스테라스인포레,분양,개별난방,21474.47,9,136.0,한성건설(주),한성건설(주),0415482005,,연립주택,충청남도 아산시 배방로 78,위탁관리,계단식,20210616,0415482008,136,14129.803,0.0,136.0,0.0,0.0,11220.7152,4,4,2,18,31481,36.7688615851787,127.053809807052
A10024283,아산배방우방아이유쉘2단지아파트,4420025324,충청남도,아산시,배방읍,공수리,충청남도 아산시 배방읍 공수리 1730 아산배방우방아이유쉘2단지아파트,분양,개별난방,176129.1,15,1267.0,SM상선,SM상선,0415314033,배방우방아이유쉘2단지.apti.co.kr,아파트,충청남도 아산시 배방로 58-44,위탁관리,계단식,20210528,0415314933,1267,176129.1,0.0,1267.0,0.0,0.0,84833.7468,27,27,4,31,31480,36.7709107486274,127.048518334303
A10024521,한양수자인2차아파트,4420025324,충청남도,아산시,배방읍,공수리,충청남도 아산시 배방읍 공수리 1728 한양수자인2차아파트,분양,개별난방,15709.381,2,153.0,한양건설,배방2차한양수자인지역주택조합,0415323006,한양수자인2차.apti.co.kr,아파트,충청남도 아산시 북수로 31,위탁관리,계단식,20201123,0415473006,153,11322.377,153.0,0.0,0.0,0.0,7975.9134,20,20,1,5,31486,36.7726511428842,127.063328563133
A10024761,배방한성필하우스6차아파트,4420025324,충청남도,아산시,배방읍,공수리,충청남도 아산시 배방읍 공수리 1725 배방한성필하우스6차아파트,분양,개별난방,67543.1,6,511.0,한성건설(주),배방 센트럴시티 지역주택조합,0415337911,,아파트,충청남도 아산시 배방로 127,위탁관리,계단식,20200709,0415337912,511,48248.5,284.0,227.0,0.0,0.0,36073.9037,20,20,2,18,31488,36.7701112894975,127.059956586658
A10025378,센텀시티한양수자인아파트,4420025324,충청남도,아산시,배방읍,공수리,충청남도 아산시 배방읍 공수리 1723 센텀시티한양수자인아파트,분양,개별난방,35975.703,6,334.0,(주)한양건설,배방한양수자인 지역주택조합,0414240773,센텀시티한양수자인.apti.co.kr/aptHome/,아파트,충청남도 아산시 북수로 33,위탁관리,계단식,20190719,0414240774,334,29889.404,181.0,153.0,0.0,0.0,21554.674,20,20,1,11,31486,36.7733990571766,127.063857880964
A10025904,배방5차한성필하우스아파트,4420025324,충청남도,아산시,배방읍,공수리,충청남도 아산시 배방읍 공수리 1675 배방5차한성필하우스아파트,분양,개별난방,79706.0,7,467.0,한성개발(주),대유건설(주),0415335673,movill.net,아파트,충청남도 아산시 모산로 52,위탁관리,계단식,20181113,0415335674,467,50968.11,0.0,467.0,0.0,0.0,38451.5511,26,26,2,15,31480,36.7726052084128,127.048519850068
A10026121,배방역 효성해링턴 플레이스,4420025324,충청남도,아산시,배방읍,공수리,충청남도 아산시 배방읍 공수리 1487 배방역 효성해링턴 플레이스,분양,개별난방,73343.88,6,557.0,(주)효성,하나자산투자,0415433371,배방역효성해링턴플레이스.apti.co.kr,아파트,충청남도 아산시 모산로 67,위탁관리,계단식,20180803,0415433372,557,54754.844,235.0,317.0,0.0,5.0,40540.675,20,20,1,13,31480,36.7738107168138,127.050055984062
A10026656,아산배방3차 한성필하우스아파트,4420025324,충청남도,아산시,배방읍,공수리,충청남도 아산시 배방읍 공수리 1486 아산배방3차 한성필하우스아파트,분양,개별난방,90461.0,9,711.0,한성건설,한성건설,0415332231,배방3차한성.apti.co.kr,아파트,충청남도 아산시 모산로 51,위탁관리,혼합식,20171030,0415342231,711,66044.47,453.0,258.0,0.0,0.0,47768.8259,25,25,2,19,31480,36.7739385740348,127.047669943453
A10027042,아산배방메이루즈아파트,4420025324,충청남도,아산시,배방읍,공수리,충청남도 아산시 배방읍 공수리 1717 아산배방메이루즈아파트,분양,개별난방,50055.418,7,426.0,삼일건설,재유인베스트먼트,0415452823,,아파트,충청남도 아산시 북수로25번길 33,위탁관리,계단식,20170227,0415452824,426,36395.867,389.0,37.0,0.0,0.0,26387.2219,20,20,1,12,31486,36.7740241880817,127.062621762816
A10028005,배방2차 푸르지오,4420025324,충청남도,아산시,배방읍,공수리,충청남도 아산시 배방읍 공수리 1712 배방2차 푸르지오,분양,개별난방,57269.0,6,379.0,대우건설,대우건설,0415496906,배방푸르지오2차.apti.co.kr,아파트,충청남도 아산시 배방로 58-38,위탁관리,계단식,20150422,0415496907,379,42731.91,0.0,379.0,0.0,0.0,32187.9394,20,20,2,11,31480,36.7717927615316,127.048075550731
A33672927,배방삼정그린코아,4420025324,충청남도,아산시,배방읍,공수리,충청남도 아산시 배방읍 공수리 282 배방삼정그린코아,분양,개별난방,149596.88,6,2156.0,(주)삼정기업,아시아신탁(주),0415328753,,아파트,충청남도 아산시 모산로126번길 17-7,위탁관리,복도식,20120120,0415328755,2156,111563.67,2156.0,0.0,0.0,0.0,86215.8,22,22,0,26,31486,36.7733952254088,127.058334503264
A33685202,아산 배방2차 한성필하우스 아파트,4420025324,충청남도,아산시,배방읍,공수리,충청남도 아산시 배방읍 공수리 1162 아산 배방2차 한성필하우스 아파트,분양,개별난방,37949.0,3,254.0,한성건설(주),한성건설(주),0415447455,배방2차한성필하우스.apti.co.kr,아파트,충청남도 아산시 배방로 58-46,위탁관리,계단식,20070814,0415347455,254,29802.715,0.0,254.0,0.0,0.0,21563.6527,15,15,1,0,31481,36.7706392135289,127.050535002138
A33685204,아산 배방 중앙하이츠2차 아파트,4420025324,충청남도,아산시,배방읍,공수리,충청남도 아산시 배방읍 공수리 634 아산 배방 중앙하이츠2차 아파트,분양,개별난방,41714.41,4,298.0,(주)중앙건설,우인건설,0415343030,www.asan-joongang.com,아파트,충청남도 아산시 배방로 58-11,위탁관리,계단식,20060630,0419103035,298,26328.908,0.0,270.0,28.0,0.0,26328.736,15,15,1,12,31481,36.7714915504422,127.054284553259
A33685205,배방1차한성필하우스아파트,4420025324,충청남도,아산시,배방읍,공수리,충청남도 아산시 배방읍 공수리 640 배방1차한성필하우스아파트,분양,개별난방,59500.0,6,396.0,한성종합건설(주),한성종합건설(주),0415498100,배방1차한성필하우스아파트.apti.co.kr/,아파트,충청남도 아산시 배방로 58-43,위탁관리,계단식,20061212,0415499100,396,47520.0,0.0,342.0,54.0,0.0,35590.8366,15,15,1,0,31481,36.7712442355934,127.051348704907
A33685209,아산 배방중앙하이츠1차 아파트,4420025324,충청남도,아산시,배방읍,공수리,충청남도 아산시 배방읍 공수리 632 아산 배방중앙하이츠1차 아파트,분양,개별난방,102392.0,6,702.0,주)중앙건설,G.C스페이스,0415313003,www.jaapt.co.kr,아파트,충청남도 아산시 배방로 58-10,위탁관리,계단식,20060630,0415319303,702,78856.5,0.0,642.0,60.0,0.0,61017.658,15,15,3,28,31481,36.7723612189906,127.051859215386
A33685217,아산 한도아파트,4420025324,충청남도,아산시,배방읍,공수리,충청남도 아산시 배방읍 공수리 282-5 아산 한도아파트,분양,개별난방,74715.6,7,922.0,(주)한도주택,(주)한도주택,0415497566,,아파트,충청남도 아산시 모산로126번길 17-26,위탁관리,혼합식,19970627,0415496196,922,70026.46,770.0,152.0,0.0,0.0,50262.36,20,20,0,17,31488,36.7721663254954,127.059340443481
A33685314,아산배방푸르지오아파트,4420025324,충청남도,아산시,배방읍,공수리,충청남도 아산시 배방읍 공수리 1167 아산배방푸르지오아파트,분양,개별난방,138059.75,14,893.0,(주)대우건설,디엔디홀딩스,0415440061,http://아산배방푸르지오.apti.co.kr,아파트,충청남도 아산시 배방로105번길 31,위탁관리,계단식,20070329,0415440063,893,109601.16,0.0,563.0,330.0,0.0,84170.7066,15,15,1,30,31488,36.7713212651767,127.055207509762
A33685813,아산 배방 한라비발디 아파트,4420025324,충청남도,아산시,배방읍,공수리,충청남도 아산시 배방읍 공수리 636 아산 배방 한라비발디 아파트,분양,개별난방,124381.516,10,794.0,한라건설,한라건설,0415345222,배방한라비발디.apti.co.kr,아파트,충청남도 아산시 배방로 131,위탁관리,계단식,20060831,0415345223,794,94571.0,0.0,467.0,327.0,0.0,74152.09,15,15,2,27,31487,36.7715237975268,127.061531322739
A10022937,아산더샵센트로아파트,4420025325,충청남도,아산시,배방읍,북수리,충청남도 아산시 배방읍 북수리 1952 아산더샵센트로아파트,분양,개별난방,148973.0,11,939.0,(주)포스코이엔씨,(주)성원개발,0414247733,https://아산더샵센트로아파트.apti.co.kr,아파트,충청남도 아산시 북수로 163,위탁관리,계단식,20231024,0414247734,939,104458.49,0.0,866.0,73.0,0.0,80386.249,28,28,2,24,31493,36.7762523863638,127.078827567739
A10023707,충남꿈비채아산배방,4420025325,충청남도,아산시,배방읍,북수리,충청남도 아산시 배방읍 북수리 1873 충남꿈비채아산배방,임대,개별난방,72441.0,10,600.0,한신공영(주) (주)우석건설,충남개발공사,0415483624,abdreamlight.aptner.com,아파트,,위탁관리,혼합식,20220628,0415483621,600,45395.74,600.0,0.0,0.0,0.0,31727.0102,25,25,2,3,31494,36.7701115110394,127.07764877614
A33685106,새솔마을중앙하이츠3차아파트,4420025325,충청남도,아산시,배방읍,북수리,충청남도 아산시 배방읍 북수리 1535 새솔마을중앙하이츠3차아파트,분양,개별난방,57157.0,6,400.0,중앙건설,비엔디개발,0415330885,새솔마을중앙하이츠3차.apti.co.kr,아파트,충청남도 아산시 북수로 137,위탁관리,계단식,20080128,0415330887,400,45738.8,0.0,370.0,30.0,0.0,35173.956,15,15,1,14,31493,36.7747211795633,127.075540370366
A33685107,"아산금호어울림(1차,2차)",4420025325,충청남도,아산시,배방읍,북수리,"충청남도 아산시 배방읍 북수리 1181 아산금호어울림(1차,2차)",분양,개별난방,56708.766,7,410.0,금호산업(주),피쓰리개발(주),0415490255,,아파트,충청남도 아산시 배방로201번길 10,위탁관리,계단식,20050526,0415490256,410,46248.348,0.0,310.0,100.0,0.0,37103.8662,15,15,1,0,31490,36.7714541042365,127.069455670142
A33685111,아산 배방 자이2차아파트,4420025325,충청남도,아산시,배방읍,북수리,충청남도 아산시 배방읍 북수리 1530 아산 배방 자이2차아파트,분양,개별난방,99943.0,10,712.0,GS건설,금강디랜디,0415431166,http://배방자이2차.apti.co.kr/,아파트,충청남도 아산시 북수로 116,위탁관리,계단식,20071224,0415431167,712,82987.08,0.0,592.0,120.0,0.0,64771.7603,15,15,1,28,31492,36.7733051930203,127.072600764583
A33685410,아산배방롯데캐슬아파트,4420025325,충청남도,아산시,배방읍,북수리,충청남도 아산시 배방읍 북수리 1534 아산배방롯데캐슬아파트,분양,개별난방,99995.0,13,704.0,롯데건설(주),롯데건설(주),0415329692,배방롯데캐슬아파트.apti.co.kr/,아파트,충청남도 아산시 북수로 183,위탁관리,계단식,20080102,0415329694,704,80705.734,59.0,505.0,140.0,0.0,62628.3786,15,15,1,24,31493,36.7751268089948,127.079629008343
A33685108,아산배방삼정백조임대아파트,4420025326,충청남도,아산시,배방읍,회룡리,충청남도 아산시 배방읍 회룡리 357-1 아산배방삼정백조임대아파트,임대,개별난방,20994.31,2,424.0,삼정주택건설,삼정주택건설,0415496115,,아파트,충청남도 아산시 솔치로 261,위탁관리,복도식,19980303,0415311355,424,19289.92,424.0,0.0,0.0,0.0,14034.02,15,15,0,2,31498,36.7480524383617,127.068476279318
A33685118,아산 배방자이1차아파트,4420025328,충청남도,아산시,배방읍,갈매리,충청남도 아산시 배방읍 갈매리 508 아산 배방자이1차아파트,분양,개별난방,304903.0,30,1875.0,gs건설,한국토지신탁,0415421167,www.bbxi.co.kr,아파트,충청남도 아산시 호서로 460,위탁관리,계단식,20071226,0415421168,1875,243213.67,0.0,1239.0,462.0,174.0,189408,15,15,1,0,31495,36.76834269035,127.083399952163
A10020284,힐스테이트 자이 아산센텀,4420025329,충청남도,아산시,배방읍,세교리,충청남도 아산시 배방읍 세교리 1600- 힐스테이트 자이 아산센텀,분양,지역난방,129339.05,8,787.0,"현대건설, GS건설",(주)아산탕정고양삼송 주택개발위탁관리부동산투자회사,0414252331,,아파트,충청남도 아산시 배방읍 동방로 169,위탁관리,계단식,20260109,0414252332,787,88498.95,0.0,617.0,170.0,0.0,67514.7059,29,29,2,17,,36.7782343656888,127.095243595085
A10020398,아산금강펜테리움센트럴파크,4420025329,충청남도,아산시,배방읍,세교리,충청남도 아산시 배방읍 세교리 1562- 아산금강펜테리움센트럴파크,분양,지역난방,82149.48,5,438.0,금강주택,펜테리움건설,0415482988,,아파트,충청남도 아산시 동방로 136,위탁관리,계단식,20250626,0415482989,438,81452.66,0.0,343.0,95.0,0.0,37285.881,28,28,2,0,,36.7807577906701,127.096989586124
A10020547,엘리프아산탕정,4420025329,충청남도,아산시,배방읍,세교리,충청남도 아산시 배방읍 세교리 1522- 엘리프아산탕정,분양,지역난방,106823.37,9,682.0,(주)계룡건설,(주)계룡건설,0415473007,,아파트,충청남도 아산시 동방로 220,위탁관리,계단식,20250623,0415473009,682,73029.93,0.0,682.0,0.0,0.0,54687.25,1,29,0,19,,36.7778885880325,127.089225016184
A10020900,e편한세상탕정퍼스트드림,4420025329,충청남도,아산시,배방읍,세교리,충청남도 아산시 배방읍 세교리 1605- e편한세상탕정퍼스트드림,분양,지역난방,101813.93,9,893.0,디엘이앤씨(주),충청남도개발공사,0415410992,,아파트,충청남도 아산시 동방로 201,위탁관리,계단식,20250107,0415320992,893,99360.97,0.0,893.0,0.0,0.0,75779.8025,29,29,2,21,,36.7769126921768,127.092743166214
A10021865,test001,4420025329,충청남도,아산시,배방읍,세교리,충청남도 아산시 배방읍 세교리 1562- test001,분양,개별난방,2650.0,1,438.0,ㅇㄹㄹ,ㅈㄷㅇ,0211111111,,,,위탁관리,계단식,20241104,2334123,100,2200.0,0.0,343.0,95.0,0.0,37285.881,10,28,1,0,,36.7807577906701,127.096989586124
A10022470,아산탕정대광로제비앙,4420025329,충청남도,아산시,배방읍,세교리,충청남도 아산시 배방읍 세교리 1561- 아산탕정대광로제비앙,분양,지역난방,75479.0,5,459.0,대광건영,(주)디케이랜드,0415310937,,아파트,충청남도 아산시 동방로 134,위탁관리,계단식,20240731,0415310938,459,52742.145,0.0,367.0,92.0,0.0,40702.9285,27,27,1,11,,36.781601263946,127.096399155964
A10022864,별하신도시하늘채아파트,4420025329,충청남도,아산시,배방읍,세교리,충청남도 아산시 배방읍 세교리 1478 별하신도시하늘채아파트,혼합,지역난방,64863.83,7,510.0,코오롱,한국토지주택공사,0415497551,,아파트,충청남도 아산시 세교길 14,위탁관리,계단식,20231214,0415497785,510,64720.004,510.0,0.0,0.0,0.0,29346.68,27,27,2,15,31473,36.7785153384859,127.087738331724
A10022921,아산배방9단지아파트,4420025329,충청남도,아산시,배방읍,세교리,충청남도 아산시 배방읍 세교리 1606 아산배방9단지아파트,임대,지역난방,63782.79,6,884.0,동부건설,한국토지주택공사,0415435670,아산배방9단지.apti.co.kr,아파트,충청남도 아산시 동방로 219,위탁관리,복도식,20231122,0415435669,884,30370.78,884.0,0.0,0.0,0.0,30370.78,29,29,1,8,31473,36.7760743627931,127.090192197923
A10023501,아산배방LH15단지,4420025329,충청남도,아산시,배방읍,세교리,충청남도 아산시 배방읍 세교리 1592 아산배방LH15단지,임대,지역난방,103643.48,22,1442.0,한신공영 外,한국토지주택공사,0415330015,아산배방lh15단지.apti.co.kr,아파트,,위탁관리,복도식,20221128,0415330013,1442,50749.73,1442.0,0.0,0.0,0.0,50749.73,29,29,1,32,31473,36.7822000757957,127.102203527787
A10023637,아산배방LH 14단지,4420025329,충청남도,아산시,배방읍,세교리,충청남도 아산시 배방읍 세교리 1599 아산배방LH 14단지,임대,지역난방,75764.0,10,1139.0,양우종합건설,한국토지주택공사,0415444656,,아파트,,위탁관리,복도식,20220906,0415444657,1139,75064.96,1139.0,0.0,0.0,0.0,37437.18,29,29,1,22,31473,36.7788002700498,127.098775200651
A10024291,아산탕정LH7단지,4420025329,충청남도,아산시,배방읍,세교리,충청남도 아산시 배방읍 세교리 935-3 아산탕정LH7단지,임대,지역난방,65903.1,9,944.0,태평양건설,LH토지주택공사,0415486055,,,충청남도 아산시 세교길 13,위탁관리,복도식,20210517,0415486057,944,65589.67,944.0,0.0,0.0,0.0,34541.3,24,24,1,15,31473,36.7784677311415,127.088989771989
A33685501,아산 신한아파트,4420025329,충청남도,아산시,배방읍,세교리,충청남도 아산시 배방읍 세교리 432 아산 신한아파트,분양,개별난방,10891.0,4,240.0,신한건설(주),신한건설(주),0415482713,,아파트,충청남도 아산시 온천대로 2332,위탁관리,복도식,19960116,0415482713,240,10731.63,240.0,0.0,0.0,0.0,8725.92,6,6,1,4,31473,36.7807025593625,127.091169539818
A33685515,아산신라아파트,4420025329,충청남도,아산시,배방읍,세교리,충청남도 아산시 배방읍 세교리 424-9 아산신라아파트,분양,개별난방,73141.0,5,960.0,(주)신라종합개발,(주)신라종합개발,0415491332,아산신라.apti.co.kr,아파트,충청남도 아산시 온천대로 2358,위탁관리,복도식,19971023,0415486310,960,67233.3,960.0,0.0,0.0,0.0,50401.8,15,15,0,0,31473,36.780983256545,127.093949419001
A33685503,아산 휴대리 한성아파트,4420025330,충청남도,아산시,배방읍,휴대리,충청남도 아산시 배방읍 휴대리 212 아산 휴대리 한성아파트,분양,개별난방,19359.87,6,290.0,주) 한성종합건설,주)한성종합건설,0415315161,,아파트,충청남도 아산시 휴대길 212,위탁관리,복도식,19990420,0415315162,290,17377.873,290.0,0.0,0.0,0.0,13243.1,5,5,1,9,31474,36.7663474968494,127.119116328972
A10024818,아산배방LH12단지 아파트,4420025331,충청남도,아산시,배방읍,장재리,충청남도 아산시 배방읍 장재리 1346 아산배방LH12단지 아파트,임대,지역난방,10853.73,2,250.0,명승종합건설,한국토지주택공사,0415450605,,아파트,충청남도 아산시 공원로 89,위탁관리,복도식,20200617,0415450607,250,10853.692,250.0,0.0,0.0,0.0,6023.24,17,17,1,5,31467,36.7917022214811,127.098591769747
A10025952,아산배방엘에치4단지아파트,4420025331,충청남도,아산시,배방읍,장재리,충청남도 아산시 배방읍 장재리 1348 아산배방엘에치4단지아파트,임대,지역난방,99640.38,6,1464.0,(주)금강주택,한국토지주택공사,0415497157,배방LH4단지.apti.co.kr,아파트,충청남도 아산시 공원로 69,위탁관리,복도식,20181105,0415497159,1465,89502.16,1464.0,0.0,0.0,0.0,37926.26,25,25,2,20,31467,36.7903240795762,127.0994319686
A33672919,연화마을 8단지,4420025331,충청남도,아산시,배방읍,장재리,충청남도 아산시 배방읍 장재리 1539 연화마을 8단지,분양,지역난방,100854.21,11,724.0,한신공영,LH,0415324900,,아파트,충청남도 아산시 연화로 36,위탁관리,계단식,20090625,0415444901,735,100395.65,0.0,724.0,0.0,0.0,58872.6,24,24,1,22,31469,36.7860879431029,127.095694718684
A33672920,용연마을3단지,4420025331,충청남도,아산시,배방읍,장재리,충청남도 아산시 배방읍 장재리 1208 용연마을3단지,분양,지역난방,53354.0,6,378.0,KCC건설,대한주택공사(LH),0415344499,cafe.daum.net/asan-Humansia3BL,아파트,충청남도 아산시 용연로 54,위탁관리,계단식,20090608,0415344498,378,53115.72,0.0,378.0,0.0,0.0,31104.92,24,24,1,10,31464,36.7922943725815,127.088832546155
A33672921,천안아산역리슈빌아파트,4420025331,충청남도,아산시,배방읍,장재리,충청남도 아산시 배방읍 장재리 1844 천안아산역리슈빌아파트,분양,지역난방,120433.0,12,824.0,"계룡건설,경남기업",한국토지주택공사,0415347788,jangjae.apti.co.kr,아파트,충청남도 아산시 장재로 27,위탁관리,계단식,20100915,0415347708,824,88629.54,0.0,824.0,0.0,0.0,67088.67,20,20,2,25,31472,36.7876571114368,127.111365632501
A33672922,용연마을휴먼시아1단지,4420025331,충청남도,아산시,배방읍,장재리,충청남도 아산시 배방읍 장재리 1205 용연마을휴먼시아1단지,임대,지역난방,80775.42,10,915.0,범양건영,엘에치,0415426841,,아파트,충청남도 아산시 용연로 36,위탁관리,복도식,20080925,0415426843,915,40594.76,915.0,0.0,0.0,0.0,40594.76,18,18,0,19,31464,36.7948486824264,127.088572639063
A33672923,포레스트 힐,4420025331,충청남도,아산시,배방읍,장재리,충청남도 아산시 배방읍 장재리 1204 포레스트 힐,분양,지역난방,88703.2,8,464.0,남양건설,한국토지주택공사,0415347755,yyhm2.net,아파트,충청남도 아산시 용연로 37,위탁관리,계단식,20101022,0415322155,464,64857.473,0.0,0.0,464.0,0.0,52283.18,25,25,2,15,31463,36.7931992080952,127.092230034386
A33672924,연화마을stx KAN 6단지,4420025331,충청남도,아산시,배방읍,장재리,충청남도 아산시 배방읍 장재리 1537 연화마을stx KAN 6단지,분양,지역난방,109096.0,9,567.0,(주)stx 건설,(주)씨에스디,0415413105,kan6.aptstory.com,아파트,충청남도 아산시 연화로 11,위탁관리,계단식,20110131,0415413106,567,78900.086,0.0,0.0,567.0,0.0,61840.9717,25,25,1,20,31466,36.7864855988481,127.091347015546
A33672925,용연마을STX칸4단지,4420025331,충청남도,아산시,배방읍,장재리,충청남도 아산시 배방읍 장재리 1211 용연마을STX칸4단지,분양,지역난방,45153.21,4,230.0,STX 건설(주),(주)CDX,0415433395,stx4@daum.net,아파트,충청남도 아산시 용연로 53,위탁관리,계단식,20110211,0415433396,230,31534.812,0.0,0.0,230.0,0.0,24489.3958,25,25,2,9,31463,36.7918234184226,127.090666546602
A33672926,아산Y-CITY,4420025331,충청남도,아산시,배방읍,장재리,충청남도 아산시 배방읍 장재리 1767 아산Y-CITY,분양,지역난방,347602.03,11,1479.0,요진건설산업(주),요진프로젝트금융(주),0416221340,cafe.daum.net/yctapt,아파트,충청남도 아산시 광장로 210,위탁관리,혼합식,20110603,0416221342,1479,165218.0,504.0,552.0,413.0,10.0,125682.9496,30,30,3,31,31471,36.7974341806554,127.109240560226
A33685712,연화마을휴먼시아7단지,4420025331,충청남도,아산시,배방읍,장재리,충청남도 아산시 배방읍 장재리 1541 연화마을휴먼시아7단지,임대,지역난방,67048.805,8,756.0,경남기업(주),한국토지주택공사,0415479449,연화마을7단지.apti.co.kr,아파트,충청남도 아산시 연화로 16,위탁관리,복도식,20081022,0415479448,756,48569.18,756.0,0.0,0.0,0.0,33553.15,22,22,0,16,31468,36.7839644771706,127.092491084372
A10022752,월드메르디앙웰리지B동,4420033021,충청남도,아산시,탕정면,용두리,충청남도 아산시 탕정면 용두리 724 월드메르디앙웰리지B동,분양,개별난방,14819.66,1,200.0,은성건설,힐링디앤씨,0415497067,,아파트,충청남도 아산시 용머리길 49,위탁관리,복도식,20230919,0415497068,200,13159.188,200.0,0.0,0.0,0.0,4628.5484,14,13,3,2,31457,36.7959972088869,127.051833574853
A10022753,월드메르디앙웰리지A동,4420033021,충청남도,아산시,탕정면,용두리,충청남도 아산시 탕정면 용두리 722 월드메르디앙웰리지A동,분양,개별난방,14806.379,1,199.0,은성건설(주),(주)힐링디앤씨,0415496975,,아파트,충청남도 아산시 용머리길 41,위탁관리,복도식,20230919,0415496976,199,12997.765,199.0,0.0,0.0,0.0,4506.7648,13,13,3,2,31457,36.7959218711865,127.051010545713
A10024242,더퍼스트휴,4420033021,충청남도,아산시,탕정면,용두리,충청남도 아산시 탕정면 용두리 720 더퍼스트휴,분양,개별난방,16597.01,1,206.0,성호건설,(주)PDC,0415319555,,도시형 생활주택(아파트),충청남도 아산시 용머리길 109,자치관리,복도식,20210203,0415329555,206,6540.403,206.0,0.0,0.0,0.0,3960.38,10,10,3,1,31457,36.7963923748069,127.050935002039
A33672501,탕정삼성트라팰리스,4420033022,충청남도,아산시,탕정면,명암리,충청남도 아산시 탕정면 명암리 809 탕정삼성트라팰리스,분양,지역난방,768983.1,20,3953.0,삼성물산주식회사,삼성디스플레이주식회사,0415447221,www.tjtrapalace.com,아파트,충청남도 아산시 탕정면로 37,위탁관리,기타,20090204,0415411529,3953,528649.25,0.0,1695.0,1961.0,297.0,403321.7948,39,39,2,81,31455,36.7992434403326,127.060126408705
A33672502,한라아파트,4420033023,충청남도,아산시,탕정면,동산리,충청남도 아산시 탕정면 동산리 421 한라아파트,분양,개별난방,28402.52,3,355.0,현대시멘트(주)건설,성화종합,0415315568,탕정한라.apti.co.kr,아파트,충청남도 아산시 탕정면로 379-20,위탁관리,복도식,19971104,0415316866,355,24644.1,355.0,0.0,0.0,0.0,17739.35,15,15,0,6,31458,36.8220796019374,127.083251767342
A33684201,갑을오토텍사원아파트,4420033023,충청남도,아산시,탕정면,동산리,충청남도 아산시 탕정면 동산리 85-1 갑을오토텍사원아파트,임대,개별난방,22093.0,5,245.0,한라건설,(주)만도,0415341991,,아파트,충청남도 아산시 탕정면로 405,위탁관리,혼합식,19950222,0415313477,245,17453.7,245.0,0.0,0.0,0.0,12724.14,15,15,2,5,31458,36.820914808623,127.084935777723
A33684302,탕정홍익,4420033024,충청남도,아산시,탕정면,호산리,충청남도 아산시 탕정면 호산리 497 탕정홍익,분양,개별난방,57420.0,8,999.0,홍익,홍익,0415432266,탕정홍익.apti.co.kr/apthome,아파트,충청남도 아산시 선문로 385,위탁관리,복도식,19991223,0415432267,999,50922.008,999.0,0.0,0.0,0.0,36146.85,15,15,1,12,31457,36.8066544465441,127.077439907254
A10023469,한들물빛도시하늘채아파트,4420033025,충청남도,아산시,탕정면,매곡리,충청남도 아산시 탕정면 매곡리 1380 한들물빛도시하늘채아파트,혼합,지역난방,122744.56,10,1062.0,코오롱건설,LH,0415455670,,아파트,충청남도 아산시 한들물빛1로 8,위탁관리,계단식,20221220,0415455671,1062,86205.59,1062.0,0.0,0.0,0.0,60948.51,29,29,1,26,31465,36.7814316981078,127.086025657726
A10023524,충남 아산시 한들 물빛도시 예미지아파트,4420033025,충청남도,아산시,탕정면,매곡리,충청남도 아산시 탕정면 매곡리 1391 충남 아산시 한들 물빛도시 예미지아파트,분양,지역난방,123736.0,8,791.0,금성백조 (주),금성백조 (주),0415440998,,아파트,충청남도 아산시 한들물빛3로 14,위탁관리,계단식,20221116,0415440997,791,88618.92,0.0,620.0,171.0,0.0,68486.69,32,32,1,17,31465,36.7832739867267,127.086826809897
A10023803,한들물빛도시지웰시티센트럴푸르지오1단지,4420033025,충청남도,아산시,탕정면,매곡리,충청남도 아산시 탕정면 매곡리 1385 한들물빛도시지웰시티센트럴푸르지오1단지,분양,지역난방,106780.0,8,685.0,대우건설,(주)신영,0415459934,https://gwell1.aptner.com/v2,아파트,충청남도 아산시 한들물빛도시로 69,위탁관리,계단식,20220509,0415459935,685,75787.03,0.0,545.0,140.0,0.0,57230.0143,35,35,1,17,31465,36.7847531542957,127.083957155238
A10023970,한들물빛도시 지웰시티 센트럴푸르지오 2단지,4420033025,충청남도,아산시,탕정면,매곡리,충청남도 아산시 탕정면 매곡리 5516 한들물빛도시 지웰시티 센트럴푸르지오 2단지,분양,지역난방,117632.0,6,669.0,(주)대우건설,신영,0415335711,,주상복합,충청남도 아산시 한들물빛도시로 70,위탁관리,계단식,20220112,0415335712,669,80166.86,0.0,518.0,151.0,0.0,118141.1116,40,40,2,21,31465,36.7851754497874,127.084673266115
A10023973,한들물빛도시 지웰시티 센트럴푸르지오 3단지,4420033025,충청남도,아산시,탕정면,매곡리,충청남도 아산시 탕정면 매곡리 5517 한들물빛도시 지웰시티 센트럴푸르지오 3단지,분양,지역난방,150331.56,6,852.0,대우건설(주),신영디벨로퍼(주),0415335971,,주상복합,충청남도 아산시 한들물빛5로 36,위탁관리,계단식,20220112,0415335972,852,102042.305,0.0,660.0,192.0,0.0,150279.0666,40,40,2,25,31465,36.785861605471,127.086857849079
A10024219,한들물빛도시시티프라디움,4420033025,충청남도,아산시,탕정면,매곡리,충청남도 아산시 탕정면 매곡리  한들물빛도시시티프라디움,분양,지역난방,123843.0,12,746.0,시티건설,시티산업개발,0415333006,,아파트,충청남도 아산시 한들물빛3로 36,위탁관리,계단식,20210629,0415343009,746,81950.83,0.0,746.0,0.0,0.0,63396.2666,25,25,2,21,31465,36.7841532908917,127.088785283004
A10024509,아산탕정LH5단지,4420033025,충청남도,아산시,탕정면,매곡리,충청남도 아산시 탕정면 매곡리 392 아산탕정LH5단지,임대,지역난방,48394.33,8,865.0,요진건설산업(주),한국토지주택공사,0415429264,,아파트,충청남도 아산시 한들물빛1로 7,위탁관리,복도식,20201026,0415429265,871,48394.33,865.0,0.0,0.0,0.0,23881.29,21,21,1,13,31465,36.7803654020744,127.085784623944
A10023086,호반써밋그랜드마크5차아파트,4420033026,충청남도,아산시,탕정면,갈산리,충청남도 아산시 탕정면 갈산리 892 호반써밋그랜드마크5차아파트,분양,개별난방,75760.0,6,489.0,(주)호반산업,신한자산신탁(주),0415438555,,아파트,충청남도 아산시 갈산교로 250,위탁관리,계단식,20230706,0415439555,489,50244.547,186.0,303.0,0.0,0.0,36787.7331,28,28,2,12,31460,36.7977154574906,127.068714529635
A10023105,아산탕정호반써밋그랜드마크1차아파트,4420033026,충청남도,아산시,탕정면,갈산리,충청남도 아산시 탕정면 갈산리 883 아산탕정호반써밋그랜드마크1차아파트,분양,개별난방,1272182530.0,8,756.0,호반건설,도담,0415337288,hoban533.aptner.com,아파트,충청남도 아산시 갈산샛들로 57,위탁관리,계단식,20230706,0415337688,756,85136.03,0.0,756.0,0.0,0.0,64028.4279,28,28,2,19,31461,36.7960227981426,127.065536171607
A10023107,탕정호반써밋그랜드마크6차아파트,4420033026,충청남도,아산시,탕정면,갈산리,충청남도 아산시 탕정면 갈산리 893 탕정호반써밋그랜드마크6차아파트,분양,개별난방,52287.59,3,303.0,(주)호반건설,(주)호반건설,0415325508,hogrand6.aptner.com,아파트,충청남도 아산시 갈산교로 224,위탁관리,계단식,20230706,0415325509,303,34388.91,0.0,303.0,0.0,0.0,25661.3028,28,28,2,9,31461,36.795983512411,127.068724411344
A10023111,아산 호반써밋그랜드마크2차 아파트,4420033026,충청남도,아산시,탕정면,갈산리,충청남도 아산시 탕정면 갈산리 884 아산 호반써밋그랜드마크2차 아파트,분양,개별난방,129399.72,8,817.0,호반건설,호반건설,0415452570,,아파트,충청남도 아산시 갈산샛들로 67,위탁관리,계단식,20230706,0415452571,817,87025.664,212.0,605.0,0.0,0.0,63919.0156,28,28,2,16,31460,36.7968067534126,127.066855188576
A10023119,탕정 호반써밋그랜드마크3차아파트,4420033026,충청남도,아산시,탕정면,갈산리,충청남도 아산시 탕정면 갈산리 898 탕정 호반써밋그랜드마크3차아파트,분양,개별난방,109181.984,7,662.0,(주)호반건설,(주)호반건설,0415425605,,아파트,충청남도 아산시 갈산교로 223,위탁관리,계단식,20230707,0415425606,662,72753.8,0.0,662.0,0.0,0.0,54271.848,28,28,0,15,31461,36.7950494162717,127.066347555106
A10026204,스페이스마리,4420035028,충청남도,아산시,음봉면,신휴리,충청남도 아산시 음봉면 신휴리 792 스페이스마리,분양,개별난방,10769.0,1,152.0,서우종합건설(주),(주)송산하우징,0415431746,,주상복합,충청남도 아산시 아산밸리로 461,위탁관리,복도식,20180418,0415331746,152,8375.36,152.0,0.0,0.0,0.0,4496,5,5,1,3,31408,36.8993340116522,127.063506237785
A10027747,아산 더샵레이크시티2차아파트,4420035032,충청남도,아산시,음봉면,월랑리,충청남도 아산시 음봉면 월랑리 702 아산 더샵레이크시티2차아파트,분양,개별난방,122657.34,13,796.0,포스코건설(주),(주)아시아디벨로퍼,0415497901,asanlakecity2.postown.net/,아파트,충청남도 아산시 음봉로 515-38,위탁관리,계단식,20151223,0415497903,796,88520.84,0.0,668.0,128.0,0.0,67379.52,20,20,1,27,31416,36.8448672823958,127.069925409438
A10022824,아산한라비발디스마트밸리,4420035033,충청남도,아산시,음봉면,산동리,충청남도 아산시 음봉면 산동리 1066 아산한라비발디스마트밸리,분양,개별난방,137027.55,11,998.0,HL디앤아이한라,(주)청암에이앤씨,0415337507,www.halla-smart.aptner.com,,충청남도 아산시 산동희망로 40,위탁관리,혼합식,20231229,0415337508,998,91135.18,244.0,754.0,0.0,0.0,69221.9361,27,27,2,0,31418,36.8474139700462,127.105287034702
A10022982,해링턴플레이스 스마트밸리,4420035033,충청남도,아산시,음봉면,산동리,충청남도 아산시 음봉면 산동리 252 해링턴플레이스 스마트밸리,분양,개별난방,99981.79,10,704.0,효성중공업(주),(주)이룸아산스마트밸리,0415437030,,아파트,충청남도 아산시 산동희망로 17,위탁관리,계단식,20230927,0415437031,704,72357.29,100.0,604.0,0.0,0.0,72357.2907,20,20,1,19,31418,36.8452796076094,127.103754594489
A33686301,아산 태헌장미2차아파트,4420035033,충청남도,아산시,음봉면,산동리,충청남도 아산시 음봉면 산동리 420-1 아산 태헌장미2차아파트,분양,개별난방,27183.0,2,348.0,태헌건설,태헌건설,0415320047,,아파트,충청남도 아산시 음봉로 803-10,위탁관리,복도식,19960521,0415451147,348,26655.24,300.0,48.0,0.0,0.0,20024.64,12,12,1,4,31419,36.8293834034332,127.097203715081
A33686303,아산 삼일원앙아파트,4420035033,충청남도,아산시,음봉면,산동리,충청남도 아산시 음봉면 산동리 427-1 아산 삼일원앙아파트,분양,개별난방,108754.195,11,1440.0,(주)삼일주택공사,(주)삼일주택공사,0415317711,아산삼일원앙.apti.co.kr,아파트,충청남도 아산시 음봉로 847,위탁관리,혼합식,19970830,0415317716,1440,73280.7,1440.0,0.0,0.0,0.0,73280.7,15,15,1,34,31419,36.8289124607606,127.100270575001
A33686102,아산 더샵레이크사이드아파트,4420035034,충청남도,아산시,음봉면,덕지리,충청남도 아산시 음봉면 덕지리 580 아산 더샵레이크사이드아파트,분양,개별난방,199459.0,24,1288.0,(주)포스코건설,아시아디벨로퍼,0415347158,아산포스코더샵레이크사이드.apti.co.kr,아파트,충청남도 아산시 음봉로 567,위탁관리,계단식,20061215,0415340023,1288,135522.06,0.0,630.0,568.0,90.0,135522.0556,15,15,1,43,31417,36.8428033467708,127.074591413934
A33686104,아산 음봉초원아파트,4420035034,충청남도,아산시,음봉면,덕지리,충청남도 아산시 음봉면 덕지리 21-3 아산 음봉초원아파트,분양,개별난방,99103.32,5,1875.0,주)초원주택,(주)초원주택,0415417014,음봉초원그린타운.apti.co.kr,아파트,충청남도 아산시 음봉로681번길 24,위탁관리,복도식,19970417,0415417015,1875,93547.5,1875.0,0.0,0.0,0.0,73631.25,15,15,0,20,31416,36.8410356275194,127.08571354503
A10027752,더샵 레이크시티 3차 아파트,4420035035,충청남도,아산시,음봉면,동암리,충청남도 아산시 음봉면 동암리 271-22 더샵 레이크시티 3차 아파트,분양,개별난방,173968.55,17,1118.0,포스코건설,한국토지신탁,0415491600,asanlakecity3.postown.net,아파트,충청남도 아산시 음봉로 515-37,위탁관리,계단식,20151231,0415491604,1118,127173.05,0.0,876.0,242.0,0.0,97130.31,23,23,1,34,31416,36.8439806567228,127.067795068212
A10027076,우정에쉐르아파트,4420036021,충청남도,아산시,둔포면,둔포리,충청남도 아산시 둔포면 둔포리 292 우정에쉐르아파트,분양,개별난방,17940.77,2,148.0,우정건설(주),우정건설(주),0415420079,,아파트,충청남도 아산시 둔포중앙로161번길 34,위탁관리,계단식,20051220,0415420079,148,15709.46,0.0,148.0,0.0,0.0,12458.64,15,15,1,5,31405,36.9260007537367,127.041766885024
A33687201,백남청솔아파트,4420036021,충청남도,아산시,둔포면,둔포리,충청남도 아산시 둔포면 둔포리 354-7 백남청솔아파트,분양,개별난방,22568.28,2,297.0,백남건설,백남건설,0415345618,,아파트,충청남도 아산시 둔포중앙로171번길 97,위탁관리,복도식,19961217,0415315618,297,21161.32,297.0,0.0,0.0,0.0,16255.8,14,14,0,4,31407,36.9188081593915,127.042948737855
A33687402,아산 신영모닝빌 아파트,4420036022,충청남도,아산시,둔포면,송용리,충청남도 아산시 둔포면 송용리 338 아산 신영모닝빌 아파트,분양,개별난방,18917.0,7,299.0,신영건설,신영건설,0415330341,,아파트,충청남도 아산시 윤보선로450번길 3,위탁관리,복도식,20000714,0415330342,299,18319.496,299.0,0.0,0.0,0.0,13091.253,5,5,0,7,31420,36.9097054907904,127.021687265171
A10022957,이지더원9단지,4420036032,충청남도,아산시,둔포면,석곡리,충청남도 아산시 둔포면 석곡리 1822 이지더원9단지,분양,개별난방,127942.664,12,822.0,라인산업,(주)이지아산산업,0415497040,www.homeknocktown.co.kr,아파트,충청남도 아산시 아산밸리남로 37,위탁관리,계단식,20231019,0415497039,822,89414.92,0.0,822.0,0.0,0.0,68169.7298,25,25,3,22,31406,36.9211478259457,127.050567707136
A10026592,아산둔포이지더원8단지,4420036032,충청남도,아산시,둔포면,석곡리,충청남도 아산시 둔포면 석곡리 1805 아산둔포이지더원8단지,분양,개별난방,134272.81,14,929.0,라인건설(주),이이노텍(주),0415492271,,아파트,충청남도 아산시 아산밸리남로 81,위탁관리,계단식,20171205,0415492273,934,94775.03,0.0,929.0,0.0,0.0,70393.351,25,25,1,26,31406,36.9202800692516,127.054839307851
A10026602,이지더원7단지,4420036032,충청남도,아산시,둔포면,석곡리,충청남도 아산시 둔포면 석곡리 1810 이지더원7단지,분양,개별난방,65218.48,6,422.0,주)라인건설,주)이지이노텍,0415496797,,아파트,충청남도 아산시 아산밸리남로 77,위탁관리,계단식,20171124,0415496798,422,43929.695,0.0,422.0,0.0,0.0,33034.2644,24,24,3,11,31406,36.9208527540306,127.053767710481
A10027092,아산이지더원5단지,4420036032,충청남도,아산시,둔포면,석곡리,충청남도 아산시 둔포면 석곡리 1790 아산이지더원5단지,분양,개별난방,71189.734,9,534.0,라인산업,이지아산산업,0415469101,,아파트,충청남도 아산시 아산밸리북로 48,위탁관리,계단식,20170227,0415469103,534,50901.41,0.0,534.0,0.0,0.0,38627.9862,21,21,2,0,31406,36.9267452914329,127.052527586359
A10027094,아산이지더원6단지,4420036032,충청남도,아산시,둔포면,석곡리,충청남도 아산시 둔포면 석곡리 1793 아산이지더원6단지,분양,개별난방,86759.17,9,650.0,라인산업,이지아산산업,0415479031,아산이지더원6단지.apti.co.kr,아파트,충청남도 아산시 아산밸리북로 68,위탁관리,계단식,20170227,0415479033,650,61993.836,0.0,650.0,0.0,0.0,47020.8978,22,22,1,18,31406,36.9268808997105,127.056088972804
A10027259,아산 이지더원 4단지,4420036032,충청남도,아산시,둔포면,석곡리,충청남도 아산시 둔포면 석곡리 1797 아산 이지더원 4단지,분양,개별난방,86589.445,9,665.0,라인건설(주),이지건설(주),0415328827,https://link.zigbang.com/36151,아파트,충청남도 아산시 아산밸리중앙로 67,위탁관리,계단식,20161214,0415328829,665,86589.336,0.0,665.0,0.0,0.0,48075.858,24,24,2,18,31406,36.92386448999,127.056086426537
A10027263,아산이지더원3단지아파트,4420036032,충청남도,아산시,둔포면,석곡리,충청남도 아산시 둔포면 석곡리 1788 아산이지더원3단지아파트,분양,개별난방,81170.05,9,589.0,라인건설,이지건설,0415467856,,아파트,충청남도 아산시 아산밸리중앙로 47,위탁관리,계단식,20161209,0415467858,589,56346.855,0.0,589.0,0.0,0.0,42575.634,24,24,1,15,31406,36.9239313382029,127.052973914975
A10027635,아산 이지더원 2단지아파트,4420036032,충청남도,아산시,둔포면,석곡리,충청남도 아산시 둔포면 석곡리 1801 아산 이지더원 2단지아파트,분양,개별난방,67459.625,9,542.0,(주)라인건설,(주)이지개발산업,0415432010,,아파트,충청남도 아산시 아산밸리중앙로 58-5,위탁관리,계단식,20150925,0415432022,542,51060.652,248.0,294.0,0.0,0.0,38389.3312,25,25,1,15,31406,36.9232280998609,127.055591353696
A10027667,이지더원1단지아파트,4420036032,충청남도,아산시,둔포면,석곡리,충청남도 아산시 둔포면 석곡리 1808 이지더원1단지아파트,분양,개별난방,44555.0,8,471.0,(주)라인건설,(주)이지종합개발,0415481380,,아파트,충청남도 아산시 아산밸리중앙로 50,위탁관리,계단식,20150925,0415481384,471,44375.582,203.0,268.0,0.0,0.0,33611.0071,24,24,1,13,31406,36.9232108522856,127.052503164281
A33683201,아산기산현대,4420038021,충청남도,아산시,인주면,공세리,충청남도 아산시 인주면 공세리 135-14 아산기산현대,분양,개별난방,25295.164,6,315.0,기산건설,기산건설,0415336047,인주기산현대.apti.co.kr,아파트,충청남도 아산시 공세길 6-7,위탁관리,복도식,20000515,0415346047,315,24639.3,315.0,0.0,0.0,0.0,18702.18,5,5,0,8,31427,36.8792986408674,126.908370498743
A33673001,아산인주휴먼시아,4420038025,충청남도,아산시,인주면,밀두리,충청남도 아산시 인주면 밀두리 642 아산인주휴먼시아,임대,개별난방,47532.83,6,664.0,(주)서희건설,(주)한국토지주택공사,0415477733,,아파트,충청남도 아산시 아산만로 1674-10,위탁관리,복도식,20110127,0415477734,664,26115.8,664.0,0.0,0.0,0.0,26115.8,15,15,0,12,31436,36.8696678117316,126.87989800769
A33673002,현대자동차(주)사원임대아파트,4420038027,충청남도,아산시,인주면,대음리,충청남도 아산시 인주면 대음리 197-8 현대자동차(주)사원임대아파트,사택 및 관사 등,개별난방,20740.3,4,270.0,현대건설(주),현대자동차(주),0415310752,,아파트,충청남도 아산시 현대로1029번길 200-17,위탁관리,복도식,19980629,0415427660,270,19644.715,270.0,0.0,0.0,0.0,15192.9,9,9,0,4,31437,36.8454333101789,126.857879356247
A33683302,아산미진무지개,4420038029,충청남도,아산시,인주면,해암리,충청남도 아산시 인주면 해암리 280-4 아산미진무지개,분양,개별난방,29899.957,4,480.0,미진종합건설(주),미진이엔시(주),0415335935,www.아산미진무지개.aptk.co.kr,아파트,충청남도 아산시 현대로 862,위탁관리,복도식,20000424,0415335936,480,23936.34,480.0,0.0,0.0,0.0,18736.2,15,15,1,8,31439,36.8315068487654,126.884727116133
A33688512,아산경희학성아파트,4420041022,충청남도,아산시,신창면,읍내리,충청남도 아산시 신창면 읍내리 579-9 아산경희학성아파트,분양,개별난방,46854.86,9,937.0,(자)경희종합건설,(자)경희종합건설,0415439041,경희학성.apti.co.kr,아파트,충청남도 아산시 순천향로 49,위탁관리,혼합식,19961213,0415431269,937,44556.723,937.0,0.0,0.0,0.0,33108.47,15,15,1,16,31537,36.7722969001085,126.935805093901
A33677802,양우 내안애 아파트,4420041025,충청남도,아산시,신창면,행목리,충청남도 아산시 신창면 행목리 498 양우 내안애 아파트,혼합,개별난방,83520.0,7,1440.0,양우건설,(주)리치개발,0415497420,http://mo-vill.com/041sc202,아파트,충청남도 아산시 행목로 202,위탁관리,혼합식,20140828,0415497422,1440,74585.01,1440.0,0.0,0.0,0.0,58654.8,15,15,1,16,,36.7827526517626,126.957039586249
A33688405,아산 친오애 아파트,4420041025,충청남도,아산시,신창면,행목리,충청남도 아산시 신창면 행목리 497 아산 친오애 아파트,분양,개별난방,58719.0,8,456.0,SR산업개발,SR산업개발,0415319986,,아파트,충청남도 아산시 행목로 217,위탁관리,계단식,20070528,0415319970,456,45380.79,165.0,291.0,0.0,0.0,34621.5681,15,15,1,16,31533,36.7831816809682,126.953698910096
A33688406,아산 대주아파트,4420041025,충청남도,아산시,신창면,행목리,충청남도 아산시 신창면 행목리 248-3 아산 대주아파트,분양,개별난방,44827.0,7,480.0,(주)송촌건설,(주)송촌건설,0415468890,아산대주.apti.co.kr,아파트,충청남도 아산시 행목로 152,위탁관리,계단식,19941122,0415324333,480,44826.72,180.0,240.0,60.0,0.0,38116.8,15,15,0,16,31533,36.7781488649103,126.953480697422
A10020196,아산자이그랜드파크1단지,4420041028,충청남도,아산시,신창면,남성리,충청남도 아산시 신창면 남성리 845 아산자이그랜드파크1단지,분양,개별난방,126212.94,5,739.0,GS,하이스용화공원(주),0414283205,,아파트,충청남도 아산시 남부로 196,위탁관리,계단식,20260226,0414283206,739,83791.305,0.0,0.0,734.0,5.0,83791.3055,35,0,3,0,,36.768834058019,127.003324917609
A10022787,신아산모아엘가비스타2차,4420041028,충청남도,아산시,신창면,남성리,충청남도 아산시 신창면 남성리 846 신아산모아엘가비스타2차,임대,개별난방,155804.0,10,998.0,한아건설,한아건설,0415331122,,아파트,충청남도 아산시 천우물로 23,위탁관리,계단식,20231223,0415341122,998,98362.984,290.0,708.0,0.0,0.0,74246.4514,27,27,2,27,31531,36.7859496707504,126.952191876888
A10023066,모아엘가비스타1단지아파트,4420041028,충청남도,아산시,신창면,남성리,충청남도 아산시 신창면 남성리 845 모아엘가비스타1단지아파트,임대,개별난방,143919.0,9,922.0,혜림건설(주),한아건설(주),0415323466,moaelga1.apti.co.kr/aptHome/,아파트,충청남도 아산시 남성길 72,위탁관리,혼합식,20230728,0415323467,922,90609.34,278.0,644.0,0.0,0.0,68409.9325,27,27,2,26,31531,36.7871794909357,126.950813662958
A33677801,코아루에듀파크,4420041028,충청남도,아산시,신창면,남성리,충청남도 아산시 신창면 남성리 840 코아루에듀파크,분양,개별난방,113051.35,11,700.0,새롬 성원건설,(주)한국토지신탁,0415492600,www.asankoaroo.com,아파트,충청남도 아산시 온천대로 984,위탁관리,계단식,20090130,0415492602,700,88535.055,0.0,467.0,233.0,0.0,67372.933,15,15,0,26,31533,36.7816925770995,126.949466031659
A33688201,아산 로그인 다소미 아파트,4420041028,충청남도,아산시,신창면,남성리,충청남도 아산시 신창면 남성리 69 아산 로그인 다소미 아파트,분양,개별난방,16156.23,2,198.0,(주)로그인종합건설,DB손해보험,0415440544,,아파트,충청남도 아산시 남성길 198,위탁관리,계단식,20050830,0415440511,198,15162.84,198.0,0.0,0.0,0.0,11864.16,15,15,0,7,31529,36.7941237575321,126.961893794739
A33688203,아산 한미금강아파트,4420041028,충청남도,아산시,신창면,남성리,충청남도 아산시 신창면 남성리 476-6 아산 한미금강아파트,분양,개별난방,24144.0,2,300.0,한미건설,한미건설,0415436739,hanmi6739.apti.co.kr,아파트,충청남도 아산시 서부북로 813,위탁관리,복도식,19951004,0415456739,300,21880.56,300.0,0.0,0.0,0.0,16657.2,10,10,1,4,31530,36.794189801882,126.950822178588
A33688204,아산 신일유토빌 아파트,4420041028,충청남도,아산시,신창면,남성리,충청남도 아산시 신창면 남성리 205-1 아산 신일유토빌 아파트,분양,개별난방,32136.816,4,404.0,신일건업,신일건업,0415430986,아산신일유토빌apti.co.kr,아파트,충청남도 아산시 서부북로 844,위탁관리,계단식,19971201,0415430983,404,30715.312,404.0,0.0,0.0,0.0,24141.424,15,15,0,14,31530,36.7927602980704,126.953569900902
A33688207,아산코아루아파트,4420041028,충청남도,아산시,신창면,남성리,충청남도 아산시 신창면 남성리 190-1 아산코아루아파트,분양,개별난방,56892.465,6,526.0,삼두도시개발,한국토지신탁,0415417711,www.asankoaroo.com,아파트,충청남도 아산시 남성길 123,위탁관리,계단식,20060127,0415437766,526,50404.2,261.0,265.0,0.0,0.0,38159.4241,15,15,1,0,31530,36.7911533839389,126.95367854017
A33688208,아산태헌장미1차아파트,4420041028,충청남도,아산시,신창면,남성리,충청남도 아산시 신창면 남성리 70-4 아산태헌장미1차아파트,분양,개별난방,31061.3,8,528.0,태헌건설,태헌건설,0415466683,신창장미.apti.co.kr,아파트,충청남도 아산시 서부북로 933-30,위탁관리,계단식,19941223,0415456683,528,31060.68,528.0,0.0,0.0,0.0,23507.04,6,6,0,0,31530,36.7935565817981,126.961013980793
A33688209,아산 상아주공임대아파트,4420041028,충청남도,아산시,신창면,남성리,충청남도 아산시 신창면 남성리 837 아산 상아주공임대아파트,임대,개별난방,33390.0,5,568.0,주택공사,주택공사,0415326226,,아파트,충청남도 아산시 온천대로 985,위탁관리,복도식,20080829,0415326227,568,31555.924,568.0,0.0,0.0,0.0,22267.62,10,10,0,8,31531,36.7849407788275,126.949352316982
A33688210,아산신창소화마을아파트,4420041028,충청남도,아산시,신창면,남성리,충청남도 아산시 신창면 남성리 832 아산신창소화마을아파트,임대,개별난방,72324.69,10,909.0,대한주택공사,대한주택공사,0415460040,,아파트,충청남도 아산시 남성길 116-8,위탁관리,복도식,20081013,0415460069,909,71598.18,909.0,0.0,0.0,0.0,42155.1,15,15,0,20,31530,36.7891102883286,126.953680218217
A33688211,아산 샘마을아파트,4420041028,충청남도,아산시,신창면,남성리,충청남도 아산시 신창면 남성리 177-2 아산 샘마을아파트,분양,개별난방,52632.3,7,926.0,대한주택보증(주),대한주택보증,0415321223,,아파트,충청남도 아산시 남성길 85,위탁관리,혼합식,20010303,0415488359,926,45263.113,926.0,0.0,0.0,0.0,35993.76,15,15,0,15,31530,36.7895624010584,126.951479206996
A33688102,아산 창덕에버빌 아파트,4420041031,충청남도,아산시,신창면,신곡리,충청남도 아산시 신창면 신곡리 93-4 아산 창덕에버빌 아파트,임대,개별난방,12004.214,4,240.0,창덕건설,창덕건설,0415419492,,아파트,충청남도 아산시 서부북로 270,위탁관리,복도식,20001020,0415419492,240,11841.36,240.0,0.0,0.0,0.0,9591.6,5,5,3,0,31542,36.8120928747486,126.899385009085
A10022730,아산삼부르네상스더힐아파트,4420041032,충청남도,아산시,신창면,가내리,충청남도 아산시 신창면 가내리 852 아산삼부르네상스더힐아파트,분양,개별난방,144107.0,13,1016.0,삼부토건,대한토지신탁,0415450930,https://cafe.naver.com/pinkscryw,아파트,충청남도 아산시 천우물로 22,위탁관리,계단식,20240130,0415450932,1016,97793.39,394.0,622.0,0.0,0.0,73351.5111,25,25,2,30,31531,36.7850779248703,126.954943434033
