kaptCode,kaptName,bjdCode,as1,as2,as3,as4,kaptAddr,codeSaleNm,codeHeatNm,kaptTarea,kaptDongCnt,kaptdaCnt,kaptBcompany,kaptAcompany,kaptTel,kaptUrl,codeAptNm,doroJuso,codeMgrNm,codeHallNm,kaptUsedate,kaptFax,hoCnt,kaptMarea,kaptMparea60,kaptMparea85,kaptMparea135,kaptMparea136,privArea,kaptTopFloor,ktownFlrNo,kaptBaseFloor,kaptdEcntp,zipcode,위도,경도
A36110001,사직쌍용아파트,4311210100,충청북도,청주서원구,사직동,,충청북도 청주서원구 사직동 147-23 사직쌍용아파트,분양,개별난방,19103.79,3,180.0,쌍용건설,쌍용건설,0432652981,사직쌍용.apti.co.kr,아파트,충청북도 청주시 서원구 호국로38번길 23,위탁관리,계단식,19891229,0432682982,180,19008.0,0.0,180.0,0.0,0.0,15250.22,8,8,1,12,28653,36.6314943194586,127.476870898167
A36170101,두산위브더제니스,4311210100,충청북도,청주서원구,사직동,,충청북도 청주서원구 사직동 265-5 두산위브더제니스,분양,개별난방,95710.28,2,576.0,두산건설,(주)모닝랜드,0432667800,,아파트,충청북도 청주시 서원구 사운로 93,위탁관리,기타,20090729,0432667801,576,95710.28,0.0,0.0,426.0,150.0,72481.6,41,41,4,12,28555,36.6370792323612,127.478267998886
A36171701,청주푸르지오.캐슬아파트,4311210100,충청북도,청주서원구,사직동,,충청북도 청주서원구 사직동 928 청주푸르지오.캐슬아파트,분양,지역난방,602522.0,41,3599.0,롯데건설대우건설,사직주공재건축조합,0432661481,www.cpcapt..com,아파트,충청북도 청주시 서원구 예체로 68,위탁관리,계단식,20101119,0432661483,3599,433088.62,230.0,2157.0,988.0,224.0,335234.16,25,25,2,84,28650,36.6337498856983,127.469715557505
A36182601,사직덕희아파트,4311210100,충청북도,청주서원구,사직동,,충청북도 청주서원구 사직동 358-5 사직덕희아파트,분양,개별난방,7654.27,1,203.0,덕희건설(주),덕희건설(주),0432765067,없음,아파트,충청북도 청주시 서원구 남사로 14,위탁관리,복도식,19940218,07081039682,203,7650.2783,203.0,0.0,0.0,0.0,4506.6,12,12,1,2,28656,36.6297575522928,127.478157570097
A10023163,청주센트럴리슈빌DS,4311210200,충청북도,청주서원구,사창동,,충청북도 청주서원구 사창동 180-1 청주센트럴리슈빌DS,분양,개별난방,17264.0,1,298.0,동성건설(주),코리아신탁(주),0432637273,,주상복합,충청북도 청주시 서원구 1순환로 627,위탁관리,계단식,20230424,0432637939,298,17263.744,298.0,0.0,0.0,0.0,11072.6862,33,33,3,2,28562,36.6374205470356,127.459805418743
A10024622,청주개신행복주택,4311210200,충청북도,청주서원구,사창동,,충청북도 청주서원구 사창동 570 청주개신행복주택,임대,개별난방,5878.76,1,150.0,이엔에스건설,한국토지주택공사,0432636691,,아파트,충청북도 청주시 서원구 충대로 1,위탁관리,복도식,20200814,0432636692,150,5674.6807,150.0,0.0,0.0,0.0,2701.08,11,11,1,4,28644,36.6300443933522,127.455076764458
A36177501,두진하트리움에덴,4311210200,충청북도,청주서원구,사창동,,충청북도 청주서원구 사창동 304-1 두진하트리움에덴,분양,개별난방,25176.75,1,298.0,(주)두진건설,(주)두진건설,0432602599,두진하트리움에덴.apt.co.kr,주상복합,충청북도 청주시 서원구 사직대로 160,위탁관리,복도식,20141112,0432602799,298,25175.75,297.0,0.0,1.0,0.0,14567.8534,20,20,2,6,28648,36.634815776559,127.465043619258
A36183201,사창현대아파트,4311210200,충청북도,청주서원구,사창동,,충청북도 청주서원구 사창동 227-2 사창현대아파트,분양,중앙난방,25921.5,2,229.0,현대산업개발(주),현대산업개발(주),0432664236,사창현대.apti.co.kr,아파트,충청북도 청주시 서원구 사직대로157번길 18,위탁관리,계단식,19881206,0432722279,229,25920.996,0.0,174.0,55.0,0.0,20857.87,14,14,0,9,28567,36.6364491354341,127.464750532249
A36183302,사창대원칸타빌,4311210200,충청북도,청주서원구,사창동,,충청북도 청주서원구 사창동 285-3 사창대원칸타빌,분양,지역난방,123558.98,11,810.0,(주)대원,사직주공1차 주택 재건축조합,0432776539,www.cjcantavil.com,아파트,충청북도 청주시 서원구 예체로67번길 87,위탁관리,계단식,20080613,0432776540,810,92039.68,296.0,247.0,267.0,0.0,69495.763,25,25,2,20,28663,36.6329093469038,127.461846849006
A10020417,한화포레나 청주매봉아파트,4311210300,충청북도,청주서원구,모충동,,충청북도 청주서원구 모충동 62-10 한화포레나 청주매봉아파트,분양,개별난방,313516.0,21,1849.0,한화건설,씨에스에프,0432968520,,아파트,충청북도 청주시 서원구 매봉로 131,위탁관리,계단식,20250924,0432978520,1849,215385.3,0.0,1557.0,292.0,0.0,159838.0364,0,29,0,48,,36.6206363011298,127.478429785518
A10021012,모충 형석아파트,4311210300,충청북도,청주서원구,모충동,,충청북도 청주서원구 모충동 251-1 모충 형석아파트,분양,개별난방,14466.12,6,204.0,알수없음,알수없음,0432849301,,아파트,충청북도 청주시 서원구 남들로35번길 61,자치관리,계단식,19830803,0432859301,204,12908.64,108.0,96.0,0.0,0.0,11577.96,5,5,0,0,,36.6216497085451,127.480513482661
A10022978,청주 부강 그린맨션,4311210300,충청북도,청주서원구,모충동,,충청북도 청주서원구 모충동 487-35 청주 부강 그린맨션,분양,,0.0,1,96.0,,,0432668596,,연립주택,충청북도 청주시 서원구 모충로96번길 51,,,19870810,,0,0.0,0.0,96.0,0.0,0.0,7527.6,1,6,0,0,28669,36.6248268386334,127.473577652392
A10024054,청주모충LH트릴로채아파트,4311210300,충청북도,청주서원구,모충동,,충청북도 청주서원구 모충동 553 청주모충LH트릴로채아파트,혼합,지역난방,230077.44,15,1692.0,DL건설(주),한국토지주택공사,0432670630,https://청주모충lh트릴로채.apti.co.kr,아파트,충청북도 청주시 서원구 쌍샘로 22,위탁관리,혼합식,20211108,0432680631,1692,229495.17,582.0,1110.0,0.0,0.0,118253.33,29,29,2,29,28673,36.6286193755802,127.480074767856
A10025926,포스필아파트,4311210300,충청북도,청주서원구,모충동,,충청북도 청주서원구 모충동 490-5 포스필아파트,분양,개별난방,8331.834,1,76.0,(주)하이스트건설,(주)진영산업개발,0432778006,,아파트,충청북도 청주시 서원구 쌍샘로107번길 33,위탁관리,계단식,20150715,0432628009,76,6164.1113,76.0,0.0,0.0,0.0,4548.043,10,10,1,0,28669,36.6251042563652,127.472657357742
A10027576,모충동일센타시아,4311210300,충청북도,청주서원구,모충동,,충청북도 청주서원구 모충동 481 모충동일센타시아,분양,개별난방,28120.0,3,240.0,동일건설(주),모충지역주택조합,0432690332,모충동일.apti.co.kr,아파트,충청북도 청주시 서원구 매봉로 191,위탁관리,기타,20160503,0432690333,240,20918.463,0.0,240.0,0.0,0.0,15730.7967,19,19,1,6,28669,36.626066741001,127.475536682794
A36175205,금호아파트,4311210300,충청북도,청주서원구,모충동,,충청북도 청주서원구 모충동 492 금호아파트,분양,개별난방,47208.86,7,418.0,금호건설,금호건설,0432644679,,아파트,충청북도 청주시 서원구 쌍샘로107번길 12,위탁관리,계단식,19950224,0432644679,418,42575.38,0.0,418.0,0.0,0.0,33982.82,15,15,1,15,28669,36.6262972577228,127.471703618311
A36175206,일신베네스트,4311210300,충청북도,청주서원구,모충동,,충청북도 청주서원구 모충동 520-40 일신베네스트,분양,개별난방,11708.15,1,198.0,일신건설(주),일신건설(주),0432665010,,아파트,충청북도 청주시 서원구 모충로68번길 26,위탁관리,복도식,20041103,0432685010,198,8383.021,198.0,0.0,0.0,0.0,6023.6236,11,11,2,2,28669,36.6259459330018,127.47051194182
A36175306,모충주공2단지아파트,4311210300,충청북도,청주서원구,모충동,,충청북도 청주서원구 모충동 516 모충주공2단지아파트,분양,개별난방,39510.87,16,640.0,대한주택공사,대한주택공사,0432628333,,아파트,충청북도 청주시 서원구 모충로 61,위탁관리,계단식,19890814,0432628335,640,38787.516,640.0,0.0,0.0,0.0,31478.5,5,5,1,0,28659,36.626930611148,127.46970927853
A36180701,삼익세라믹아파트,4311210300,충청북도,청주서원구,모충동,,충청북도 청주서원구 모충동 374-1 삼익세라믹아파트,분양,개별난방,22630.04,2,229.0,삼익세라믹,삼익세라믹,0432671543,삼익세라믹.apti.co.kr,아파트,충청북도 청주시 서원구 서원서로 29,위탁관리,계단식,19890825,0432681543,229,21637.8,0.0,229.0,0.0,0.0,17860.17,15,15,0,7,28671,36.6252237214767,127.479250667753
A36180802,모충삼호아파트,4311210300,충청북도,청주서원구,모충동,,충청북도 청주서원구 모충동 446-20 모충삼호아파트,분양,개별난방,29661.006,4,254.0,(주)서우실업,(주)서우실업,0432727327,모충삼호.apti.co.kr/aptHome/,아파트,충청북도 청주시 서원구 모충로104번길 25,위탁관리,계단식,19910821,0432727326,254,27760.72,0.0,224.0,30.0,0.0,22567.63,15,15,1,11,28672,36.6279937496706,127.47539311746
A36180803,모충주공1단지아파트,4311210300,충청북도,청주서원구,모충동,,충청북도 청주서원구 모충동 452 모충주공1단지아파트,분양,개별난방,15715.8,8,330.0,대한주택공사,대한주택공사,0432743087,,아파트,충청북도 청주시 서원구 쌍샘로 84,위탁관리,계단식,19851105,0432733087,330,15715.8,330.0,0.0,0.0,0.0,13933.8,5,5,0,0,28669,36.6268693294802,127.474395889264
A36180804,모충한솔아파트,4311210300,충청북도,청주서원구,모충동,,충청북도 청주서원구 모충동 473 모충한솔아파트,분양,개별난방,45829.23,4,392.0,두산개발(주),두산개발(주),0432766344,,아파트,충청북도 청주시 서원구 모충로124번길 53,자치관리,계단식,19941031,0439026344,392,37789.184,178.0,124.0,90.0,0.0,30216.06,15,15,1,0,28671,36.6263932396547,127.477357212428
A36116001,산남유승한내들,4311210400,충청북도,청주서원구,산남동,,충청북도 청주서원구 산남동 109 산남유승한내들,분양,지역난방,49024.008,7,464.0,(주)유승종합건설,(주)유승종합건설,0432833401,www.raybol.net,아파트,충청북도 청주시 서원구 두꺼비로 109,자치관리,계단식,20070713,0432833402,464,39735.566,464.0,0.0,0.0,0.0,27788.3104,15,15,0,16,28623,36.6148234479654,127.463708122682
A36116002,청주현진에버빌아파트,4311210400,충청북도,청주서원구,산남동,,충청북도 청주서원구 산남동 1103 청주현진에버빌아파트,분양,지역난방,69695.734,8,477.0,현진종합건설,(주)현진에버빌,0432841508,,아파트,충청북도 청주시 서원구 탑골로 6,위탁관리,계단식,20061215,0432841510,477,53763.85,0.0,477.0,0.0,0.0,40539.333,15,15,1,17,28627,36.6114317844189,127.47233034128
A36116003,산남대원칸타빌2단지,4311210400,충청북도,청주서원구,산남동,,충청북도 청주서원구 산남동 1100 산남대원칸타빌2단지,분양,지역난방,86424.96,8,518.0,(주)대원,(주)자영,0432836378,www.raybol.net/A20047,아파트,충청북도 청주시 서원구 산미로 143,위탁관리,계단식,20070424,0432836380,518,58958.86,0.0,518.0,0.0,0.0,44026.7226,14,14,2,19,28627,36.6097485356343,127.473766333935
A36116004,산남계룡리슈빌아파트,4311210400,충청북도,청주서원구,산남동,,충청북도 청주서원구 산남동 1102 산남계룡리슈빌아파트,분양,지역난방,120068.74,12,551.0,계룡건설산업(주),산남계룡리슈빌아파트,0432917705,,아파트,충청북도 청주시 서원구 산남로 23,위탁관리,계단식,20070222,0432917707,553,86108.0,0.0,0.0,431.0,120.0,71519.129,15,15,2,20,28627,36.6110580039779,127.470300204103
A36116005,산남퀸덤아파트,4311210400,충청북도,청주서원구,산남동,,충청북도 청주서원구 산남동 671 산남퀸덤아파트,분양,지역난방,90434.445,9,570.0,(주)영조주택,아주산업개발(주),0432841805,www.raybol.net/A20051,아파트,충청북도 청주시 서원구 두꺼비로 93,위탁관리,계단식,20070102,0432841807,570,64085.1,0.0,570.0,0.0,0.0,48410.442,15,15,2,20,28623,36.6128839904659,127.463811083996
A36116006,산남대원칸타빌1단지,4311210400,충청북도,청주서원구,산남동,,충청북도 청주서원구 산남동 678 산남대원칸타빌1단지,분양,지역난방,95123.0,8,600.0,(주)대원,(주)대원,0432836506,산남대원칸타빌1단지.apti.co.kr,아파트,충청북도 청주시 서원구 두꺼비로 63,위탁관리,계단식,20070424,0432836508,600,67438.02,0.0,600.0,0.0,0.0,50999.5032,15,15,2,20,28631,36.6105846180493,127.463845042664
A36116007,산남푸르지오아파트,4311210400,충청북도,청주서원구,산남동,,충청북도 청주서원구 산남동 679 산남푸르지오아파트,분양,지역난방,113919.51,13,760.0,(주)대우건설,(주)대우건설,0432861566,cafe.daum.net/cjsannamprugio,주상복합,충청북도 청주시 서원구 두꺼비로 53,위탁관리,계단식,20070424,0432861567,760,82232.24,0.0,760.0,0.0,0.0,63206.53,15,15,1,26,28631,36.6094758779632,127.464049768824
A36116008,산남부영사랑으로아파트,4311210400,충청북도,청주서원구,산남동,,충청북도 청주서원구 산남동 1094 산남부영사랑으로아파트,분양,지역난방,117076.13,12,985.0,(주)부영,(주)부영,0432980442,,아파트,충청북도 청주시 서원구 원흥로 14,위탁관리,계단식,20070426,0432980443,985,87170.53,985.0,0.0,0.0,0.0,59037.354,15,15,1,36,28628,36.6086763347312,127.474046586615
A36171015,분평1단지뜨란채아파트,4311210600,충청북도,청주서원구,분평동,,충청북도 청주서원구 분평동 1211 분평1단지뜨란채아파트,분양,지역난방,86774.64,13,982.0,경동건설주식회사,한국토지주택공사,0432958497,,아파트,충청북도 청주시 서원구 월평로 25,위탁관리,혼합식,20001006,0432958498,982,86768.83,982.0,0.0,0.0,0.0,55568.47,20,20,1,1,28791,36.6112903633457,127.488059556945
A36176101,분평보성아파트,4311210600,충청북도,청주서원구,분평동,,충청북도 청주서원구 분평동 301-2 분평보성아파트,분양,개별난방,19348.87,3,155.0,보성건설,보성건설,0432840907,,아파트,충청북도 청주시 서원구 매봉로2번길 55,자치관리,계단식,19921224,0432840907,155,19348.87,0.0,96.0,39.0,20.0,16248.88,14,14,0,7,28699,36.610747301816,127.48099935202
A36176207,분평우성1차아파트,4311210600,충청북도,청주서원구,분평동,,충청북도 청주서원구 분평동 320 분평우성1차아파트,분양,지역난방,43971.09,4,412.0,우성건설,우성건설,0432841697,www.raybol.net/A20039,아파트,충청북도 청주시 서원구 청남로2005번길 96,위탁관리,계단식,19901031,0432841696,412,43013.668,0.0,386.0,26.0,0.0,34750.92,15,15,0,15,28699,36.6101617619289,127.480280463449
A36176406,분평우성2차아파트,4311210600,충청북도,청주서원구,분평동,,충청북도 청주서원구 분평동 237 분평우성2차아파트,분양,지역난방,49166.0,5,388.0,우성건설(주),우성건설(주),0432830582,www.raybol.net/A20034,아파트,충청북도 청주시 서원구 청남로2005번길 40,위탁관리,계단식,19901130,0432870582,388,39450.92,0.0,268.0,72.0,48.0,39450.92,15,15,0,16,28700,36.6110693528867,127.482718692838
A36176518,분평주공2단지아파트,4311210600,충청북도,청주서원구,분평동,,충청북도 청주서원구 분평동 1202 분평주공2단지아파트,분양,지역난방,110178.3,15,1310.0,"한양건설, 요진건설",대한주택공사,0432950207,,아파트,충청북도 청주시 서원구 1순환로1137번길 129,위탁관리,혼합식,19970618,0432950209,1310,110178.3,1310.0,0.0,0.0,0.0,74815.3,20,20,1,17,28792,36.6122042709268,127.492292556555
A36176708,분평주공3-1단지아파트,4311210600,충청북도,청주서원구,분평동,,충청북도 청주서원구 분평동 1200 분평주공3-1단지아파트,분양,지역난방,36997.38,5,480.0,한양건설,주택공사,0432950069,,아파트,충청북도 청주시 서원구 1순환로1137번길 130,위탁관리,복도식,19970618,0432953951,480,36935.7,480.0,0.0,0.0,0.0,22982.4,15,15,1,7,28793,36.6116557493125,127.493360906535
A36176713,분평주공3-2단지아파트,4311210600,충청북도,청주서원구,분평동,,충청북도 청주서원구 분평동 1200 분평주공3-2단지아파트,분양,지역난방,101531.91,9,850.0,"한양공영, 삼익건설",대한주택공사,0432950245,,아파트,충청북도 청주시 서원구 1순환로1137번길 130,위탁관리,계단식,19970618,0432958570,850,73676.984,850.0,0.0,0.0,0.0,50899.1,20,20,1,24,28793,36.6116557493125,127.493360906535
A36176809,분평주공4-1단지아파트,4311210600,충청북도,청주서원구,분평동,,충청북도 청주서원구 분평동 1261 분평주공4-1단지아파트,분양,지역난방,50906.0,5,630.0,대한주택공사,대한주택공사,0432955194,,아파트,충청북도 청주시 서원구 1순환로1137번길 80,위탁관리,복도식,19981109,0432955193,630,50716.53,630.0,0.0,0.0,0.0,29843.1,15,15,0,10,28794,36.6100251664463,127.49390112537
A36176811,분평주공4-2단지아파트,4311210600,충청북도,청주서원구,분평동,,충청북도 청주서원구 분평동 1261 분평주공4-2단지아파트,분양,지역난방,62498.0,5,684.0,삼능,LH,0439030101,,아파트,충청북도 청주시 서원구 1순환로1137번길 80,자치관리,혼합식,19990626,0439030102,684,52931.34,684.0,0.0,0.0,0.0,38772.33,20,20,1,12,28794,36.6100251664463,127.49390112537
A36177019,분평주공5단지,4311210600,충청북도,청주서원구,분평동,,충청북도 청주서원구 분평동 1360 분평주공5단지,분양,지역난방,111305.41,16,1350.0,(주)한양,대한주택공사,0439003448,분평주공5단지.apti.co.kr,아파트,충청북도 청주시 서원구 분평로 88-1,자치관리,혼합식,19980213,0439003449,1350,95702.51,1350.0,0.0,0.0,0.0,71935.5,15,15,1,0,28801,36.6077662709756,127.494906977554
A36177117,분평주공6단지,4311210600,충청북도,청주서원구,분평동,,충청북도 청주서원구 분평동 1366 분평주공6단지,분양,지역난방,142727.56,15,1120.0,"임광토건, 요진건설",LH주택공사,0432954258,분평6단지.apti.co.kr,아파트,충청북도 청주시 서원구 1순환로1137번길 19,위탁관리,계단식,19990904,0432954259,1120,120726.08,0.0,1120.0,0.0,0.0,94464.43,20,20,0,34,28800,36.6067959326619,127.492819272175
A36177214,분평주공7단지,4311210600,충청북도,청주서원구,분평동,,충청북도 청주서원구 분평동 1386 분평주공7단지,분양,지역난방,111565.17,14,930.0,신한종합건설/한일개발,대한주택공사,0432954393,분평주공7단지.apti.co.kr,아파트,충청북도 청주시 서원구 분평로 22-20,위탁관리,계단식,19971206,0432954394,933,95306.4,0.0,930.0,0.0,0.0,78956.55,15,15,0,31,28799,36.6075543067371,127.487389863029
A36182102,분평럭키아파트,4311210600,충청북도,청주서원구,분평동,,충청북도 청주서원구 분평동 252-42 분평럭키아파트,분양,개별난방,16776.0,1,156.0,럭키사원조합,부강건설,0432878125,,아파트,충청북도 청주시 서원구 안뜸로39번길 5-1,위탁관리,계단식,19921119,0432878125,156,15433.82,0.0,156.0,0.0,0.0,12734.46,15,15,0,6,28692,36.6124969455159,127.480953322823
A36182103,대승스카이빌아파트,4311210600,충청북도,청주서원구,분평동,,충청북도 청주서원구 분평동 275-1 대승스카이빌아파트,분양,개별난방,19872.0,1,306.0,대승주택건설,대승주택건설,0432850775,,아파트,충청북도 청주시 서원구 안뜸로12번길 13,위탁관리,혼합식,20010626,0432832065,306,15501.96,306.0,0.0,0.0,0.0,10692.0807,15,15,1,2,28699,36.6117004972347,127.47914830638
A36182105,"분평계룡리슈빌1,2단지",4311210600,충청북도,청주서원구,분평동,,"충청북도 청주서원구 분평동 262 분평계룡리슈빌1,2단지",분양,개별난방,69571.58,7,323.0,계룡건설산업(주),리드산업개발,0432970941,www.raybol.net/A20036,아파트,충청북도 청주시 서원구 매봉로 28,위탁관리,계단식,20080730,0432970942,323,50251.86,0.0,0.0,234.0,89.0,40261.7768,15,15,2,11,28692,36.6130362201445,127.477628205263
A36182216,분평현대대우아파트,4311210600,충청북도,청주서원구,분평동,,충청북도 청주서원구 분평동 1249 분평현대대우아파트,분양,지역난방,180871.0,12,1179.0,현대/대우건설,현대/대우건설,0432953766,http://www.raybol.net/A20026,아파트,충청북도 청주시 서원구 월평로 24,위탁관리,계단식,19990723,0432953765,1179,148010.58,0.0,485.0,614.0,80.0,123129.75,25,25,1,27,28796,36.6089565660065,127.487850588175
A36185310,주은프레지던트아파트,4311210600,충청북도,청주서원구,분평동,,충청북도 청주서원구 분평동 1255 주은프레지던트아파트,분양,지역난방,104321.0,8,620.0,(주)덕일,(주)주은산업,0432834436,,아파트,충청북도 청주시 서원구 1순환로1137번길 79,위탁관리,계단식,20011119,0432844436,620,86745.54,0.0,300.0,120.0,200.0,66951.28,25,25,2,18,28795,36.6102828751895,127.492075011791
A36185412,분평대원아파트,4311210600,충청북도,청주서원구,분평동,,충청북도 청주서원구 분평동 1255 분평대원아파트,분양,지역난방,72890.0,7,731.0,(주)대원,(주)대원,0439003330,www.raybol.net,아파트,충청북도 청주시 서원구 분평로 49,위탁관리,계단식,20001028,0439003329,731,60307.5,731.0,0.0,0.0,0.0,43745.1454,15,15,0,0,28795,36.6087815560648,127.491340510491
A10021121,모란아파트,4311210700,충청북도,청주서원구,수곡동,,충청북도 청주서원구 수곡동 197-9 모란아파트,분양,개별난방,8291.0,3,110.0,모란,모란,0432847192,,아파트,충청북도 청주시 서원구 구룡산로338번길 23-10,자치관리,계단식,19790101,0432847192,110,7976.0,0.0,110.0,0.0,0.0,7976,1,5,0,0,,36.6169329627557,127.482286974612
A10021375,대림2차아파트,4311210700,충청북도,청주서원구,수곡동,,충청북도 청주서원구 수곡동 239- 대림2차아파트,분양,개별난방,11522.0,3,120.0,대림개발,대림개발,0432848660,,아파트,충청북도 청주시 서원구 매봉로76번길 18,자치관리,계단식,19870723,0432848661,120,8892.9,0.0,120.0,0.0,0.0,8892.9,5,5,1,0,,36.6168622303423,127.478934092958
A10024339,더샵청주퍼스트파크아파트,4311210700,충청북도,청주서원구,수곡동,,충청북도 청주서원구 수곡동 1057 더샵청주퍼스트파크아파트,분양,개별난방,167158.0,11,1112.0,(주)포스코건설,(주)하나자산신탁,0432958006,https://tcf.aptner.com,아파트,충청북도 청주시 서원구 수곡로 20,위탁관리,계단식,20210329,0432958007,1112,167157.58,0.0,1048.0,64.0,0.0,88897.8474,28,28,2,29,28696,36.6140589007987,127.475445947099
A36115001,수곡선광한빛아파트,4311210700,충청북도,청주서원구,수곡동,,충청북도 청주서원구 수곡동 231-2 수곡선광한빛아파트,임대,개별난방,20669.64,1,377.0,선광건설(주),선광건설(주),0432846399,,아파트,,위탁관리,복도식,19980331,0432846399,377,14955.213,377.0,0.0,0.0,0.0,10993.32,15,15,2,4,28693,36.6150318270691,127.478805735915
A36115002,산남주공3단지,4311210700,충청북도,청주서원구,수곡동,,충청북도 청주서원구 수곡동 337 산남주공3단지,분양,지역난방,33966.16,6,510.0,LH,주택관리공사,0432859026,.raybol.net/A20069,아파트,충청북도 청주시 서원구 매봉로 82,위탁관리,복도식,19911128,0432989028,510,32769.54,510.0,0.0,0.0,0.0,24659.1,15,15,1,4,28694,36.6180711840927,127.479248873205
A36115003,산남주공4단지,4311210700,충청북도,청주서원구,수곡동,,충청북도 청주서원구 수곡동 314 산남주공4단지,분양,지역난방,84047.15,11,1005.0,대한주택공사,대한주택공사,0432853723,www.raybol.net/A20065,아파트,충청북도 청주시 서원구 구룡산로 275-13,위탁관리,혼합식,19930524,0432833723,1005,81561.48,525.0,480.0,0.0,0.0,62756.5,15,15,0,23,28683,36.6180909219004,127.47433863562
A36115004,산남주공1단지아파트,4311210700,충청북도,청주서원구,수곡동,,충청북도 청주서원구 수곡동 324 산남주공1단지아파트,분양,개별난방,67443.21,31,1240.0,대한주택공사,대한주택공사,0432860002,www.raybol.net/apt/info/sub01.html,아파트,충청북도 청주시 서원구 매봉로 101,위탁관리,계단식,19901208,0432854718,1240,67443.21,1240.0,0.0,0.0,0.0,54291.3,5,5,1,0,28682,36.6193721230466,127.478088395756
A36178708,청주산남2-1,4311210700,충청북도,청주서원구,수곡동,,충청북도 청주서원구 수곡동 335 청주산남2-1,임대,중앙난방,61037.58,6,1339.0,(주)삼익세라믹,한국토지주택공사,0432850034,www.kohom.co.kr,아파트,충청북도 청주시 서원구 구룡산로 292,위탁관리,복도식,19910527,0432835367,1339,36018.5,1339.0,0.0,0.0,0.0,36018.5,15,15,0,16,28695,36.6174023301386,127.475320370861
A36178709,청주산남주공2-2,4311210700,충청북도,청주서원구,수곡동,,충청북도 청주서원구 수곡동 314 청주산남주공2-2,임대,중앙난방,30590.094,4,776.0,(주)삼익세라믹,한국토지주택공사,0432851601,www.kohom.co.kr,아파트,충청북도 청주시 서원구 구룡산로 275-13,위탁관리,복도식,19930731,0432861601,776,30321.26,776.0,0.0,0.0,0.0,20463.12,15,15,0,8,28683,36.6180909219004,127.47433863562
A36179101,세원홍실아파트,4311210700,충청북도,청주서원구,수곡동,,충청북도 청주서원구 수곡동 776 세원홍실아파트,분양,지역난방,35540.375,2,224.0,세원건설(주),세원건설(주),0432911104,세원홍실.apti.co.kr,아파트,충청북도 청주시 서원구 수곡로 88,위탁관리,계단식,19960904,0432911105,224,35539.965,0.0,0.0,172.0,52.0,27060.6,15,15,1,8,28686,36.619962700401,127.472105251413
A36179205,수곡두진하트리움아파트,4311210700,충청북도,청주서원구,수곡동,,충청북도 청주서원구 수곡동 1002 수곡두진하트리움아파트,분양,지역난방,81436.0,6,935.0,(주) 두진공영,(주) 두진공영,0432910078,,아파트,충청북도 청주시 서원구 수곡로 36,위탁관리,계단식,19950502,0432910079,935,70125.0,935.0,0.0,0.0,0.0,55756.26,15,15,1,32,28696,36.6147299433855,127.47518246024
A36179303,세원청실,4311210700,충청북도,청주서원구,수곡동,,충청북도 청주서원구 수곡동 1001 세원청실,분양,지역난방,48011.805,4,417.0,세원건설주식회사,세원건설주식회사,0432911884,www.raybol.net/A20063,아파트,충청북도 청주시 서원구 수곡로 46,위탁관리,계단식,19950508,0439021884,417,43761.72,0.0,417.0,0.0,0.0,33901.56,15,15,0,14,28696,36.616256009125,127.473892889356
A36179402,한마음2차아파트,4311210700,충청북도,청주서원구,수곡동,,충청북도 청주서원구 수곡동 775 한마음2차아파트,분양,지역난방,38660.7,3,228.0,보성,덕일,0432910599,,아파트,충청북도 청주시 서원구 수곡로 100,자치관리,계단식,19950424,0432910598,228,32451.48,0.0,0.0,204.0,24.0,27577.92,13,13,1,9,28686,36.6211396632942,127.471514678953
A36179404,한마음1차아파트,4311210700,충청북도,청주서원구,수곡동,,충청북도 청주서원구 수곡동 777 한마음1차아파트,분양,개별난방,39085.016,3,435.0,보성 덕일,보성 덕일,0432910421,,아파트,충청북도 청주시 서원구 수곡로 78,자치관리,계단식,19950427,0439000422,435,34157.504,435.0,0.0,0.0,0.0,26073.9,15,15,0,15,28686,36.619108878809,127.472400756604
A36123001,남양휴튼,4311210800,충청북도,청주서원구,성화동,,충청북도 청주서원구 성화동 436 남양휴튼,분양,지역난방,116576.63,10,577.0,남양건설,남양환경개발,0432337341,cj.hutonapt.com/huton2/,아파트,충청북도 청주시 서원구 장전로 51,위탁관리,계단식,20080801,0432347343,577,86433.87,0.0,0.0,509.0,68.0,70571.81,20,20,1,0,28636,36.6175455328992,127.452874324773
A36123003,성화센트럴파크,4311210800,충청북도,청주서원구,성화동,,충청북도 청주서원구 성화동 616 성화센트럴파크,분양,지역난방,58029.01,8,470.0,남양건설,주택공사,0432357792,cafe.daum.net,아파트,충청북도 청주시 서원구 신성화로 8,위탁관리,계단식,20090504,0432357793,470,57844.984,0.0,470.0,0.0,0.0,39828.42,15,15,0,18,28639,36.6157263812662,127.459451215215
A36123004,청주성화1,4311210800,충청북도,청주서원구,성화동,,충청북도 청주서원구 성화동 634 청주성화1,임대,지역난방,51965.25,8,650.0,한양건설,lh공사,0432372366,340095@kohom.co.kr,아파트,충청북도 청주시 서원구 성봉로 88,위탁관리,복도식,20070604,0432372367,650,28959.35,650.0,0.0,0.0,0.0,28959.35,15,15,0,16,28622,36.6137746712307,127.453935430052
A36123005,청주성화2,4311210800,충청북도,청주서원구,성화동,,충청북도 청주서원구 성화동 619 청주성화2,임대,지역난방,95301.41,16,1215.0,진흥기업,LH,0432379901,www.kohom.or.kr,아파트,충청북도 청주시 서원구 장전로 80,위탁관리,혼합식,20070604,0432379902,1215,94907.89,1215.0,0.0,0.0,0.0,55439.84,15,15,1,33,28638,36.6161960981175,127.458456437834
A36123006,청주성화휴먼시아4단지,4311210800,충청북도,청주서원구,성화동,,충청북도 청주서원구 성화동 708 청주성화휴먼시아4단지,임대,지역난방,63269.086,8,861.0,요진건설,한국토지주택공사,0432333277,성화휴먼시아4단지.apti.co.kr,아파트,충청북도 청주시 서원구 장전로 11,위탁관리,복도식,20101011,0432333278,861,34639.49,861.0,0.0,0.0,0.0,34639.49,15,15,1,14,28613,36.6177026652984,127.451099177578
A36123007,청주성화휴먼시아5단지,4311210800,충청북도,청주서원구,성화동,,충청북도 청주서원구 성화동 897 청주성화휴먼시아5단지,임대,지역난방,56891.92,8,745.0,신원종합개발,LH한국토지주택공사,0432358338,청주성화휴먼시아5단지.apti.co.kr/,아파트,충청북도 청주시 서원구 성봉로 93,위탁관리,혼합식,20101115,0432358339,745,30304.36,745.0,0.0,0.0,0.0,30304.36,15,15,0,0,28617,36.6141865741285,127.451660071506
A36123008,성화호반베르디움,4311210800,충청북도,청주서원구,성화동,,충청북도 청주서원구 성화동 939 성화호반베르디움,분양,지역난방,135730.73,13,840.0,주식회사 호반건설,주식회사 에이치비건설,0432393652,www.raybol.net/A20061,아파트,충청북도 청주시 서원구 구룡산로 24,위탁관리,계단식,20120625,0432393650,840,92809.04,0.0,840.0,0.0,0.0,71298.0144,20,20,2,0,28616,36.6148543670076,127.447345918414
A36123009,성화다안채,4311210800,충청북도,청주서원구,성화동,,충청북도 청주서원구 성화동 1034 성화다안채,분양,지역난방,82981.0,9,533.0,"풍림산업(주),남해종합건설(주)",한국토지주택공사 LH,0432310562,성화다안채.apti.co.kr,아파트,충청북도 청주시 서원구 구룡산로52번길 51,위탁관리,계단식,20130208,0432310563,534,59438.06,0.0,533.0,0.0,0.0,45278.43,15,15,2,15,28617,36.6116610510818,127.450757714489
A10020263,청주동일하이빌파크레인1단지,4311210900,충청북도,청주서원구,개신동,,충청북도 청주서원구 개신동 105-3 청주동일하이빌파크레인1단지,분양,개별난방,154557.44,10,800.0,(주)동일토건,(주)하나자산신탁,0432718006,,아파트,충청북도 청주시 서원구 서부로 1443-1,위탁관리,계단식,20260109,0432728006,800,145940.45,0.0,467.0,333.0,0.0,77321.7626,29,29,2,17,,36.6219013136575,127.457596996397
A10020268,더샵 청주 그리니티,4311210900,충청북도,청주서원구,개신동,,충청북도 청주서원구 개신동 767 더샵 청주 그리니티,분양,개별난방,212777.45,7,1191.0,포스코이앤씨,구룡개발(주),0432683879,,아파트,충청북도 청주시 서원구 서부로 1478,위탁관리,계단식,20260126,0432683878,1191,146706.36,0.0,0.0,1078.0,113.0,146706.3599,0,0,0,0,,36.6214965924929,127.463362405078
A10021397,개신태암베스트윙아파트,4311210900,충청북도,청주서원구,개신동,,충청북도 청주서원구 개신동 8- 개신태암베스트윙아파트,분양,개별난방,17130.0,3,118.0,제원건설산업(주),(주)백운에프엠,0432725954,,아파트,충청북도 청주시 서원구 1순환로751번길 29,위탁관리,계단식,20050905,0432735955,118,13262.02,0.0,118.0,0.0,0.0,10018.7664,15,15,1,5,,36.6271675918398,127.464472651539
A10023537,우평원더라움,4311210900,충청북도,청주서원구,개신동,,충청북도 청주서원구 개신동 504 우평원더라움,분양,개별난방,19208.69,2,155.0,우평건설,개신동 스위트인 지역주택조합,0432311131,,아파트,,위탁관리,계단식,20221123,0432311132,155,13302.657,114.0,41.0,0.0,0.0,9827.1742,22,22,2,5,28608,36.6238951684507,127.444622158843
A10026016,청주 시영아파트(개신동),4311210900,충청북도,청주서원구,개신동,,충청북도 청주서원구 개신동 506 청주 시영아파트(개신동),분양,개별난방,6000.0,3,141.0,임광토건,청주시,0432742468,www.naver.com,아파트,충청북도 청주시 서원구 신율로 71,자치관리(직영),계단식,19901219,0432742468,141,5431.32,141.0,0.0,0.0,0.0,5431.32,6,6,1,0,28608,36.6244558145364,127.446632124708
A10026443,우정한사랑아파트,4311210900,충청북도,청주서원구,개신동,,충청북도 청주서원구 개신동 447-36 우정한사랑아파트,분양,개별난방,8491.335,1,138.0,우정건설,우정건설,0432722861,,주상복합,충청북도 청주시 서원구 모충로12번길 9-13,위탁관리,복도식,19951206,0432722861,138,5542.13,138.0,0.0,0.0,0.0,3579,12,12,2,2,28668,36.6247224233633,127.466397765012
A36170914,개신주공1단지아파트,4311210900,충청북도,청주서원구,개신동,,충청북도 청주서원구 개신동 613 개신주공1단지아파트,분양,지역난방,130630.94,12,1398.0,"한일건설, 동부건설",주택공사,0432328908,개신주공1단지.apti.co.kr/aptHome/,아파트,충청북도 청주시 서원구 경신로 67,위탁관리,혼합식,20011212,0432328909,1398,129537.445,1398.0,0.0,0.0,0.0,76586.7,25,25,1,0,28609,36.6218865748482,127.447502924342
A36172709,개신3단지그린빌아파트,4311210900,충청북도,청주서원구,개신동,,충청북도 청주서원구 개신동 590 개신3단지그린빌아파트,분양,지역난방,72607.4,6,634.0,경남기업(주),대아건설,0432339036,raybol.net,아파트,충청북도 청주시 서원구 신율로 43,위탁관리,계단식,20030711,0432339037,634,72354.46,0.0,634.0,0.0,0.0,52744.2,20,20,0,17,28608,36.6229589599606,127.444386709363
A36172711,개신푸르지오아파트,4311210900,충청북도,청주서원구,개신동,,충청북도 청주서원구 개신동 634 개신푸르지오아파트,분양,지역난방,122380.49,9,920.0,대우건설,규형건설,0432344141,개신푸르지오.apti.co.kr,아파트,충청북도 청주시 서원구 신율로 13,위탁관리,계단식,20041126,0439024141,920,105698.77,0.0,736.0,184.0,0.0,82734.8816,25,25,0,20,28611,36.6188959677667,127.448179621701
A36174405,개신두진백로1차아파트,4311210900,충청북도,청주서원구,개신동,,충청북도 청주서원구 개신동 443 개신두진백로1차아파트,분양,개별난방,27715.18,2,227.0,두진공영,두진공영,0432758753,,아파트,충청북도 청주시 서원구 모충로 38,위탁관리,혼합식,19930412,0432758754,227,24663.69,0.0,182.0,45.0,0.0,20202.99,15,15,1,7,28668,36.6248009839415,127.467988100981
A36174604,두산한솔1차아파트,4311210900,충청북도,청주서원구,개신동,,충청북도 청주서원구 개신동 447-15 두산한솔1차아파트,분양,개별난방,23042.4,2,206.0,두산개발(주),두산개발(주),0432737849,xn--1-of9ey03ac0a500b2nn.apti.co.kr/,아파트,충청북도 청주시 서원구 모충로26번길 22,위탁관리,계단식,19930526,0432737849,206,20934.342,86.0,60.0,60.0,0.0,16901.12,15,15,1,7,28668,36.6236689940778,127.466675825384
A36174706,송학삼익아파트,4311210900,충청북도,청주서원구,개신동,,충청북도 청주서원구 개신동 446-2 송학삼익아파트,분양,개별난방,36595.0,4,330.0,삼익주택,삼익주택,0432728706,,아파트,충청북도 청주시 서원구 모충로12번길 4,위탁관리,계단식,19920221,0432738706,330,36564.0,0.0,270.0,60.0,0.0,30433.17,15,15,0,11,28668,36.6245008591094,127.46530842758
A36174810,개신삼익1차아파트,4311210900,충청북도,청주서원구,개신동,,충청북도 청주서원구 개신동 10 개신삼익1차아파트,분양,지역난방,83323.57,7,744.0,삼익건설,삼익건설,0432687536,,아파트,충청북도 청주시 서원구 예체로7번길 48,자치관리,계단식,19910227,0432667533,744,80376.32,0.0,688.0,56.0,0.0,65629.14,15,15,0,25,28667,36.6273444098215,127.46737202883
A36174907,개신삼익2차아파트,4311210900,충청북도,청주서원구,개신동,,충청북도 청주서원구 개신동 11 개신삼익2차아파트,분양,지역난방,52304.7,6,390.0,삼익건설,삼익건설,0432746346,개신삼익2차.apti.co.kr/aptHome/,아파트,충청북도 청주시 서원구 창직로12번길 65,위탁관리,계단식,19930222,0432746347,390,46652.34,0.0,294.0,48.0,48.0,37974.24,13,13,1,16,28665,36.6278909281622,127.464519141107
A36175108,개신현대아파트,4311210900,충청북도,청주서원구,개신동,,충청북도 청주서원구 개신동 278-10 개신현대아파트,분양,지역난방,57166.0,4,511.0,현대산업개발,현대산업개발,0432655219,개신현대.apti.co.kr,아파트,충청북도 청주시 서원구 성봉로220번길 23,위탁관리,계단식,19901211,0432655218,511,56010.84,0.0,424.0,87.0,0.0,45368.67,15,15,1,18,28645,36.624660108913,127.450602980823
A36180401,두산한솔2차아파트,4311210900,충청북도,청주서원구,개신동,,충청북도 청주서원구 개신동 444-2 두산한솔2차아파트,분양,개별난방,19617.99,2,180.0,두산건설,두산건설,0432740237,xn--2-of9ey03ac0a500b2nn.apti.co.kr/aptHome/Default.asp?,아파트,충청북도 청주시 서원구 모충로26번길 60,위탁관리,혼합식,19931112,0432740237,180,16750.35,90.0,90.0,0.0,0.0,13049.1,15,15,0,5,28668,36.623395018664,127.468268702949
A36180502,개신재원아파트,4311210900,충청북도,청주서원구,개신동,,충청북도 청주서원구 개신동 447-3 개신재원아파트,분양,개별난방,10417.553,1,180.0,재원주택건설,재원주택건설,0432760616,,아파트,충청북도 청주시 서원구 1순환로803번길 15,위탁관리,복도식,19980629,0432760616,180,8580.0,180.0,0.0,0.0,0.0,5864.9,10,10,1,2,28668,36.6241387213509,127.466407887435
A36185913,개신뜨란채,4311210900,충청북도,청주서원구,개신동,,충청북도 청주서원구 개신동 635 개신뜨란채,분양,지역난방,97541.0,11,980.0,"한양, 한일, 경일",LH공사,0432361995,WWW.raybol.nte/A20013,아파트,충청북도 청주시 서원구 경신로 68,위탁관리,혼합식,20001211,0432361996,980,96769.41,980.0,0.0,0.0,0.0,57873.26,23,23,1,26,28610,36.6216963604181,127.449939794092
A36185914,한진신세대아파트,4311210900,충청북도,청주서원구,개신동,,충청북도 청주서원구 개신동 41-5 한진신세대아파트,분양,개별난방,18930.0,1,336.0,한진건설(주),한진,0432680443,,주상복합,충청북도 청주시 서원구 모충로3번길 81,위탁관리,복도식,19960214,0432680444,336,14439.667,336.0,0.0,0.0,0.0,10752,15,15,1,2,28665,36.6281601628129,127.462904327991
A36185916,개신우정한가람,4311210900,충청북도,청주서원구,개신동,,충청북도 청주서원구 개신동 1-16 개신우정한가람,분양,개별난방,10051.46,1,236.0,우정건설(주),(주)우정건설,0432761237,cbhouse@hanmail.net,아파트,충청북도 청주시 서원구 예체로1번길 29,자치관리,복도식,19970725,0432761237,236,8700.56,236.0,0.0,0.0,0.0,5735.024,14,14,1,3,28667,36.6256917073234,127.46747138873
A36125002,청주가경4,4311211000,충청북도,청주서원구,죽림동,,충청북도 청주서원구 죽림동 292 청주가경4,임대,지역난방,54777.46,10,814.0,학림건설,LH,0432346870,WWW.Kohom.or.kr,아파트,충청북도 청주시 서원구 대림로 459,위탁관리,복도식,20041214,0432346871,814,54566.94,814.0,0.0,0.0,0.0,35263.12,15,15,1,16,28387,36.6117270913292,127.44270851494
A36185001,가경뜨란채3단지아파트,4311211000,충청북도,청주서원구,죽림동,,충청북도 청주서원구 죽림동 295 가경뜨란채3단지아파트,분양,지역난방,56069.344,7,704.0,LH,학림건설,0432353039,,아파트,충청북도 청주시 서원구 대림로 493,위탁관리,계단식,20031117,0432363039,704,55798.0,704.0,0.0,0.0,0.0,38600.84,15,15,1,24,28387,36.6131776281587,127.444045313764
A36381301,삼포아파트,4311231024,충청북도,청주서원구,남이면,척북리,충청북도 청주서원구 남이면 척북리 74-7 삼포아파트,혼합,개별난방,55344.9,6,916.0,삼포건설,삼포건설,0432690241,,아파트,충청북도 청주시 서원구 저산척북로 636-10,자치관리,혼합식,20000101,0432690574,916,54543.88,916.0,0.0,0.0,0.0,43397.36,13,13,1,14,28182,36.5714672887572,127.42330544236
A10027245,가마힐데스하임,4311231038,충청북도,청주서원구,남이면,가마리,충청북도 청주서원구 남이면 가마리 378 가마힐데스하임,분양,개별난방,164494.4,10,988.0,허밍건설,원건설,0432989277,gmhildes.aptner.co.kr,아파트,충청북도 청주시 서원구 2순환로 1717,위탁관리,계단식,20161207,0432989279,992,109215.39,0.0,988.0,0.0,0.0,82555.595,25,25,2,0,28633,36.5985174062193,127.47017903938
