kaptCode,kaptName,bjdCode,as1,as2,as3,as4,kaptAddr,codeSaleNm,codeHeatNm,kaptTarea,kaptDongCnt,kaptdaCnt,kaptBcompany,kaptAcompany,kaptTel,kaptUrl,codeAptNm,doroJuso,codeMgrNm,codeHallNm,kaptUsedate,kaptFax,hoCnt,kaptMarea,kaptMparea60,kaptMparea85,kaptMparea135,kaptMparea136,privArea,kaptTopFloor,ktownFlrNo,kaptBaseFloor,kaptdEcntp,zipcode,위도,경도
A38002001,성서현대타운,4313010300,충청북도,충주시,성서동,,충청북도 충주시 성서동 161 성서현대타운,분양,개별난방,37934.0,2,276.0,현대종합건설,현대,0438454610,,주상복합,충청북도 충주시 성서1길 50,자치관리,혼합식,19890131,0438454610,276,22386.0,72.0,180.0,24.0,0.0,16305.6,12,12,0,5,27387,36.9715853339722,127.930910252858
A10021437,남산아파트1단지,4313010500,충청북도,충주시,교현동,,충청북도 충주시 교현동 1061- 남산아파트1단지,분양,개별난방,14000.0,24,250.0,lh 주택공사,lh,0438440201,,아파트,충청북도 충주시 남산4길 35,자치관리(직영),계단식,19840101,0438440201,250,14000.0,250.0,0.0,0.0,0.0,12559.36,1,5,0,0,,36.9654323561918,127.943710136826
A38006001,중흥S클래스아파트,4313010500,충청북도,충주시,교현동,,충청북도 충주시 교현동 1358 중흥S클래스아파트,분양,개별난방,87304.87,6,516.0,중흥종합건설(주),중흥에스클래스개발(주),0438545577,중흥s클래스.apti.co.kr/,아파트,충청북도 충주시 금봉8길 23,위탁관리,계단식,20081121,0438545578,516,63878.605,0.0,439.0,77.0,0.0,47188.591,15,15,1,18,27392,36.9678710822996,127.941482472691
A38095001,교현충일아파트,4313010500,충청북도,충주시,교현동,,충청북도 충주시 교현동 155 교현충일아파트,분양,개별난방,24350.64,6,360.0,충일건설,충일건설,0438439615,,아파트,충청북도 충주시 만리산9길 54,자치관리,계단식,19860825,0438459615,358,22446.6,360.0,0.0,0.0,0.0,16135.2,5,5,0,0,27381,36.9732831885275,127.94395339587
A38095002,교현동아아파트,4313010500,충청북도,충주시,교현동,,충청북도 충주시 교현동 397 교현동아아파트,분양,개별난방,38724.67,3,392.0,동아건설(주),동아건설(주),0438482601,,아파트,충청북도 충주시 봉현로 313,자치관리(직영),계단식,19901217,0438542528,392,38724.56,0.0,392.0,0.0,0.0,31257.52,14,14,0,14,27374,36.9782754847094,127.938097070779
A38095003,남산주공2.3차 아파트,4313010500,충청북도,충주시,교현동,,충청북도 충주시 교현동 1060 남산주공2.3차 아파트,분양,개별난방,33290.0,19,720.0,LH 공사,LH 공사,0438471317,,아파트,충청북도 충주시 남산4길 42,자치관리,계단식,19860424,0438561317,720,32980.88,720.0,0.0,0.0,0.0,28994.94,5,5,0,0,27396,36.9657700944667,127.945315564701
A38095103,교현주공아파트,4313010500,충청북도,충주시,교현동,,충청북도 충주시 교현동 518 교현주공아파트,분양,개별난방,32199.0,17,720.0,대한주택공사,대한주택공사,0438476670,,아파트,충청북도 충주시 예성로 273,자치관리,계단식,19790101,0438538565,720,31606.6,720.0,0.0,0.0,0.0,26299.81,5,5,0,0,27370,36.9806430020186,127.932985833513
A38095401,교현성원아파트,4313010500,충청북도,충주시,교현동,,충청북도 충주시 교현동 1309 교현성원아파트,분양,개별난방,31111.75,2,360.0,(주)성원,(주)성원,0438548296,,아파트,충청북도 충주시 삼원로 175,위탁관리,복도식,19950915,0438523986,360,27630.3,360.0,0.0,0.0,0.0,20124.9,12,12,1,4,27363,36.9809990631555,127.923460218627
A38095402,교현부강아파트,4313010500,충청북도,충주시,교현동,,충청북도 충주시 교현동 1087 교현부강아파트,분양,개별난방,37342.21,3,400.0,부강건설,부강건설,0438454011,cafe.daum.net/bugang4011,아파트,충청북도 충주시 예성로 279,자치관리,복도식,19900419,0438454011,400,37274.19,0.0,400.0,0.0,0.0,27992.61,14,14,1,4,27370,36.9821422718829,127.933374329417
A10020168,충주용산세중참사랑아파트,4313010600,충청북도,충주시,용산동,,충청북도 충주시 용산동 339 충주용산세중참사랑아파트,분양,개별난방,0.0,,0.0,,,043-855-4526,,아파트,충청북도 충주시 용정7길 12,,,20071116,,0,0.0,0.0,0.0,0.0,0.0,,0,0,0,0,,36.9656332751342,127.937136910431
A10026280,충주3차푸르지오아파트,4313010600,충청북도,충주시,용산동,,충청북도 충주시 용산동 2628 충주3차푸르지오아파트,분양,개별난방,74565.0,8,474.0,대우건설,(주)지앤인,0438461152,충주3차푸르지오.apti.co.kr,아파트,충청북도 충주시 염밭로 13,위탁관리,계단식,20180426,0438461153,474,53936.777,0.0,474.0,0.0,0.0,40273.0656,24,24,2,16,27403,36.9586607757541,127.942255288347
A38009002,남산동일하이빌아파트,4313010600,충청북도,충주시,용산동,,충청북도 충주시 용산동 2627 남산동일하이빌아파트,분양,개별난방,123455.28,11,669.0,동일토건,주리산업개발,0438462080,동일하이빌.apti.co.kr,아파트,충청북도 충주시 염밭로 22,위탁관리,계단식,20080404,0438462081,669,90268.96,0.0,351.0,288.0,30.0,69459.234,15,15,2,23,27404,36.9599600901318,127.944410939365
A38076104,용산주공2단지아파트,4313010600,충청북도,충주시,용산동,,충청북도 충주시 용산동 1678 용산주공2단지아파트,분양,개별난방,68207.195,8,780.0,LH,(주)한양,0438518837,,아파트,충청북도 충주시 남산로 125,위탁관리,혼합식,19990612,0438518838,780,55892.64,780.0,0.0,0.0,0.0,41669.88,15,15,1,20,27397,36.9629006379916,127.945989508606
A38077306,충주용산3주공아파트,4313010600,충청북도,충주시,용산동,,충청북도 충주시 용산동 1680 충주용산3주공아파트,분양,개별난방,79206.38,9,980.0,계룡건설,한국토지주택공사,0438578525,용산주공3단지.apti.co.kr/aptHome/,아파트,충청북도 충주시 남산로 114,위탁관리,혼합식,20030718,0438578526,980,78717.92,980.0,0.0,0.0,0.0,52185.32,15,15,1,26,27404,36.9611409109216,127.946675234622
A38077401,영진보람아파트,4313010600,충청북도,충주시,용산동,,충청북도 충주시 용산동 335 영진보람아파트,분양,개별난방,57643.0,6,630.0,영진건설주식회사,영진건설주식회사,0438541991,,아파트,충청북도 충주시 용산로 33,자치관리,계단식,19960417,0438548118,629,53936.29,450.0,180.0,0.0,0.0,41562.6,15,15,1,21,27394,36.9664991321669,127.937189633786
A10023383,충주호암제일풍경채아파트,4313010700,충청북도,충주시,호암동,,충청북도 충주시 호암동 1068 충주호암제일풍경채아파트,임대,개별난방,135794.22,10,874.0,제일건설 주식회사,제일하나제1호위탁관리부동산투자회사,0438554539,호암제일풍경채.apti.co.kr,아파트,충청북도 충주시 호암수청1로 60,위탁관리,계단식,20221230,0438554549,874,93355.914,0.0,874.0,0.0,0.0,71190.7596,25,25,2,23,27480,36.9582071293637,127.927430077523
A10024137,충주힐스테이트호암아파트,4313010700,충청북도,충주시,호암동,,충청북도 충주시 호암동 1050 충주힐스테이트호암아파트,분양,개별난방,77550.4,7,639.0,현대건설,주택도시보증공사,0438522255,www.apthome.co.kr/,아파트,충청북도 충주시 호암수청1로 29,위탁관리,계단식,20210917,0438522256,639,52487.66,639.0,0.0,0.0,0.0,38315.52,25,25,2,17,27502,36.9557498069236,127.924721828394
A10024600,충주호암1단지,4313010700,충청북도,충주시,호암동,,충청북도 충주시 호암동 1066 충주호암1단지,임대,개별난방,46199.5,3,591.0,동부건설,한국토지주택공사,0438451066,,아파트,충청북도 충주시 호암수청2로 56,위탁관리,복도식,20201015,0438451067,591,45992.05,591.0,0.0,0.0,0.0,21191.31,25,25,1,10,27480,36.9554420254722,127.9270766727
A10024757,충주호암 LH행복주택,4313010700,충청북도,충주시,호암동,,충청북도 충주시 호암동 1067 충주호암 LH행복주택,임대,개별난방,32142.64,2,550.0,동양,LH한국토지주택공사,0438578825,,아파트,충청북도 충주시 호암수청1로 30,위탁관리,복도식,20200717,0438578826,554,31986.348,550.0,0.0,0.0,0.0,15610.7,25,25,1,7,27480,36.955539592284,127.926062773804
A10025229,호암두진하트리움아파트,4313010700,충청북도,충주시,호암동,,충청북도 충주시 호암동 1063 호암두진하트리움아파트,분양,개별난방,131000.7,12,851.0,주식회사두진건설,(주)두진,0438577601,,아파트,충청북도 충주시 호암수청2로 78,위탁관리,계단식,20191024,0438577602,851,130233.85,0.0,851.0,0.0,0.0,66299.499,25,25,2,22,27480,36.9537424117147,127.928523475128
A10025240,충주호암더휴NHF7단지,4313010700,충청북도,충주시,호암동,,충청북도 충주시 호암동 1220 충주호암더휴NHF7단지,임대,개별난방,71224.33,5,455.0,한신공영,(주)NHF 제 11호,0438450941,호암더휴.apti.co.kr,아파트,충청북도 충주시 호암토성2로 10,위탁관리,계단식,20191018,0438450940,455,71029.805,0.0,455.0,0.0,0.0,37599.14,25,25,2,10,27480,36.9552227862983,127.935064729425
A10025269,충주호암힐데스하임아파트,4313010700,충청북도,충주시,호암동,,충청북도 충주시 호암동 1191 충주호암힐데스하임아파트,분양,개별난방,154630.6,11,870.0,원건설,키움건설,0438579823,www.raybol.net,아파트,충청북도 충주시 호암토성2로 1,위탁관리,계단식,20190927,0438579824,870,103866.32,0.0,493.0,377.0,0.0,81873.98,25,25,2,22,27480,36.9547411279707,127.933329482108
A10025335,호암우미린에듀시티아파트,4313010700,충청북도,충주시,호암동,,충청북도 충주시 호암동 1052 호암우미린에듀시티아파트,분양,개별난방,144913.0,9,892.0,우미건설,우미개발,0438458302,,아파트,충청북도 충주시 호암수청1로 13,위탁관리,계단식,20190821,0438458303,892,104487.69,0.0,529.0,363.0,0.0,81253.2919,25,25,2,19,27502,36.9553467348558,127.922339080105
A38076301,호암부강아파트,4313010700,충청북도,충주시,호암동,,충청북도 충주시 호암동 152 호암부강아파트,분양,개별난방,14080.025,1,312.0,부강건설(주),부강건설(주),0438475373,,아파트,충청북도 충주시 호암중앙2로 31,위탁관리,복도식,19950929,0438455373,316,12394.512,312.0,0.0,0.0,0.0,8297.64,15,15,1,3,27481,36.9559942472051,127.940327665243
A38076302,충주세경1차,4313010700,충청북도,충주시,호암동,,충청북도 충주시 호암동 542-1 충주세경1차,혼합,개별난방,43901.023,10,664.0,세경건설주식회사,세경건설주식회사,0438475441,,아파트,충청북도 충주시 신촌1길 6,자치관리,계단식,19891215,0438485440,664,43901.023,664.0,0.0,0.0,0.0,37768.32,6,12,1,0,27415,36.958778039192,127.9290666351
A38076303,충주세경2차,4313010700,충청북도,충주시,호암동,,충청북도 충주시 호암동 542-1 충주세경2차,임대,개별난방,12553.2,1,339.0,세경건설주식회사,세경건설주식회사,0438526753,,아파트,충청북도 충주시 호암대로 17,자치관리,복도식,19940625,0438485440,146,10419.839,339.0,0.0,0.0,0.0,9225.34,12,12,3,2,27415,36.9589447313786,127.928260578663
A38076304,충주세경3차,4313010700,충청북도,충주시,호암동,,충청북도 충주시 호암동 542-18 충주세경3차,혼합,개별난방,34875.1,3,616.0,세경건설(주),세경건설(주),0438544708,,아파트,충청북도 충주시 신촌2길 2,자치관리,복도식,19980716,0438485440,616,34396.75,616.0,0.0,0.0,0.0,27004.53,15,15,2,5,27415,36.9577342005252,127.929833503295
A38096601,호암진도,4313010700,충청북도,충주시,호암동,,충청북도 충주시 호암동 135 호암진도,분양,개별난방,17291.53,2,163.0,진도종합건설,삼기건설,0438428534,,아파트,충청북도 충주시 호암중앙2로 27,자치관리,혼합식,19941017,0438548533,163,14542.195,79.0,84.0,0.0,0.0,11141.34,12,12,1,6,27481,36.9557967740716,127.939924525487
A38096702,호암수채,4313010700,충청북도,충주시,호암동,,충청북도 충주시 호암동 905 호암수채,분양,개별난방,34354.33,5,222.0,대선건설,대선건설,0438576771,수채패밀리 apti.co.kr.//,아파트,충청북도 충주시 호암중앙1로 47,자치관리,계단식,20070905,0438576772,224,25692.562,0.0,208.0,5.0,9.0,19649.7557,15,15,1,11,27481,36.956870744193,127.938146791411
A38096703,현대호반아파트,4313010700,충청북도,충주시,호암동,,충청북도 충주시 호암동 547-6 현대호반아파트,분양,개별난방,38684.64,5,374.0,현대건설,현대건설주식회사,0438445514,hoban.apti.co.kr,아파트,충청북도 충주시 신촌2길 29,위탁관리,혼합식,19940225,0438445515,374,38684.64,133.0,241.0,0.0,0.0,28420.29,15,15,0,12,27415,36.9602733466979,127.929100410398
A38096704,호암리버빌아파트,4313010700,충청북도,충주시,호암동,,충청북도 충주시 호암동 221-1 호암리버빌아파트,분양,개별난방,45897.05,6,401.0,호라건설(주),호라건설(주),0438573443,호암리버빌.apti.co.kr,아파트,충청북도 충주시 원호암5길 32,위탁관리,계단식,20021128,0438573444,401,45820.15,0.0,401.0,0.0,0.0,33956.68,15,15,1,14,27483,36.9540657699949,127.937677662292
A38096705,세영더조은,4313010700,충청북도,충주시,호암동,,충청북도 충주시 호암동 906 세영더조은,분양,개별난방,59960.0,7,437.0,세영종합건설(주),세영종합건설(주),0438562002,세영더조은.apti.co.kr,아파트,충청북도 충주시 형설로 32,위탁관리,계단식,20071214,0438562026,437,54892.9,0.0,317.0,87.0,33.0,43442.4896,15,15,0,17,27482,36.957393966403,127.94118943114
A38016001,달빛마을아파트,4313011000,충청북도,충주시,풍동,,충청북도 충주시 풍동 408-12 달빛마을아파트,분양,개별난방,9261.04,1,156.0,만화건설(주),만화건설(주),0438518924,,아파트,충청북도 충주시 하풍1길 7,위탁관리,복도식,20010321,0438518924,156,9084.887,156.0,0.0,0.0,0.0,5941.92,12,12,1,2,27479,36.939580852856,127.900985907834
A38016002,충주신한강변,4313011000,충청북도,충주시,풍동,,충청북도 충주시 풍동 408-7 충주신한강변,혼합,,8325.03,2,138.0,신한건설,신한건설,0438554667,340310@kohom.or.kr,아파트,충청북도 충주시 풍동동막길 50,위탁관리,계단식,19940531,0438544667,138,7761.9487,138.0,0.0,0.0,0.0,5308.44,6,6,1,0,27479,36.9396063075365,127.89931567011
A38020001,더푸른리버뷰아파트,4313011200,충청북도,충주시,용관동,,충청북도 충주시 용관동 172-5 더푸른리버뷰아파트,분양,개별난방,23642.27,3,498.0,동보건설,동보건설,0438532935,,아파트,충청북도 충주시 창현로 1336,위탁관리,복도식,19990125,0438532936,498,22917.12,498.0,0.0,0.0,0.0,15292.42,10,10,0,6,27475,36.9515012533465,127.888125916711
A10020724,더휴인3차아파트,4313011500,충청북도,충주시,봉방동,,충청북도 충주시 봉방동 7-1 더휴인3차아파트,분양,개별난방,4309.685,1,48.0,(주)나성,(주)나성,0438526000,,주상복합,충청북도 충주시 무학3길 5,자치관리,계단식,20141224,07046345678,48,4309.674,30.0,18.0,0.0,0.0,3263.256,10,10,0,2,,36.9748176398919,127.925984453476
A10022876,충주주상복합모아미래도,4313011500,충청북도,충주시,봉방동,,충청북도 충주시 봉방동 180-10 충주주상복합모아미래도,분양,개별난방,50478.727,3,330.0,(주)썬씨앤디,(주)모아종합건설,0438478890,miraedo.apatner.com,주상복합,충청북도 충주시 삼원로 28,위탁관리,계단식,20231214,0438478891,395,33537.797,164.0,166.0,0.0,0.0,23903.1308,30,30,2,0,27429,36.9711087853416,127.916395849752
A38095901,상지씨티빌아파트,4313011500,충청북도,충주시,봉방동,,충청북도 충주시 봉방동 143-3 상지씨티빌아파트,분양,개별난방,7276.0,1,177.0,(주)대건,상지건설(주),0438568567,.sangjico.com,아파트,충청북도 충주시 봉방4길 38,위탁관리,복도식,20020125,0438568568,177,7223.193,177.0,0.0,0.0,0.0,4458.63,11,11,1,2,27426,36.9739910527094,127.920591891662
A38095902,봉방세중참사랑,4313011500,충청북도,충주시,봉방동,,충청북도 충주시 봉방동 24-1 봉방세중참사랑,분양,개별난방,12854.41,2,113.0,세중엔지니어링(주),(주)세중,0438487304,,아파트,충청북도 충주시 봉방1길 17,자치관리,계단식,20041208,0438422689,113,12177.852,0.0,113.0,0.0,0.0,9600.48,12,12,1,0,27426,36.9744025861444,127.921460122972
A38095904,충주푸르지오,4313011500,충청북도,충주시,봉방동,,충청북도 충주시 봉방동 1046 충주푸르지오,분양,개별난방,98321.0,7,637.0,(주)대우건설,국제신탁주식회사,0438538400,,아파트,충청북도 충주시 봉계1길 7,위탁관리,계단식,20140729,0438538402,637,73869.67,0.0,637.0,0.0,0.0,54109.583,29,29,0,14,27369,36.9776931127975,127.912575469222
A38076204,충주부영1차아파트,4313011600,충청북도,충주시,칠금동,,충청북도 충주시 칠금동 821 충주부영1차아파트,분양,개별난방,64365.64,4,720.0,부영(주),부영(주),0438481862,,아파트,충청북도 충주시 금릉로 46,위탁관리,복도식,19960723,0438481863,720,56033.82,720.0,0.0,0.0,0.0,41488.2,15,15,1,8,27359,36.9846211062645,127.920828131305
A38076206,칠금2차부영아파트,4313011600,충청북도,충주시,칠금동,,충청북도 충주시 칠금동 1015 칠금2차부영아파트,분양,개별난방,113753.59,8,1240.0,주식회사부영,주식회사부영,0438479631,칠금2차부영.apti.co.kr,아파트,충청북도 충주시 칠금중앙로 30,위탁관리,복도식,19961206,0438475938,1240,95395.36,1240.0,0.0,0.0,0.0,69749.61,15,15,1,16,27361,36.9803041183078,127.9170858738
A38096501,세영첼시빌아파트,4313011600,충청북도,충주시,칠금동,,충청북도 충주시 칠금동 628 세영첼시빌아파트,분양,개별난방,39334.2,4,312.0,세영종합개발(주),세영종합개발(주),0438559665,http://충주세영첼시빌.apti.co.kr/,아파트,충청북도 충주시 금릉로 33,위탁관리,계단식,20020314,0438579666,312,34916.82,0.0,270.0,42.0,0.0,28280.46,15,15,0,12,27354,36.9850020452812,127.919250376719
A38096502,충주삼일아파트,4313011600,충청북도,충주시,칠금동,,충청북도 충주시 칠금동 626 충주삼일아파트,분양,개별난방,65557.62,5,433.0,삼일주택공사,삼일주택공사,0438450368,삼일.apti.co.kr,아파트,충청북도 충주시 금릉로 17,자치관리,계단식,19960910,0438484426,433,60833.395,0.0,120.0,120.0,193.0,51411.51,15,15,1,15,27354,36.986211220445,127.91753148429
A38096503,금릉현대아파트,4313011600,충청북도,충주시,칠금동,,충청북도 충주시 칠금동 629 금릉현대아파트,분양,개별난방,45437.0,6,520.0,현대산업개발(주),현대산업개발(주),0438457771,,아파트,충청북도 충주시 금릉로 45,자치관리,계단식,19950630,0438457772,520,41204.645,520.0,0.0,0.0,0.0,31192.2,15,15,1,18,27354,36.9857890619345,127.921175013078
A38096505,코오롱동신아파트,4313011600,충청북도,충주시,칠금동,,충청북도 충주시 칠금동 825 코오롱동신아파트,분양,개별난방,104253.56,14,920.0,"코오롱건설(주), (주)동신",코오롱건설(주),0438484287,kda090.apti.co.kr,아파트,충청북도 충주시 금릉로 14,위탁관리,계단식,19971028,0438484288,920,89726.24,0.0,920.0,0.0,0.0,71794.48,15,15,1,32,27359,36.9831923758019,127.917677629809
A10026026,충주센트럴푸르지오아파트,4313011800,충청북도,충주시,연수동,,충청북도 충주시 연수동 1767 충주센트럴푸르지오아파트,분양,개별난방,96360.0,4,608.0,(주)대우건설,아시아신탁-태진디앤씨,0438571185,"충주센트럴푸르지오.apti,co.kr",주상복합,충청북도 충주시 연수서편2길 11,위탁관리,계단식,20181005,0438571186,608,68374.52,0.0,608.0,0.0,0.0,51655.1328,39,39,2,12,27347,36.990569624756,127.929527442347
A10027510,계룡리슈빌2차아파트,4313011800,충청북도,충주시,연수동,,충청북도 충주시 연수동 1763 계룡리슈빌2차아파트,분양,개별난방,57264.02,6,439.0,계룡건설,(주)케이티에스테이트,0438578906,충주계룡리수빌2차.apti.co.kr,아파트,충청북도 충주시 연수서편2길 32,위탁관리,계단식,20160216,0438578908,439,41096.81,189.0,250.0,0.0,0.0,30549.5373,23,23,1,14,27346,36.9886877514809,127.932426202325
A38010011,연수주공6단지,4313011800,충청북도,충주시,연수동,,충청북도 충주시 연수동 1755 연수주공6단지,임대,개별난방,37805.37,7,538.0,삼능건설,한국토지주택공사,0438562294,연수주공6단지.apti.co.kr,아파트,충청북도 충주시 금곡서1길 5,위탁관리,혼합식,20070417,0438562295,538,37805.29,538.0,0.0,0.0,0.0,26755.82,15,15,0,11,27344,36.989273866807,127.939479271115
A38010013,연수리슈빌아파트,4313011800,충청북도,충주시,연수동,,충청북도 충주시 연수동 1629 연수리슈빌아파트,분양,개별난방,95104.86,7,594.0,계룡건설(주),리드산업개발,0438524600,,아파트,충청북도 충주시 연수동산로 12,위탁관리,계단식,20070712,0438562599,594,76456.8,0.0,270.0,290.0,34.0,60135.9582,18,18,2,17,27353,36.9839881175731,127.94271919685
A38075402,두진3차아파트,4313011800,충청북도,충주시,연수동,,충청북도 충주시 연수동 700-4 두진3차아파트,분양,개별난방,25618.68,3,298.0,두진종합건설(주),두진종합건설,0438446638,www.raybol.net/adminB00036,아파트,충청북도 충주시 연수로 20,위탁관리,계단식,19960327,0438446640,298,20189.799,298.0,0.0,0.0,0.0,14864.24,14,14,1,12,27347,36.9911871593953,127.930878509656
A38075415,"연수두진1,2차아파트",4313011800,충청북도,충주시,연수동,,"충청북도 충주시 연수동 700 연수두진1,2차아파트",분양,개별난방,61074.277,4,735.0,두진종합건설,두진종합건설,0438435274,https://두진12차.apt.co.kr,아파트,충청북도 충주시 연수로 7,위탁관리,혼합식,19911227,0438545280,735,56995.688,588.0,87.0,0.0,60.0,43209.06,15,15,0,10,27341,36.9918708492637,127.931238094322
A38075516,연수세원아파트,4313011800,충청북도,충주시,연수동,,충청북도 충주시 연수동 930 연수세원아파트,분양,개별난방,61139.46,6,753.0,(주)세원건설,(주)세원건설,0438431058,세원연수.apti.co.kr/default.asp,아파트,충청북도 충주시 번영대로 120,위탁관리,복도식,19911219,0438431057,753,59430.742,753.0,0.0,0.0,0.0,43664.26,15,15,0,12,27348,36.9865248388847,127.931293665617
A38075717,연수주공1단지아파트,4313011800,충청북도,충주시,연수동,,충청북도 충주시 연수동 1227 연수주공1단지아파트,분양,개별난방,45199.87,18,860.0,한국토지공사,한국토지공사,0438483808,,아파트,충청북도 충주시 예성로 353,자치관리,계단식,19901211,0438433978,860,45199.3,860.0,0.0,0.0,0.0,36183.5,5,5,1,0,27345,36.987482713363,127.933397233187
A38075904,유원2차아파트,4313011800,충청북도,충주시,연수동,,충청북도 충주시 연수동 421-7 유원2차아파트,분양,개별난방,41810.9,2,413.0,유원건설(주),유원건설(주),0438443990,www.raybol.net/B00030,아파트,충청북도 충주시 국원초2길 18,위탁관리,계단식,19950116,0438488997,413,40340.3,168.0,245.0,0.0,0.0,30889.41,18,18,1,12,27372,36.9810500188151,127.942066123408
A38075906,유원하나아파트,4313011800,충청북도,충주시,연수동,,충청북도 충주시 연수동 418 유원하나아파트,분양,개별난방,68548.53,4,467.0,유원건설(주),유원건설(주),0438513219,유원하나.apti.co.kr,아파트,충청북도 충주시 갱고개로 116,위탁관리,계단식,19930714,0438486916,467,38222.934,165.0,242.0,60.0,0.0,38222.93,15,15,0,16,27372,36.9814359663162,127.940392135293
A38076521,충주연수2,4313011800,충청북도,충주시,연수동,,충청북도 충주시 연수동 1228 충주연수2,임대,중앙난방,68777.65,8,1582.0,"학산,임광",주공,0438523808,kohom.co.kr,아파트,충청북도 충주시 예성로 356,위탁관리,복도식,19930524,0438524235,1582,63796.96,1582.0,0.0,0.0,0.0,43637.94,15,15,0,16,27345,36.9880495386888,127.934648699062
A38076614,연수주공3단지아파트,4313011800,충청북도,충주시,연수동,,충청북도 충주시 연수동 1231 연수주공3단지아파트,분양,개별난방,35502.3,3,630.0,대한주택관리공사,대한주택관리공사,0438449926,https://xn--3-2c6er1njtrtqeynfca58mg7q.apti.co.kr/aptHome/,아파트,충청북도 충주시 주공길 6,위탁관리,복도식,19940519,0438459926,630,35502.3,630.0,0.0,0.0,0.0,27027,15,15,1,7,27345,36.9875332951953,127.937383720706
A38076912,연수세원한아름아파트,4313011800,충청북도,충주시,연수동,,충청북도 충주시 연수동 1220 연수세원한아름아파트,분양,개별난방,51149.33,6,560.0,세원건설,세원건설,0438444173,충주세원한아름.apti.co.kr,아파트,충청북도 충주시 금릉로 101,위탁관리,혼합식,19961010,0438429568,560,42874.58,416.0,144.0,0.0,0.0,33229.5,12,12,1,20,27356,36.9850546369496,127.926844207874
A38077009,연수부강아파트,4313011800,충청북도,충주시,연수동,,충청북도 충주시 연수동 701-9 연수부강아파트,분양,개별난방,35276.38,2,495.0,부강건설,부강건설,0438444106,,아파트,충청북도 충주시 후곡길 19,자치관리,복도식,19950825,0438425861,495,33179.613,495.0,0.0,0.0,0.0,24584.97,15,15,0,4,27341,36.9928439037065,127.930731330413
A38077107,삼성2차아파트,4313011800,충청북도,충주시,연수동,,충청북도 충주시 연수동 1219 삼성2차아파트,분양,개별난방,49975.66,6,480.0,삼성건설(주),삼성건설(주),0438428166,충주삼성2.apti.co.kr,아파트,충청북도 충주시 연수서1길 20,위탁관리,계단식,19941116,0438478902,480,45159.875,120.0,360.0,0.0,0.0,35182.8,12,12,0,20,27356,36.9860590307766,127.926764515687
A38077208,연수임광아파트,4313011800,충청북도,충주시,연수동,,충청북도 충주시 연수동 931 연수임광아파트,분양,개별난방,54603.66,7,484.0,임광토건,임광토건,0438480025,,아파트,충청북도 충주시 국원대로 172,위탁관리,계단식,19911126,0438528414,484,54332.74,0.0,374.0,110.0,0.0,44246.62,11,11,0,22,27348,36.9868667343277,127.928770378106
A38077810,연수아이파크아파트,4313011800,충청북도,충주시,연수동,,충청북도 충주시 연수동 605 연수아이파크아파트,분양,개별난방,92714.19,9,537.0,현대산업개발,현대산업개발,0438550850,,아파트,충청북도 충주시 연수로1길 12,자치관리,계단식,20060623,0438550851,537,74291.92,0.0,224.0,239.0,74.0,56799.5144,15,15,2,18,27342,36.993112584604,127.936232397988
A38078101,연수힐스테이트,4313011800,충청북도,충주시,연수동,,충청북도 충주시 연수동 1627 연수힐스테이트,분양,개별난방,148479.2,11,871.0,현대건설(주),도시공간,0438571515,,아파트,충청북도 충주시 연수동산로 26,자치관리,계단식,20070706,0438571518,871,118503.3,0.0,441.0,310.0,120.0,90687.412,17,17,1,29,27353,36.9860975719432,127.943977154959
A38078102,연수휴먼시아7단지임대,4313011800,충청북도,충주시,연수동,,충청북도 충주시 연수동 1759 연수휴먼시아7단지임대,임대,개별난방,34436.566,6,498.0,동원시스템즈(주),한국토지주택공사,0438447850,연수휴먼시아7.apti.co.kr,아파트,충청북도 충주시 갱고개로 230,위탁관리,혼합식,20091201,0438447849,498,34292.89,498.0,0.0,0.0,0.0,22066.08,15,15,1,12,27343,36.9929580018689,127.939250052945
A38078103,연수주공5단지,4313011800,충청북도,충주시,연수동,,충청북도 충주시 연수동 686 연수주공5단지,분양,개별난방,31233.27,3,420.0,한국토지주택공사,한국토지주택공사,0438481711,www.raybol.net/B00034,아파트,충청북도 충주시 예성로 401,위탁관리,복도식,19971031,0438486239,420,27801.9,420.0,0.0,0.0,0.0,19693.8,15,15,0,6,27341,36.9922769687948,127.931557568164
A38078104,연수주공4단지아파트,4313011800,충청북도,충주시,연수동,,충청북도 충주시 연수동 686 연수주공4단지아파트,분양,개별난방,115631.12,11,990.0,한양건설,대한주택공사,0438481710,,아파트,충청북도 충주시 예성로 401,위탁관리,계단식,19971031,0438561710,990,75971.414,990.0,0.0,0.0,0.0,59112.9,15,15,1,33,27341,36.9922769687948,127.931557568164
A38078105,연수리첼2단지,4313011800,충청북도,충주시,연수동,,충청북도 충주시 연수동 1626 연수리첼2단지,분양,개별난방,34943.75,4,240.0,(주)세영개발,(주)세영개발,0438467723,,아파트,충청북도 충주시 연수동산로 38,위탁관리(직영+위탁),계단식,20140429,0438467726,240,26698.734,0.0,240.0,0.0,0.0,20397.0306,18,18,1,8,27353,36.9862142790124,127.942454972247
A38078106,연수세영리첼1단지,4313011800,충청북도,충주시,연수동,,충청북도 충주시 연수동 1625 연수세영리첼1단지,분양,개별난방,49498.09,5,299.0,세영종합건설(주),세영개발(주),0438477771,리첼1단지.apti.co.kr/aptHome/,아파트,충청북도 충주시 연수동산로 37,위탁관리,계단식,20140627,0438477760,299,33938.824,0.0,299.0,0.0,0.0,25412.2207,15,15,2,13,27352,36.9862574543277,127.940396672364
A38096103,연수낙원아파트,4313011800,충청북도,충주시,연수동,,충청북도 충주시 연수동 464-3 연수낙원아파트,분양,개별난방,22944.84,2,336.0,(주) 부강건설,충주시청,0438513558,충주연수낙원.apti.co.kr,아파트,충청북도 충주시 동수5길 34,위탁관리,복도식,19930520,0438483750,336,21947.52,336.0,0.0,0.0,0.0,14827.68,15,15,0,4,27351,36.9839617158726,127.9368692885
A38096301,연수우림아파트,4313011800,충청북도,충주시,연수동,,충청북도 충주시 연수동 926 연수우림아파트,분양,개별난방,22204.0,2,208.0,우림,우림,0438522131,,아파트,충청북도 충주시 연원5길 62,자치관리,계단식,19901211,0438522131,208,22048.0,0.0,208.0,0.0,0.0,17623.84,13,13,1,8,27348,36.9867082075329,127.932968362627
A10025815,영무예다음아파트,4313011900,충청북도,충주시,목행동,,충청북도 충주시 목행동 896 영무예다음아파트,임대,개별난방,59902.45,7,440.0,(주)영무토건,(주)와이엠개발,0438451300,mhym.apti.co.kr,아파트,,위탁관리,계단식,20180914,0438451301,440,41644.9,240.0,200.0,0.0,0.0,30379.3963,21,21,1,17,27437,37.0096860888167,127.916449720225
A38024001,목행세중참사랑,4313011900,충청북도,충주시,목행동,,충청북도 충주시 목행동 508-39 목행세중참사랑,분양,개별난방,35825.23,5,293.0,(주)세중건설,(주)세중건설,0438423599,,아파트,충청북도 충주시 목행산단6로 71,위탁관리,계단식,20030630,0438423598,293,30026.436,0.0,293.0,0.0,0.0,24902.07,14,14,0,11,27332,37.0043981586647,127.919424669427
A38024002,충주삼진동산,4313011900,충청북도,충주시,목행동,,충청북도 충주시 목행동 593-8 충주삼진동산,분양,개별난방,22059.09,3,328.0,삼진건설,삼진건설,0438533686,삼진동산.apti.co.kr/,아파트,충청북도 충주시 행정10길 36,위탁관리,혼합식,19950922,0438531288,328,19550.592,328.0,0.0,0.0,0.0,14328,12,12,1,7,27436,37.0136337738521,127.919337382235
A38024003,새한목행아파트,4313011900,충청북도,충주시,목행동,,충청북도 충주시 목행동 508-35 새한목행아파트,분양,개별난방,38677.42,3,444.0,새한건설,새한건설,0438538992,새한목행아파트.apti.co.kr,아파트,충청북도 충주시 목행산단3로 13-9,자치관리,계단식,19951123,0438528992,444,37521.0,414.0,30.0,0.0,0.0,27363.66,15,15,0,16,27332,37.0036499584242,127.917534422008
A38070301,목행한라비발디,4313011900,충청북도,충주시,목행동,,충청북도 충주시 목행동 886 목행한라비발디,분양,개별난방,80633.35,11,550.0,(주)한라,세중건설,0438517705,cjhlv.apti.co.kr,아파트,충청북도 충주시 목행산단4로 13,자치관리,계단식,20071108,0438517706,550,60290.38,0.0,510.0,40.0,0.0,47949.156,15,15,2,20,27332,37.0059313424375,127.917427359734
A10027025,충주안림LH천년나무2단지,4313012200,충청북도,충주시,안림동,,충청북도 충주시 안림동 1172 충주안림LH천년나무2단지,혼합,개별난방,27930.02,3,198.0,한성개발(주),한국토지주택공사,0438579112,천년나무2.apti.co.kr,아파트,충청북도 충주시 월촌5길 12,위탁관리,계단식,20170418,0438579113,198,27822.3,0.0,198.0,0.0,0.0,16329.06,14,14,1,9,27373,36.9791708983731,127.943946272254
A10027362,충주2차푸르지오,4313012200,충청북도,충주시,안림동,,충청북도 충주시 안림동 1171 충주2차푸르지오,분양,개별난방,108291.086,7,825.0,대우건설,어반디앤씨,0438566531,충주2차푸르지오.apti.co.kr,아파트,충청북도 충주시 봉현로 366,위탁관리,계단식,20161010,0438566532,825,82180.79,274.0,551.0,0.0,0.0,60979.8717,29,29,2,0,27380,36.9763920926646,127.943295387799
A10027839,충주안림천년나무1단지,4313012200,충청북도,충주시,안림동,,충청북도 충주시 안림동 1167 충주안림천년나무1단지,혼합,개별난방,44855.05,5,344.0,우미건설,217-82-85199,0438510093,안림LH천년나무1단지apti.co.kr,아파트,충청북도 충주시 봉현로 365,위탁관리,계단식,20151026,0438510094,344,44754.703,90.0,254.0,0.0,0.0,25803.05,15,15,2,12,27380,36.9776928719106,127.945082762644
A38011001,아침도시,4313012200,충청북도,충주시,안림동,,충청북도 충주시 안림동 1083-3 아침도시,분양,개별난방,33752.535,3,243.0,신원종합개발,우남건설,0438455563,아침도시.apti.co.kr,아파트,충청북도 충주시 만리산10길 15,자치관리,계단식,20060523,0438485563,243,23677.266,0.0,136.0,99.0,8.0,24227.53,13,13,0,10,27381,36.9715002708366,127.943942718481
A38077902,안림LG아파트,4313012200,충청북도,충주시,안림동,,충청북도 충주시 안림동 1119 안림LG아파트,분양,개별난방,65600.1,6,546.0,LG건설,LG건설,0438483290,,아파트,충청북도 충주시 금봉대로 397,위탁관리,계단식,19960816,0438522955,547,54832.098,234.0,240.0,72.0,0.0,41752.3248,18,18,0,16,27382,36.9699802676972,127.945926080145
A38077903,충주엘리시아,4313012200,충청북도,충주시,안림동,,충청북도 충주시 안림동 1166 충주엘리시아,분양,개별난방,53273.0,5,397.0,케이디건설,대한토지신탁,0438457887,cafe.daum.net/eliciacafe,아파트,충청북도 충주시 국원초1길 48,위탁관리,계단식,20070228,0438467887,397,45801.89,0.0,397.0,0.0,0.0,33737.5761,15,15,0,15,27373,36.9803714147543,127.944121821189
A38007001,지현현대아파트,4313012500,충청북도,충주시,지현동,,충청북도 충주시 지현동 1088 지현현대아파트,분양,개별난방,27925.195,4,268.0,주)현대산업개발,주)현대산업개발,0438482034,지현현대apt.co.kr,아파트,충청북도 충주시 지곡10길 8,위탁관리,계단식,19901031,0438482055,268,27449.44,0.0,268.0,0.0,0.0,21966.6,15,15,1,9,27414,36.9637582519114,127.929159938073
A38095801,호수마을아파트,4313012700,충청북도,충주시,문화동,,충청북도 충주시 문화동 2305 호수마을아파트,분양,개별난방,43627.77,3,390.0,(주)동양도시개발,호암아파트재건축조합,0438569401,,아파트,충청북도 충주시 사직로 114,위탁관리,계단식,20031119,0438569402,390,40998.12,162.0,152.0,76.0,0.0,32305.58,19,19,1,11,27411,36.9667835492553,127.924715699808
A38095802,럭키문화아파트,4313012700,충청북도,충주시,문화동,,충청북도 충주시 문화동 2260 럭키문화아파트,분양,개별난방,106580.0,10,812.0,럭키개발(주),럭키개발(주),0438436235,,아파트,충청북도 충주시 중원대로 3379,위탁관리,계단식,19931207,0438436236,812,94530.36,0.0,628.0,126.0,58.0,76932.34,15,15,0,28,27422,36.9685333436428,127.921663366546
A38023001,삼성1차아파트,4313012800,충청북도,충주시,금릉동,,충청북도 충주시 금릉동 771 삼성1차아파트,분양,개별난방,42409.85,4,470.0,삼성종합건설(주),삼성종합건설(주),0438512280,삼성1차아파트.apti.co.kr,아파트,충청북도 충주시 금제1길 5,위탁관리,혼합식,19931222,0438512282,470,39574.74,310.0,160.0,0.0,0.0,28827,12,12,0,11,27340,36.9884173914386,127.924344358999
A38088101,주덕주한아파트,4313025025,충청북도,충주시,주덕읍,신중리,충청북도 충주시 주덕읍 신중리 69-1 주덕주한아파트,분양,개별난방,14576.42,1,229.0,(주)주한주택건설,(주) 주한주택건설,0438511828,확인,아파트,충청북도 충주시 신덕로 1302,위탁관리,복도식,19930722,0438541828,229,14009.1,164.0,65.0,0.0,0.0,10160.64,15,15,1,2,27462,36.9765095030995,127.789897813533
A10020578,서충주푸르지오더퍼스트 아파트,4313025026,충청북도,충주시,주덕읍,화곡리,충청북도 충주시 주덕읍 화곡리 1111- 서충주푸르지오더퍼스트 아파트,분양,개별난방,189230.5,7,1029.0,(주)대우건설,태유디앤피(주),0438426691,,아파트,충청북도 충주시 화개1길 74,위탁관리,계단식,20250624,0438426692,1029,119783.73,0.0,857.0,172.0,0.0,87033.8817,37,37,4,33,,37.0104392477666,127.816474531256
A10021025,서충주삼일파라뷰2차그랜드시티,4313025026,충청북도,충주시,주덕읍,화곡리,충청북도 충주시 주덕읍 화곡리 1250- 서충주삼일파라뷰2차그랜드시티,임대,개별난방,159357.73,13,930.0,삼일건설,삼일파라뷰 앤 루체아(주),027243900,,아파트,충청북도 충주시 화개4길 29,위탁관리,계단식,20241114,0437243901,930,159354.72,0.0,930.0,0.0,0.0,79039.096,29,29,2,28,,37.0053142142331,127.821450948005
A10022375,서충주삼일파라뷰그랜드센트럴,4313025026,충청북도,충주시,주덕읍,화곡리,충청북도 충주시 주덕읍 화곡리 1246- 서충주삼일파라뷰그랜드센트럴,임대,개별난방,155714.3,10,919.0,삼일건설,파라뷰엠센트럴주식회사,0437243000,,아파트,충청북도 충주시 화개1길 16,위탁관리,계단식,20240809,0437243099,919,152074.16,0.0,919.0,0.0,0.0,78104.3546,29,29,2,2,,37.0051318568741,127.818631718069
A10022988,중앙하이츠프리미어충주아파트,4313033531,충청북도,충주시,대소원면,본리,충청북도 충주시 대소원면 본리 649 중앙하이츠프리미어충주아파트,분양,개별난방,42980.76,5,274.0,중앙건설(주),우석디앤씨(주),0438462224,,아파트,충청북도 충주시 첨단산업4로 54,위탁관리,계단식,20230921,0438462225,274,30241.38,0.0,274.0,0.0,0.0,23279.04,15,15,1,11,27466,36.988885403981,127.825765003799
A10025937,서충주 오드카운티 아파트,4313033531,충청북도,충주시,대소원면,본리,충청북도 충주시 대소원면 본리 651 서충주 오드카운티 아파트,혼합,개별난방,76027.68,8,534.0,동광종합토건(주),동광종합토건(주),0438535308,,아파트,충청북도 충주시 첨단산업2로 41,위탁관리,계단식,20181025,0438535309,534,52928.594,176.0,358.0,0.0,0.0,40951.7402,15,15,1,18,27466,36.9890615399435,127.828122035986
A10027223,충주코아루퍼스트아파트,4313033531,충청북도,충주시,대소원면,본리,충청북도 충주시 대소원면 본리 645 충주코아루퍼스트아파트,분양,개별난방,64912.0,8,603.0,금강종합건설,한국토지신탁,0438578261,,아파트,충청북도 충주시 첨단산업4로 24,위탁관리,계단식,20161215,0438578262,603,48388.97,603.0,0.0,0.0,0.0,35807.5284,15,15,1,21,27466,36.9874970337803,127.828806196521
A10027254,충주첨단행복주택아파트,4313033531,충청북도,충주시,대소원면,본리,충청북도 충주시 대소원면 본리 668 충주첨단행복주택아파트,임대,개별난방,13844.36,3,295.0,선광토건,한국토지주택공사,0438545007,,아파트,충청북도 충주시 첨단쉼터8길 19,위탁관리,복도식,20161206,0438545008,295,13740.014,295.0,0.0,0.0,0.0,8363.31,8,8,0,7,27466,36.9891050184887,127.822932617959
A10027583,충주지웰아파트,4313033531,충청북도,충주시,대소원면,본리,충청북도 충주시 대소원면 본리 642 충주지웰아파트,분양,개별난방,62418.926,8,602.0,신영건설(주),(주)한국토지신탁,0438541934,,아파트,충청북도 충주시 첨단산업2로 56,위탁관리,계단식,20160216,0438541935,602,48298.81,602.0,0.0,0.0,0.0,35596.398,15,15,1,0,27466,36.9894809481026,127.830306831913
A10022913,포레나서충주아파트,4313038526,충청북도,충주시,중앙탑면,용전리,충청북도 충주시 중앙탑면 용전리 654 포레나서충주아파트,분양,개별난방,66514.33,6,478.0,한화건설,세명도시개발,0438461114,포레나서충주.apti.co.kr,아파트,충청북도 충주시 기업도시로 211,위탁관리,계단식,20231012,0438461118,478,52435.004,0.0,478.0,0.0,0.0,39474.1913,20,20,0,15,27465,37.015616767302,127.823910479449
A10025341,서충주신도시 코아루더테라스,4313038526,충청북도,충주시,중앙탑면,용전리,충청북도 충주시 중앙탑면 용전리 686 서충주신도시 코아루더테라스,분양,개별난방,23741.752,11,170.0,계성건설,한국토지신탁,0437249007,,아파트,충청북도 충주시 원앙9길 10,위탁관리,계단식,20191128,0437249008,170,23741.752,0.0,170.0,0.0,0.0,14352.2378,5,5,2,27,27465,37.0179479832096,127.825335530632
A10026516,충주신우희가로 아파트,4313038526,충청북도,충주시,중앙탑면,용전리,충청북도 충주시 중앙탑면 용전리 696 충주신우희가로 아파트,혼합,개별난방,98190.79,11,741.0,신우종합토건,신우산업개발,0438551507,swhstay.aptner.com,아파트,충청북도 충주시 원앙4길 96,위탁관리,계단식,20180115,0438541505,741,71538.54,438.0,303.0,0.0,0.0,51965.3349,20,20,3,25,27465,37.0145685225671,127.832541899286
A10026543,충주 미진이지비아아파트,4313038526,충청북도,충주시,중앙탑면,용전리,충청북도 충주시 중앙탑면 용전리 656 충주 미진이지비아아파트,분양,개별난방,99602.305,11,782.0,미진건설주식회사,미진이엔시주식회사,0438513435,충주미진이지비아.apti.co.kr,아파트,충청북도 충주시 기업도시로 189,위탁관리,계단식,20171114,0438513437,782,71535.83,502.0,280.0,0.0,0.0,52509.1582,20,20,1,22,27465,37.0138961787093,127.826415217899
A10026599,충주e편한세상아파트,4313038526,충청북도,충주시,중앙탑면,용전리,충청북도 충주시 중앙탑면 용전리 661 충주e편한세상아파트,분양,개별난방,177890.45,19,1455.0,대림산업(주),(주)한국토지신탁,0438427705,충주e편한세상.apti.co.kr,아파트,충청북도 충주시 원앙9길 15,위탁관리,계단식,20171226,0438427706,1455,135321.58,941.0,514.0,0.0,0.0,100012.1724,20,20,1,42,27465,37.0157412993212,127.825918770774
A10026653,충주시티자이,4313038526,충청북도,충주시,중앙탑면,용전리,충청북도 충주시 중앙탑면 용전리 721 충주시티자이,분양,개별난방,205011.4,20,1596.0,(주)GS건설,국제자산신탁,0438455830,,아파트,충청북도 충주시 원앙4길 51,위탁관리,계단식,20171129,0438455831,1596,148356.38,976.0,620.0,0.0,0.0,107802.212,20,20,3,42,27465,37.0169444522857,127.830454094836
